~Version Information Block
VERS .                 2.00:  CWLS LOG ASCII STANDARD - VERSION 2.00
WRAP .                   NO:  One line per depth step
~Well Information Block
#MNEM.UNIT        Data Type   Information
#---------- ----------------  -----------
STRT .M          3457.23500:  START DEPTH
STOP .M          3635.08580:  STOP DEPTH
STEP .M             0.15240:  STEP
NULL .              -999.25:  NULL VALUE
COMP .                     :  COMPANY
WELL .          NO_15/9-F-5:  WELL
FLD  .                     :  FIELD
LOC  .                     :  LOCATION
CTRY .                     :  COUNTRY
STAT .                     :  STATE
CNTY .                     :  COUNTY
SRVC .                     :  SERVICE COMPANY
DATE .                     :  DATE
API  .                     :  API NUMBER
UWI  .                     :  UNIQUE WELL ID
~Curve Information Block
#MNEM.UNIT         API CODE   Curve Description
#---------- ----------------  -----------------
DEPTH.M                    :  
SAT201IC_BHOF.                     :  
SAT201IC_BVW.                     :  
SAT201IC_CRRA.                     :  Near-Far Count Rate Ratio
SAT201IC_FBEF.UA                   :  RST Far Effective Beam Current
SAT201IC_FCOR.                     :  
SAT201IC_GR.GAPI                 :  Gamma Ray
SAT201IC_NCOR.                     :  
SAT201IC_SO.                     :  
SAT201IC_SW.                     :  
SAT201IC_WPRE.PSI                  :  Well Pressure
SAT201IC_WTEP.DEGC                 :  Well Temperature
SAT201SI_BSAL.PPM                  :  Borehole Salinity
SAT201SI_GR.GAPI                 :  Gamma Ray
SAT201SI_IRAT.                     :  RST Inelastic Ratio
SAT201SI_RSCF.                     :  RST Far Detector Effective Unregulated Capture Count Rate
SAT201SI_RSCN.                     :  RST Near Detector Effective Unregulated Capture Count Rate
SAT201SI_SIGR.CU                   :  Formation Sigma (Neutron Capture Cross Section)
SAT201SI_TPHI.V/V                  :  Thermal Decay Porosity
~Parameter Information Block
#MNEM.UNIT            Value   Description
#---------- ----------------  -----------
CUR_INT_BOT.M           3635.2382:  
PROJECT.     SLEIPNER_OST@st-vlinapp01:  
SET  .            RSTD_0912:  
~Other Information Block
# 
~A       DEPTH  SAT201IC_BHOF   SAT201IC_BVW  SAT201IC_CRRA  SAT201IC_FBEF  SAT201IC_FCOR    SAT201IC_GR  SAT201IC_NCOR    SAT201IC_SO    SAT201IC_SW  SAT201IC_WPRE  SAT201IC_WTEP  SAT201SI_BSAL    SAT201SI_GR  SAT201SI_IRAT  SAT201SI_RSCF  SAT201SI_RSCN  SAT201SI_SIGR  SAT201SI_TPHI 
# ...
    3492.59180     -0.0243800       0.000000         2.9752       113.3261      0.0427700        54.5603      0.0243000       0.199600         0.0000      5027.8047        95.7042     40028.3008        39.7051       0.326400         5.7543         6.9272        24.6303       0.312400
    3492.74420     -0.0246700       0.000000         2.9496       114.0900      0.0633500        54.2980      0.0307500       0.286700         0.0000      5027.9438        95.6996     40362.0000        39.5086       0.325600         5.2520         6.5908        24.4042       0.292900
    3492.89660     -0.0262100       0.000000         2.9782       114.5516      0.0715800        53.0626      0.0376400       0.330200         0.0000      5028.0884        95.6906     40459.8984        39.0020       0.323200         5.3704         6.0923        24.3276       0.255800
    3493.04900     -0.0271500       0.000000         2.9723       113.5361      0.0680000        50.8432      0.0426800       0.328900         0.0000      5028.2222        95.6784     41440.3008        35.7662       0.325500         5.6160         5.9897        23.7083       0.218600
    3493.20140     -0.0266700       0.000000         3.0029       110.1407      0.0733100        47.8689      0.0480700       0.341800         0.0000      5028.3672        95.6680     41713.6016        33.2749       0.326000         7.0420         6.8158        21.9721       0.190400
    3493.35380     -0.0255100       0.000000         2.9480       106.9223      0.0789400        45.1055      0.0470300       0.363800         0.0000      5028.5127        95.6576     41510.5000        30.5290       0.332200         8.0237         7.6581        20.3220       0.178400
    3493.50620     -0.0233300       0.000000         2.8677       106.0612      0.0762700        42.9890      0.0449200       0.357800         0.0000      5028.6431        95.6434     42376.0977        28.3837       0.338100         8.1303         7.7246        19.1961       0.173600
    3493.65860     -0.0194700       0.000000         2.8533       104.2144      0.0793800        40.6915      0.0439100       0.367500         0.0000      5028.7949        95.6392     42430.6992        25.2281       0.337100         9.3122         8.3395        18.6391       0.170700
    3493.81100   -999.2500000    -999.250000         2.8047       103.5174      0.0933300        39.7051      0.0479200    -999.250000      -999.2500      5028.9194        95.6256     42717.2031        24.5610       0.337500         9.5606         8.4566        18.1192       0.173900
    3493.96340   -999.2500000    -999.250000         2.8002       104.0881      0.1061500        39.2354      0.0402000    -999.250000      -999.2500      5029.0703        95.6189     43270.1992        24.2455       0.339000         9.7907         8.9415        17.7765       0.178100
    3494.11580   -999.2500000    -999.250000         2.8113       103.5990      0.1055000        38.1430      0.0373200    -999.250000      -999.2500      5029.2227        95.6041     43849.0000        23.0441       0.346700         9.2338         8.7479        17.6945       0.184200
    3494.26820   -999.2500000    -999.250000         2.7913       104.3708      0.0907500        38.3235      0.0379800    -999.250000      -999.2500      5029.3745        95.5930     43934.1992        23.5590       0.341900         8.9278         8.1637        17.7703       0.189600
    3494.42060   -999.2500000    -999.250000         2.8127       104.6530      0.0696300        38.7689      0.0385400    -999.250000      -999.2500      5029.5132        95.5878     44162.8984        23.8912       0.337600         9.3216         8.7260        18.0684       0.197000
    3494.57300     -0.0106200    -999.250000         2.8102       105.1444      0.0495200        39.2060      0.0357500       0.122100      -999.2500      5029.6562        95.5785     44545.1992        24.2150       0.330600         9.3951         8.7308        18.4312       0.201800
    3494.72540     -0.0087600       0.000000         2.8207       106.0368      0.0343100        38.9537      0.0377400       0.118700         0.0000      5029.7891        95.5652     44375.4023        23.7832       0.333200         8.7977         8.8102        18.7609       0.201800
    3494.87780     -0.0074100       0.000000         2.8436       106.7518      0.0158900        38.7085      0.0348900       0.114500         0.0000      5029.9531        95.5561     44561.5000        24.2981       0.331800         9.3217         8.8071        18.5064       0.191600
    3495.03020     -0.0070900       0.000000         2.8498       105.5194      0.0205100        37.9822      0.0299400       0.147900         0.0000      5030.1035        95.5493     44719.6992        24.0406       0.335700         9.9252         8.8999        17.9379       0.177100
    3495.18260     -0.0074500       0.000000         2.8252       104.7359      0.0272700        37.5692      0.0270200       0.173900         0.0000      5030.2266        95.5413     45037.1992        23.7915       0.337100        10.5461         9.1389        16.9850       0.164200
    3495.33500     -0.0072300       0.000000         2.8081       103.6167      0.0363200        36.2387      0.0270100       0.208300         0.0000      5030.3701        95.5338     45579.0000        23.2767       0.339000        11.4899         9.7058        16.2115       0.154400
    3495.48740     -0.0074200       0.000000         2.7910       103.0053      0.0381600        36.2054      0.0299800       0.217100         0.0000      5030.5083        95.5209     45608.3984        22.2802       0.337400        11.7719        10.0920        15.3308       0.152500
    3495.63980     -0.0070000       0.000000         2.7667       101.7008      0.0481900        35.5761      0.0326100       0.246300         0.0000      5030.6484        95.5191     46185.5000        21.4221       0.335900        11.9470         9.8762        14.8607       0.152400
    3495.79220     -0.0064400       0.000000         2.7483       101.6176      0.0445000        35.1143      0.0263100       0.226100         0.0000      5030.8013        95.5062     45809.6992        19.7695       0.340800        11.5324        10.1285        14.3485       0.157800
    3495.94460     -0.0067700       0.000000         2.7461       101.7334      0.0452400        34.8857      0.0307900       0.222500         0.0000      5030.9395        95.4999     44991.6016        18.9723       0.343600        11.9131        10.3682        14.3557       0.156500
    3496.09700     -0.0078200       0.000000         2.7455       101.4934      0.0476300        35.0767      0.0323900       0.225100         0.0000      5031.0786        95.4923     44318.1992        18.6291       0.345700        12.1547        10.1764        14.1456       0.154200
    3496.24940     -0.0074400       0.000000         2.7364       101.1430      0.0508400        35.3625      0.0269400       0.232800         0.0000      5031.2061        95.4848     43231.3008        18.1308       0.346700        11.9390        10.0297        14.4932       0.148000
    3496.40180     -0.0066300       0.000000         2.7286       102.0157      0.0537000        35.7823      0.0306800       0.231900         0.0000      5031.3613        95.4769     42632.4023        18.2166       0.347100        12.0202         9.8390        14.4802       0.149800
    3496.55420     -0.0056200       0.000000         2.7530       102.6212      0.0548000        36.0616      0.0372300       0.223400         0.0000      5031.4946        95.4636     41911.5977        19.4623       0.343600        11.7039        10.0461        14.8029       0.156500
    3496.70660     -0.0033900       0.000000         2.7572       103.0701      0.0696200        36.0434      0.0309200       0.261000         0.0000      5031.6353        95.4600     40943.8008        19.2048       0.339500        11.2065         9.8299        14.8466       0.173700
    3496.85900     -0.0009400       0.000000         2.7752       103.4552      0.0601800        37.1040      0.0259800       0.235500         0.0000      5031.7593        95.4532     39942.5000        20.7494       0.337500        11.1395         9.9009        15.7666       0.192000
