~Version Information Block
VERS .                 2.00:  CWLS LOG ASCII STANDARD - VERSION 2.00
WRAP .                   NO:  One line per depth step
~Well Information Block
#MNEM.UNIT        Data Type   Information
#---------- ----------------  -----------
STRT .M          3460.08960:  START DEPTH
STOP .M          3530.04120:  STOP DEPTH
STEP .M             0.15240:  STEP
NULL .              -999.25:  NULL VALUE
COMP .              Statoil:  COMPANY
WELL .          NO_15/9-F-5:  WELL
FLD  .                Volve:  FIELD
LOC  .                Volve:  LOCATION
CTRY .               Norway:  COUNTRY
STAT .                     :  STATE
CNTY .                     :  COUNTY
SRVC .         Schlumberger:  SERVICE COMPANY
DATE .           11/04/2015:  DATE
API  .                     :  API NUMBER
UWI  .             15/9-F-5:  UNIQUE WELL ID
LATI .     58° 26' 29.66" N:  LATITUDE
LONG .      1° 53' 14.99" E:  LONGITUDE
~Curve Information Block
#MNEM.UNIT         API CODE   Curve Description
#---------- ----------------  -----------------
DEPTH.M                    :  Depth Index
CCLC .V                    :  (PSTP-B)                (1in)                   CCL Computed Amplitude
CVEL .M/SEC                 :  (WLWorkflow)            (1in)                   Cable Velocity
FBEF .UA                   :  (RST-D)                 (6in)                   Far Effective Beam Curre
FCOR .                     :  (RST-D)                 (6in)                   Far Carbon/Oxygen Ratio
FERD .                     :  (RST-D)                 (6in)                   Far IC Mode Capture Opti
FIRD .                     :  (RST-D)                 (6in)                   Far Inelastic Optimizati
GR   .GAPI                 :  (PSTP-B)                (6in)                   Gamma Ray
NCOR .                     :  (RST-D)                 (6in)                   Near Carbon/Oxygen Ratio
NERD .                     :  (RST-D)                 (6in)                   Near IC Mode Capture Opt
NIRD .                     :  (RST-D)                 (6in)                   Near Inelastic Optimizat
RB_PCMS.DEG                  :  (PCMS-A)                (6in)                   Relative Bearing
TENS .LBF                  :  (WLWorkflow)            (1in)                   Cable Tension
WPRE .BAR                  :  (PSTP-B)                (6in)                   Well Pressure
WTEP .DEGC                 :  (PSTP-B)                (6in)                   Well Temperature
~Parameter Information Block
#MNEM.UNIT            Value   Description
#---------- ----------------  -----------
APD  .M                  54:  Elevation of Depth Reference (LMF) Above Permanent Datum
CLAB .              Country:  :County Label
ECF  .M             -999.25:  Elevation of Casing Flange above Permanent Datum
EDF  .M                  54:  Elevation of Drill Floor Above Permanent Datum
EGL  .M                 -91:  Elevation of Ground Level Above Permanent Datum
EKB  .M             -999.25:  Elevation of Kelly Bushing Above Permanent Datum
EPD  .M                   0:  Elevation of Permanent Datum (PDAT) above Mean Sea Level
FL1  .            North Sea:  Field Location Line 1
FL2  .     Norwegian Sector:  Field Location Line 2
LMF  .                   DF:  Logging Measured From
LUL  .                 NOBO:  Logging Unit Location
LUN  .          ONCC-A 3837:  Logging Unit Number
PDAT .                  MSL:  Local Permanent Datum
RIGN .      Maersk Inspirer:  Rig Name
RIGTYP.               Jackup:  Rig Type
SON  .           C2TQ-00038:  Service Order Number
TAPE_NAME.     RST_IC_Pass_4___04Nov15_021221.las:  
TOOL_STRING.              UNKNOWN:  
WN   .             15/9-F-5:  WELL NAME
PROJECT.     SLEIPNER_OST@st-vlinapp01:  
SET  .        RSTD_1115_IC4:  
~Other Information Block
# 
~A       DEPTH           CCLC           CVEL           FBEF           FCOR           FERD           FIRD             GR           NCOR           NERD           NIRD        RB_PCMS           TENS           WPRE           WTEP 
# ...
    3465.57600      -0.009820  -999.25000000      -999.2500    -999.250000      -999.2500      -999.2500        50.4332    -999.250000      -999.2500      -999.2500       352.9219      -999.2500       357.4076        84.6261
    3465.72840      -0.005880  -999.25000000      -999.2500    -999.250000      -999.2500      -999.2500        59.3024    -999.250000      -999.2500      -999.2500       352.9624      -999.2500       357.4188        84.6301
    3465.88080      -0.006310  -999.25000000       131.8467    -999.250000         5.9443         5.9443        67.7387    -999.250000      -999.2500      -999.2500       352.9387      -999.2500       357.4312        84.6335
    3466.03320       0.006700  -999.25000000       129.1158       0.052630         6.0375         6.0375        73.7771       0.055230         4.2840         4.2840       353.0012      -999.2500       357.4420        84.6381
    3466.18560       0.021360  -999.25000000       127.0559      -0.015250         6.0001         6.0001        76.8539       0.034130         4.3061         4.3061       353.0454      -999.2500       357.4541        84.6447
    3466.33800      -0.022120  -999.25000000       128.8963       0.008850         5.9658         5.9658        79.0404       0.035090         4.3037         4.3037       353.2921      -999.2500       357.4655        84.6529
    3466.49040      -0.006800  -999.25000000       130.0333       0.069330         5.9879         5.9879        82.2793       0.037520         4.3164         4.3164       353.2833      -999.2500       357.4772        84.6618
    3466.64280      -0.007150  -999.25000000       131.5093      -0.244270         6.0504         6.0504        88.2797       0.030420         4.2790         4.2790       353.3875      -999.2500       357.4896        84.6655
    3466.79520       0.007270  -999.25000000       131.5978      -0.133700         6.0894         6.0894        97.7597      -0.125130         4.2929         4.2929       353.1827      -999.2500       357.4999        84.6713
    3466.94760       0.007560  -999.25000000       135.3332       0.002830         6.0398         6.0398       112.4077       0.029470         4.2503         4.2503       353.0185      -999.2500       357.5120        84.6751
    3467.10000       0.007030  -999.25000000       135.6719       0.112800         6.0147         6.0147       126.2924       0.074290         4.2390         4.2390       352.9955      -999.2500       357.5222        84.6838
    3467.25240      -0.026860  -999.25000000       133.7373       0.052180         5.9990         5.9990       142.8908      -0.054420         4.2206         4.2206       353.1442      -999.2500       357.5352        84.6939
    3467.40480      -0.002650  -999.25000000       132.5519      -0.001880         5.9738         5.9738       151.8162       0.005130         4.1865         4.1865       353.0865      -999.2500       357.5471        84.7017
    3467.55720      -0.007640  -999.25000000       133.3159      -0.014280         5.9439         5.9439       158.0387      -0.045570         4.1578         4.1578       353.0391      -999.2500       357.5575        84.7060
    3467.70960       0.007370  -999.25000000       135.4626       0.033840         5.9523         5.9523       158.4547      -0.013690         4.1723         4.1723       353.0753      -999.2500       357.5673        84.7185
    3467.86200      -0.007250  -999.25000000       133.8453       0.033860         5.8809         5.8809       157.3838       0.001570         4.1701         4.1701       353.3651      -999.2500       357.5816        84.7225
    3468.01440      -0.007240  -999.25000000       133.5885       0.060820         5.9538         5.9538       154.0602       0.049410         4.1807         4.1807       353.4034      -999.2500       357.5908        84.7272
    3468.16680      -0.007230  -999.25000000       133.0955      -0.005840         6.0173         6.0173       152.4960       0.011850         4.2157         4.2157       353.3161      -999.2500       357.6059        84.7420
    3468.31920      -0.002540  -999.25000000       135.2021      -0.045530         5.8801         5.8801       149.6231       0.034220         4.2254         4.2254       353.2530      -999.2500       357.6150        84.7475
    3468.47160      -0.006860  -999.25000000       139.2283      -0.116840         5.9144         5.9144       152.2570       0.063670         4.2377         4.2377       353.2117      -999.2500       357.6264        84.7553
    3468.62400       0.209670  -999.25000000       142.3389       0.058840         5.8803         5.8803       155.7876      -0.029760         4.2438         4.2438       353.3126      -999.2500       357.6371        84.7650
    3468.77640      -0.004970  -999.25000000       142.9800       0.031130         5.8604         5.8604       155.6397      -0.171960         4.2511         4.2511       353.1228      -999.2500       357.6500        84.7708
    3468.92880      -0.001750  -999.25000000       140.2891      -0.039250         5.9442         5.9442       157.6095       0.016620         4.2488         4.2488       352.7683      -999.2500       357.6611        84.7790
    3469.08120       0.012470  -999.25000000       139.9406      -0.078440         5.9260         5.9260       162.8513       0.037000         4.2291         4.2291       352.6528      -999.2500       357.6724        84.7911
    3469.23360      -0.001250  -999.25000000       140.9714      -0.039410         5.9653         5.9653       160.3803       0.003060         4.2638         4.2638       352.7623      -999.2500       357.6836        84.7969
    3469.38600       0.013720  -999.25000000       142.6386       0.087070         5.9228         5.9228       158.4169       0.123380         4.2306         4.2306       352.6714      -999.2500       357.6946        84.8019
    3469.53840       0.033830  -999.25000000       143.4116       0.120580         6.0778         6.0778       158.6754       0.082000         4.2505         4.2505       352.6364      -999.2500       357.7048        84.8085
    3469.69080      -0.029450  -999.25000000       144.1659       0.021090         6.1339         6.1339       157.9723       0.070910         4.2417         4.2417       352.6368      -999.2500       357.7168        84.8280
    3469.84320      -0.004870    -0.00916250       142.7491       0.026880         6.1466         6.1466       153.7877       0.041980         4.2786         4.2786       352.7437      3942.8567       357.7303        84.8352
    3469.99560      -0.001840    -0.00924000       142.3477       0.025070         6.1224         6.1224       151.5137       0.011220         4.2484         4.2484       352.7490      4033.5513       357.7388        84.8426
    3470.14800       0.012090    -0.00911267       140.8182       0.186560         6.3148         6.3148       148.5781       0.032320         4.2357         4.2357       352.6901      3975.5012       357.7515        84.8478
    3470.30040      -0.006950    -0.00912150       139.4904      -0.048980         6.6375         6.6375       146.5518       0.018250         4.2602         4.2602       352.5447      4050.6816       357.7643        84.8458
    3470.45280       0.012310    -0.00916267       140.0116       0.063640         6.5503         6.5503       146.5518       0.041710         4.1879         4.1879       352.5331      3942.2856       357.7743        84.8471
    3470.60520       0.007280    -0.00916933       142.1288       0.057250         6.4424         6.4424       146.0713       0.079860         4.1561         4.1561       352.6826      3902.5125       357.7848        84.8657
    3470.75760       0.016960    -0.00923117       144.1340      -0.101720         6.3438         6.3438       147.7353       0.053980         4.1796         4.1796       352.3627      3932.4143       357.7977        84.8740
    3470.91000      -0.031040    -0.00894950       140.5743      -0.050270         6.5513         6.5513       148.9133       0.024460         4.1521         4.1521       352.2868      3921.6279       357.8087        84.8707
