~Version Information Block
VERS .                 2.00:  CWLS LOG ASCII STANDARD - VERSION 2.00
WRAP .                   NO:  One line per depth step
~Well Information Block
#MNEM.UNIT        Data Type   Information
#---------- ----------------  -----------
STRT .M          3454.60320:  START DEPTH
STOP .M          3792.47400:  STOP DEPTH
STEP .M             0.15240:  STEP
NULL .              -999.25:  NULL VALUE
COMP .              Statoil:  COMPANY
WELL .        NO_15/9-F-1_C:  WELL
FLD  .                Volve:  FIELD
LOC  .            North Sea:  LOCATION
CTRY .               Norway:  COUNTRY
STAT .                     :  STATE
CNTY .                     :  COUNTY
SRVC .         Schlumberger:  SERVICE COMPANY
DATE .          27-Nov-2014:  DATE
API  .                     :  API NUMBER
UWI  .           15/9-F-1 C:  UNIQUE WELL ID
LATI .     58° 26' 29.91" N:  LATITUDE
LONG .      1° 53' 14.71" E:  LONGITUDE
~Curve Information Block
#MNEM.UNIT         API CODE   Curve Description
#---------- ----------------  -----------------
DEPTH.M                    :  DEPTH (BOREHOLE)
CVEL .M/SEC                 :  Cable Velocity
DFRB .DEG                  :  Calibrated Relative Bearing
FBEF .UA                   :  RST Far Effective Beam Current
FCOR .                     :  RST Far Carbon/Oxygen Ratio
FERD .                     :  RST Far IC Mode Capture Optimization
FIRD .                     :  RST Far Inelastic Optimization Resolution
GR   .GAPI                 :  Gamma Ray
NCOR .                     :  RST Near Carbon/Oxygen Ratio
NERD .                     :  RST Near IC Mode Capture Optimization
NIRD .                     :  RST Near Inelastic Optimization Resolution
PFC1 .IN                   :  PFCS CaliperX
PFC2 .IN                   :  PFCS CaliperY
TENS .LBF                  :  Cable Tension
~Parameter Information Block
#MNEM.UNIT            Value   Description
#---------- ----------------  -----------
APD  .M           54.900002:  Elevation of Depth Reference (LMF) above Permanent Datum
EPD  .C3                  0:  Elevation of Permanent Datum above Mean Sea Level
LMF  .                   KB:  Logging Measured From (Name of Logging Elevation Reference)
PDAT .                  MSL:  Permanent Datum
RUN  .                Run 1:  RUN NUMBER
TAPE_NAME.     ConCu_R1L19Up_S012_PFCS_PILS_DEFT_RST_PCMS_PSTP.las:  
TOOL_STRING.              UNKNOWN:  
WN   .           15/9-F-1 C:  WELL
PROJECT.     SLEIPNER_OST@st-vlinapp01:  
SET  .        RSTD_1114_IC3:  
~Other Information Block
# 
~A       DEPTH           CVEL           DFRB           FBEF           FCOR           FERD           FIRD             GR           NCOR           NERD           NIRD           PFC1           PFC2           TENS 
# ...
    3722.06520      -0.008588       355.5720       115.9464        -0.0515         5.2019         5.2019        20.0165         0.0252         7.1616         7.1616         6.2219         6.0497      4419.6401
    3722.21760      -0.007803       355.5720       114.7050         0.0736         5.2722         5.2722        18.5753        -0.0670         7.1822         7.1822         6.2220         6.0494      4392.6143
    3722.37000      -0.007752       355.5720       115.4580         0.1434         5.2806         5.2806        18.2925        -0.0310         7.2073         7.2073         6.2219         6.0497      4380.0923
    3722.52240      -0.007572       355.5720       115.3555         0.1517         5.2820         5.2820        18.0626         0.0163         7.1744         7.1744         6.2221         6.0493      4428.7368
    3722.67480      -0.007613       355.5720       114.9239        -0.0628         5.3253         5.3253        18.7527         0.0911         7.1743         7.1743         6.2219         6.0506      4433.0234
    3722.82720      -0.007618       355.5720       115.3597         0.0514         5.3645         5.3645        19.8541         0.0621         7.1310         7.1310         6.2221         6.0500      4430.3687
    3722.97960      -0.007785       355.5720       115.3013         0.0584         5.3222         5.3222        20.4637        -0.0468         7.1878         7.1878         6.2221         6.0505      4356.3638
    3723.13200      -0.007627       355.5720       115.4639        -0.0476         5.2945         5.2945        19.2930         0.0209         7.1902         7.1902         6.2219         6.0489      4448.6367
    3723.28440      -0.007555       355.5720       115.1822         0.0796         5.3454         5.3454        17.8275         0.0694         7.2101         7.2101         6.2219         6.0495      4462.0396
    3723.43680      -0.007572       355.5720       116.0830         0.1730         5.3332         5.3332        16.3395         0.0622         7.1724         7.1724         6.2219         6.0473      4467.7363
    3723.58920      -0.008690       355.5720       116.1545         0.0756         5.4809         5.4809        15.2990         0.0345         7.1561         7.1561         6.2219         6.0477      4424.9321
    3723.74160      -0.008728       355.5720       115.4604         0.1104         5.5578         5.5578        15.3213         0.0377         7.1284         7.1284         6.2219         6.0420      4498.4849
    3723.89400      -0.007858       355.5720       114.8018         0.0312         5.6049         5.6049        16.1062         0.1342         7.0829         7.0829         6.2219         6.0350      4473.3359
    3724.04640      -0.007660       355.5720       114.7448         0.0381         5.6356         5.6356        17.3743        -0.0473         7.1347         7.1347         6.2219         6.0380      4443.0103
    3724.19880      -0.007673       355.5720       115.4127         0.1163         5.6170         5.6170        18.9571         0.0249         7.1353         7.1353         6.2219         6.0421      4429.0469
    3724.35120      -0.007485       355.5720       114.9957         0.0138         5.5762         5.5762        20.0548         0.0212         7.1592         7.1592         6.2219         6.0448      4528.5640
    3724.50360      -0.007500       355.5720       114.9045         0.0796         5.5847         5.5847        18.9788        -0.0756         7.1900         7.1900         6.2219         6.0486      4461.7598
    3724.65600      -0.007665       355.5720       115.8889         0.0358         5.5363         5.5363        18.2272         0.0209         7.1661         7.1661         6.2219         6.0440      4467.9897
    3724.80840      -0.007747       355.5720       115.3348         0.0636         5.5477         5.5477        20.2642         0.0243         7.1849         7.1849         6.2217         6.0189      4463.4541
    3724.96080      -0.008282       355.5720       115.0712         0.1236         5.5354         5.5354        21.5132         0.0661         7.1979         7.1979         6.2219         6.0187      4428.7256
    3725.11320      -0.008823       355.5720       115.7509         0.1546         5.4656         5.4656        20.3137         0.0083         7.1967         7.1967         6.2219         6.0186      4440.9575
    3725.26560      -0.007817       355.5720       115.5943         0.1108         5.4664         5.4664        21.2593         0.1051         7.2044         7.2044         6.2219         6.0186      4427.9834
    3725.41800      -0.007668       355.5720       115.9203        -0.1548         5.3394         5.3394        21.7690        -0.0304         7.2411         7.2411         6.2218         6.0186      4444.5674
    3725.57040      -0.007673       355.5720       116.4446         0.1685         5.3765         5.3765        20.3307        -0.0456         7.2394         7.2394         6.2219         6.0186      4452.8291
    3725.72280      -0.007652       355.5720       116.5125         0.0434         5.2976         5.2976        18.5169         0.0342         7.3059         7.3059         6.2219         6.0186      4436.8594
    3725.87520      -0.007563       355.5720       115.1002         0.0742         5.2889         5.2889        19.1841        -0.1057         7.2575         7.2575         6.2219         6.0186      4475.5996
    3726.02760      -0.007618       355.5720       115.8956        -0.0922         5.3597         5.3597        19.2200         0.0116         7.1854         7.1854         6.2219         6.0186      4466.6489
    3726.18000      -0.007682       355.5720       115.8368         0.0673         5.3424         5.3424        19.8455        -0.0442         7.2031         7.2031         6.2219         6.0186      4390.4746
    3726.33240      -0.007480       355.5720       115.6211         0.0509         5.3635         5.3635        20.6104         0.0301         7.1816         7.1816         6.2219         6.0186      4530.1904
    3726.48480      -0.007485       355.5720       115.9965        -0.2111         5.3520         5.3520        21.1598         0.0331         7.1707         7.1707         6.2214         6.0184      4509.4858
    3726.63720      -0.007763       356.9830       116.9652         0.0138         5.4024         5.4024        21.8382        -0.0263         7.1614         7.1614         6.2208         6.0186      4432.1011
    3726.78960      -0.009052       356.9830       117.9403         0.0152         5.2926         5.2926        22.7331         0.0772         7.2048         7.2048         6.2210         6.0186      4381.8618
    3726.94200      -0.008070       355.5720       117.4231         0.1229         5.2268         5.2268        22.3310         0.0036         7.2413         7.2413         6.2216         6.0199      4556.2739
    3727.09440      -0.007317       355.5720       116.6545         0.1587         5.2865         5.2865        20.7243         0.0955         7.2858         7.2858         6.2219         6.0199      4480.5576
    3727.24680      -0.007572       355.5720       116.7766         0.0491         5.3715         5.3715        20.3605         0.0023         7.2702         7.2702         6.2219         6.0186      4459.4805
    3727.39920      -0.007725       355.5720       116.3275        -0.1177         5.3293         5.3293        19.1618        -0.0410         7.2914         7.2914         6.2219         6.0224      4396.6035
    3727.55160      -0.007737       355.5720       116.7349         0.0863         5.3381         5.3381        17.9929         0.0729         7.2843         7.2843         6.2219         6.0427      4428.6689
    3727.70400      -0.007978       355.5720       117.3112        -0.0641         5.2244         5.2244        18.5640         0.0082         7.3448         7.3448         6.2219         6.0437      4548.9727
    3727.85640      -0.007960       355.5720       116.8314         0.0456         5.0879         5.0879        19.7573         0.1254         7.3823         7.3823         6.2219         6.0394      4452.8008
