~Version Information Block
VERS .                 2.00:  CWLS LOG ASCII STANDARD - VERSION 2.00
WRAP .                  YES:  Multiple lines per depth step
~Well Information Block
#MNEM.UNIT        Data Type   Information
#---------- ----------------  -----------
STRT .M          3450.03120:  START DEPTH
STOP .M          3948.83640:  STOP DEPTH
STEP .M             0.15240:  STEP
NULL .              -999.25:  NULL VALUE
COMP .              Statoil:  COMPANY
WELL .        NO_15/9-F-1_C:  WELL
FLD  .                Volve:  FIELD
LOC  .            North Sea:  LOCATION
CTRY .               Norway:  COUNTRY
STAT .                     :  STATE
CNTY .                     :  COUNTY
SRVC .         Schlumberger:  SERVICE COMPANY
DATE .          27-Nov-2014:  DATE
API  .                     :  API NUMBER
UWI  .           15/9-F-1 C:  UNIQUE WELL ID
LATI .     58° 26' 29.91" N:  LATITUDE
LONG .      1° 53' 14.71" E:  LONGITUDE
~Curve Information Block
#MNEM.UNIT         API CODE   Curve Description
#---------- ----------------  -----------------
DEPTH.M                    :  DEPTH (BOREHOLE)
BSAL .PPM                  :  Borehole Salinity
CCLC .V                    :  CCL
CIRF .                     :  RST Capture to Inelastic Ratio Far
CIRN .                     :  RST Capture to Inelastic Ratio Near
CVEL .M/SEC                 :  Cable Velocity
DFRB .DEG                  :  Calibrated Relative Bearing
DSIG .CU                   :  Sigma Difference
FBEF .UA                   :  RST Far Effective Beam Current
GR   .GAPI                 :  Gamma Ray
IRAT .                     :  RST Inelastic Ratio
PFC1 .IN                   :  PFCS CaliperX
PFC2 .IN                   :  PFCS CaliperY
RSCF .                     :  RST Far Detector Effective Unregulated
RSCN .                     :  RST Near Detector Effective
SFFA .CU                   :  RST Sigma Formation Far Apparent
SIBF .CU                   :  RST Sigma Borehole Fluid
SIGM .CU                   :  Formation Sigma (Neutron Capture Cross
TENS .LBF                  :  Cable Tension
TPHI .V/V                  :  Thermal Decay Porosity
~Parameter Information Block
#MNEM.UNIT            Value   Description
#---------- ----------------  -----------
APD  .M           54.900002:  Elevation of Depth Reference (LMF) above Permanent Datum
BHS  .                 CASE:  Borehole Status (Open or Cased Hole)
BS   .IN                8.5:  Bit Size
BSAL .PPM                 0:  Borehole Salinity
BSALOPT.              UNKNOWN:  Borehole Salinity Option
CSIZ .IN                  7:  Current Casing Size
CWEI .LB/F               29:  Casing Weight
EPD  .C3                  0:  Elevation of Permanent Datum above Mean Sea Level
LMF  .                   KB:  Logging Measured From (Name of Logging Elevation Reference)
MATR .                 SAND:  Rock Matrix for Neutron Porosity Corrections
PDAT .                  MSL:  Permanent Datum
RUN  .                Run 1:  RUN NUMBER
TAPE_NAME.     Statoil_Volve_15-9-F-1 C_PLT-RST_28Nov14_ConCu_R1L16Up_SigmaMain.las:  
TOOL_STRING.              UNKNOWN:  
WN   .           15/9-F-1 C:  WELL
PROJECT.     SLEIPNER_OST@st-vlinapp01:  
SET  .       RSTD_1114_SIG1:  
~Other Information Block
~Ascii Log Data
# ...
    3869.74080 
    79926.5938        -0.0381         1.7267         0.5239      -0.161402 
      335.8180        -1.2579        80.1492        31.7007     0.32910001 
        6.1905         6.0834         7.3561         6.2129        22.2501 
       50.8289        20.7627      5080.5713     0.21030000
    3869.89320 
    79565.2969        -0.0162         1.7990         0.5017      -0.161310 
      335.8180        -1.3023        91.4769        29.4941     0.32300001 
        6.1905         6.0834         7.2324         6.7730        22.5155 
       50.6930        20.8267      4968.5332     0.21630000
    3870.04560 
    79576.3984         0.0642         1.7736         0.5289      -0.161582 
      335.8180        -1.0387        84.7654        28.8076     0.32280001 
        6.1972         6.0950         7.3152         6.6005        22.3343 
       50.6972        20.9510      4883.5718     0.22520000
    3870.19800 
    79061.0938        -0.0542         1.7365         0.5397      -0.161508 
      335.8180        -0.7206        84.7121        29.1754     0.32760000 
        6.1972         6.0996         7.0540         6.4806        22.6374 
       50.5036        20.8620      4852.8569     0.22830001
    3870.35040 
    79117.7969         0.0413         1.7961         0.5435      -0.161715 
      335.8180        -0.6022        85.8277        28.9915     0.33320001 
        6.2040         6.1066         7.5187         6.9096        22.2549 
       50.5249        20.8409      4737.6431     0.22630000
    3870.50280 
    79893.3047         0.2944         1.7614         0.5283      -0.162450 
      335.8180        -0.8930        81.6308        30.2787     0.33129999 
        6.2219         6.1439         7.5595         6.4700        22.2747 
       50.8163        20.4810      4629.7856     0.21910000
    3870.65520 
    79425.1016        -0.0128         1.8568         0.5470      -0.163077 
      335.8180        -1.1993        88.5328        30.4625     0.32539999 
        6.2219         6.1436         7.2107         6.4673        21.5472 
       50.6404        20.4783      4697.5000     0.21280000
    3870.80760 
    78434.5000        -0.0407         1.9771         0.5396      -0.162240 
      334.4070        -1.1914        90.8487        33.3801     0.32179999 
        6.2219         6.1459         7.6365         6.5964        22.2337 
       50.2684        19.9722      4833.0718     0.22270000
    3870.96000 
    78158.3047        -0.0076         1.5878         0.4810      -0.161227 
      335.8180        -1.0196        85.2116        31.1735     0.31430000 
        6.2219         6.1482         6.7139         6.1780        20.7381 
       50.1647        20.6691      4981.2856     0.23400000
    3871.11240 
    78060.5000        -0.0087         1.5200         0.4456      -0.161233 
      335.8180        -0.7451        87.7151        34.1156     0.31659999 
        6.2219         6.1482         6.3439         6.0124        23.6611 
       50.1281        21.1098      5077.7998     0.25690001
    3871.26480 
    78328.9062        -0.0248         1.6067         0.4887      -0.160480 
      334.4070        -0.5188        87.5288        33.7478     0.31510001 
        6.2219         6.1482         6.4813         6.3010        23.5835 
       50.2287        21.2754      4978.8574     0.27669999
    3871.41720 
    78172.3047        -0.0316         1.5116         0.5420      -0.160488 
      334.4070        -0.2842        85.9242        31.5413     0.31990001 
        6.1928         6.1135         6.2514         6.9955        21.2860 
       50.1700        20.3191      4978.7856     0.29820001
    3871.56960 
    78558.0000        -0.1002         1.5496         0.5383      -0.160767 
      334.4070        -0.1227        84.5859        29.4206     0.32679999 
        6.2107         6.1621         6.3055         6.4708        20.8850 
       50.3147        19.5493      4879.9287     0.28950000
    3871.72200 
    79510.2031        -0.0672         1.6926         0.5537      -0.161490 
      334.4070        -0.1227        81.0822        31.0755     0.33210000 
        6.1968         6.1266         7.5801         7.3065        21.3522 
       50.6723        19.3178      4821.1997     0.26300001
    3871.87440 
    78382.6016         0.1493         1.8439         0.5441      -0.162495 
      334.4070        -0.3022        79.3928        27.7779     0.33730000 
        6.1905         6.0834         8.2168         6.8749        20.6116 
       50.2489        18.9590      4737.0000     0.23199999
    3872.02680 
    78529.0000        -0.2490         1.8168         0.5511      -0.162510 
      335.8180        -0.2908        80.6186        27.2263     0.33719999 
        6.1905         6.0834         8.1759         7.2866        19.7987 
       50.3038        19.0291      4898.2856     0.22090000
    3872.17920 
    79060.2031        -0.0106         1.8757         0.5648      -0.162333 
      335.8180        -0.0731        86.3437        29.9845     0.33809999 
        6.1905         6.0834         7.4979         6.7525        21.5435 
       50.5033        19.1435      4951.9287     0.22229999
    3872.33160 
    79645.8984        -0.0014         1.7644         0.5414      -0.162052 
      335.8180         0.1025        81.1230        29.0160     0.33430001 
        6.1905         6.0834         7.6176         6.6511        20.9483 
       50.7233        19.5963      5075.6426     0.22710000
    3872.48400 
    79949.7969         0.0382         1.7683         0.5469      -0.161950 
      335.8180         0.1019        86.8216        26.9934     0.33719999 
        6.2040         6.0834         6.8758         6.3051        21.1745 
       50.8376        19.2726      4948.7861     0.23190001
    3872.63640 
    79608.7031         0.1813         1.7988         0.5629      -0.161850 
      335.8180        -0.0144        81.4591        28.2683     0.33149999 
        6.2219         6.1180         7.3133         6.4351        20.5990 
       50.7093        19.3894      4963.6431     0.23199999
    3872.78880 
    79606.2031         0.0913         1.8916         0.5460      -0.161768 
      335.8180        -0.0234        88.1541        28.0844     0.33180001 
        6.2219         6.1482         7.3617         6.6626        21.2867 
       50.7084        19.6423      4796.2856     0.22910000
    3872.94120 
    79735.3984         0.1671         1.8079         0.5682      -0.162015 
      335.8180        -0.0675        89.2746        28.0844     0.32380000 
        6.2219         6.1482         6.8651         6.6561        21.9251 
       50.7570        20.0144      4816.6001     0.22470000
    3873.09360 
    78814.6016        -0.0385         1.8885         0.5364      -0.162067 
      335.8180        -0.1447        88.8262        26.5398     0.32900000 
        6.2219         6.1459         7.3283         6.4966        21.6786 
       50.4111        20.3518      4824.5718     0.21969999
    3873.24600 
    78100.1953         0.0289         1.8132         0.5448      -0.161873 
      335.8180        -0.3200        85.4250        30.4013     0.32460001 
        6.2219         6.1439         7.3063         6.5737        22.2143 
       50.1429        20.2218      4979.9287     0.21900000
    3873.39840 
    78346.2969        -0.0373         1.8406         0.5560      -0.161397 
      335.8180        -0.3846        86.8600        30.9529     0.33550000 
        6.2219         6.1482         7.2658         6.6488        21.4557 
       50.2352        20.3041      5011.7856     0.21930000
    3873.55080 
    78806.8984        -0.0114         1.7349         0.5339      -0.161788 
      334.4070        -0.3370        82.7937        31.8723     0.33520001 
        6.2219         6.1459         7.2831         6.5639        21.9035 
       50.4081        19.9615      5049.7856     0.21960001
    3873.70320 
    79345.5938        -0.0228         1.9008         0.5656      -0.161783 
      334.4070        -0.2957        86.1476        30.5851     0.33669999 
        6.2129         6.1459         7.4276         6.4359        21.1859 
       50.6105        19.7193      4908.8574     0.21799999
