~Version Information Block
VERS .                 2.00:  CWLS LOG ASCII STANDARD - VERSION 2.00
WRAP .                   NO:  One line per depth step
~Well Information Block
#MNEM.UNIT        Data Type   Information
#---------- ----------------  -----------
STRT .M          3445.30680:  START DEPTH
STOP .M          3639.15960:  STOP DEPTH
STEP .M             0.15240:  STEP
NULL .              -999.25:  NULL VALUE
COMP .              Statoil:  COMPANY
WELL .          NO_15/9-F-5:  WELL
FLD  .                VOLVE:  FIELD
LOC  .            North Sea:  LOCATION
CTRY .                     :  COUNTRY
STAT .                     :  STATE
CNTY .                     :  COUNTY
SRVC .         Schlumberger:  SERVICE COMPANY
DATE .          16-Sep-2012:  DATE
API  .                     :  API NUMBER
UWI  .             15/9-F-5:  UNIQUE WELL ID
~Curve Information Block
#MNEM.UNIT         API CODE   Curve Description
#---------- ----------------  -----------------
DEPTH.M                    :  DEPTH (BOREHOLE)
CCLC .V                    :  CCL
CRRA .                     :  Near-Far Count Rate Ratio
CVEL .M/MIN                 :  Cable Velocity
FBEF .UA                   :  RST Far Effective Beam Current
FCOR .                     :  RST Far Carbon/Oxygen Ratio
FERD .                     :  RST Far IC Mode Capture Optimization Resolution Degradation Factor
FIRD .                     :  RST Far Inelastic Optimization Resolution Degradation Factor
GR   .GAPI                 :  Gamma Ray
NCOR .                     :  RST Near Carbon/Oxygen Ratio
NERD .                     :  RST Near IC Mode Capture Optimization Resolution Degradation Factor
NIRD .                     :  RST Near Inelastic Optimization Resolution Degradation Factor
RB_PCMS.DEG                  :  Relative Bearing
TENS .LBF                  :  Cable Tension
~Parameter Information Block
#MNEM.UNIT            Value   Description
#---------- ----------------  -----------
APD  .M           54.900002:  Elevation of Depth Reference (LMF) above Permanent Datum
RUN  .                Run 1:  RUN NUMBER
PROJECT.     SLEIPNER_OST@st-vlinapp01:  
SET  .        RSTD_0912_IC3:  
~Other Information Block
# 
~A       DEPTH           CCLC           CRRA           CVEL           FBEF           FCOR           FERD           FIRD             GR           NCOR           NERD           NIRD        RB_PCMS           TENS 
# ...
    3534.46080        -0.0074         2.8216       -0.42830       109.5476     0.00020000         5.3101         5.3101        31.8156       0.048500         2.8021         2.8021         7.9969      2791.5718
    3534.61320         0.0307         2.8343       -0.42310       108.9615    -0.03880000         5.2585         5.2585        31.8453       0.034800         2.7506         2.7506         7.7733      2807.3252
    3534.76560        -0.0056         2.8157       -0.42220       109.3105    -0.16200000         5.4014         5.4014        32.1120       0.029300         2.6949         2.6949         7.8474      2807.6985
    3534.91800         0.0800         2.8137       -0.42240       108.4676    -0.09570000         5.3293         5.3293        31.9523      -0.035600         2.6785         2.6785         7.7961      2819.2217
    3535.07040        -0.0078         2.8013       -0.42060       108.4447     0.00770000         5.3510         5.3510        32.0667      -0.035600         2.6557         2.6557         7.7760      2812.7493
    3535.22280        -0.1173         2.7936       -0.41940       107.7643    -0.07940000         5.3232         5.3232        30.8723      -0.059000         2.6583         2.6583         7.8290      2813.8257
    3535.37520        -0.0129         2.7820       -0.42560       107.2290     0.04580000         5.3556         5.3556        30.4813      -0.001300         2.6808         2.6808         7.9614      2819.1802
    3535.52760         0.0710         2.7765       -0.42390       107.7104    -0.04470000         5.3450         5.3450        30.0348      -0.049300         2.6685         2.6685         8.0640      2808.3345
    3535.68000        -0.0068         2.7781       -0.42540       107.3493    -0.12100000         5.3137         5.3137        29.6906       0.015000         2.6798         2.6798         8.1366      2811.2083
    3535.83240        -0.0063         2.7785       -0.42000       108.3189    -0.02730000         5.3189         5.3189        28.7143       0.003500         2.6866         2.6866         8.1276      2808.7361
    3535.98480        -0.0065         2.7924       -0.41510       107.1515     0.18780001         5.3228         5.3228        29.9410       0.057400         2.6387         2.6387         8.1233      2809.4062
    3536.13720        -0.0229         2.7781       -0.41960       108.4606     0.05900000         5.2935         5.2935        30.3563       0.052200         2.6401         2.6401         8.1122      2810.0459
    3536.28960        -0.0054         2.8152       -0.42340       107.1467     0.09530000         5.2596         5.2596        30.6150      -0.036200         2.6803         2.6803         8.1820      2813.6799
    3536.44200         0.0238         2.7934       -0.42630       107.5063     0.09740000         5.2827         5.2827        30.4795      -0.010500         2.6813         2.6813         8.2679      2809.0652
    3536.59440        -0.0051         2.7902       -0.41970       107.5047    -0.00230000         5.2671         5.2671        31.3157      -0.000900         2.6226         2.6226         8.2690      2827.3772
    3536.74680        -0.0435         2.7868       -0.42010       108.8021    -0.09840000         5.2243         5.2243        31.0514       0.010100         2.6209         2.6209         8.5231      2819.5798
    3536.89920        -0.0061         2.8249       -0.42970       108.5490     0.04670000         5.1700         5.1700        30.9363      -0.022300         2.6022         2.6022         8.6170      2808.8184
    3537.05160        -0.0051         2.8025       -0.43110       108.7371    -0.03900000         5.1711         5.1711        31.1659      -0.036100         2.5755         2.5755         8.5432      2812.7273
    3537.20400        -0.0058         2.7777       -0.44030       110.3123     0.07410000         5.1622         5.1622        31.5593      -0.013500         2.5669         2.5669         8.4141      2803.0383
    3537.35640        -0.0076         2.8267       -0.43600       111.1895    -0.00540000         5.2029         5.2029        31.2421       0.006700         2.5267         2.5267         8.2752      2803.9712
    3537.50880        -0.0048         2.8653       -0.42960       112.1585     0.12840000         5.2046         5.2046        31.7000       0.058700         2.5035         2.5035         8.1681      2807.6365
    3537.66120         0.0007         2.8774       -0.43230       112.1045    -0.04530000         5.2217         5.2217        32.4606       0.018700         2.6009         2.6009         8.1805      2802.7563
    3537.81360        -0.0038         2.8945       -0.44190       112.0699     0.15719999         5.1269         5.1269        32.3804       0.020500         2.6287         2.6287         8.2596      2798.1736
    3537.96600        -0.0042         2.9202       -0.44230       113.0700    -0.01230000         5.1551         5.1551        32.1078      -0.020800         2.6014         2.6014         8.2568      2798.1580
    3538.11840        -0.0069         2.9534       -0.43770       112.2026     0.12410000         5.1604         5.1604        32.4659      -0.052100         2.5790         2.5790         8.4294      2812.6091
    3538.27080        -0.0002         2.9061       -0.43790       111.4746    -0.06020000         5.0862         5.0862        31.8947       0.042900         2.5981         2.5981         8.6230      2817.4651
    3538.42320        -0.0048         2.8894       -0.44360       109.8044    -0.04780000         5.0928         5.0928        31.6329       0.040200         2.5948         2.5948         8.5802      2807.3591
    3538.57560        -0.0020         2.8480       -0.44510       108.8079     0.04520000         5.3135         5.3135        32.3442       0.071900         2.6321         2.6321         8.4741      2803.3647
    3538.72800        -0.0029         2.8419       -0.44720       107.6907    -0.02700000         5.1628         5.1628        33.2742      -0.012200         2.6492         2.6492         8.3415      2808.9380
    3538.88040        -0.0026         2.7926       -0.44440       106.0909     0.02830000         5.1326         5.1326        33.0262      -0.027600         2.5825         2.5825         8.2640      2798.5715
    3539.03280        -0.0618         2.7989       -0.44380       105.3117     0.07680000         5.2949         5.2949        32.5570       0.018300         2.5757         2.5757         8.4095      2808.7378
    3539.18520        -0.0433         2.7425       -0.44720       105.7728    -0.28729999         5.3678         5.3678        31.5793      -0.036400         2.5968         2.5968         8.4847      2799.4658
    3539.33760         0.0600         2.7285       -0.45160       107.5300    -0.14410000         5.2868         5.2868        30.7653      -0.048500         2.5951         2.5951         8.4984      2798.2139
    3539.49000        -0.0222         2.7603       -0.45170       109.3149    -0.06190000         5.1612         5.1612        30.4435       0.020700         2.6247         2.6247         8.5444      2806.2585
    3539.64240        -0.0555         2.7860       -0.45110       110.3850    -0.12400000         5.2784         5.2784        30.3435       0.060300         2.6795         2.6795         8.5403      2802.1960
    3539.79480        -0.0527         2.8330       -0.44280       111.7509    -0.03940000         5.2048         5.2048        30.1462      -0.000400         2.6971         2.6971         8.4612      2808.9382
    3539.94720        -0.0063         2.9323       -0.42850       114.9172    -0.15470000         5.2886         5.2886        29.6887      -0.096100         2.6679         2.6679         8.4835      2812.0125
    3540.09960        -0.0062         3.0671       -0.43270       116.4263    -0.03690000         5.1764         5.1764        30.1928       0.062600         2.6572         2.6572         8.5653      2809.0000
    3540.25200        -0.0044         3.0445       -0.43470       113.5364    -0.13600001         5.1947         5.1947        29.5563       0.001900         2.6449         2.6449         8.4368      2812.0959
