~Version Information Block
VERS .                 2.00:  CWLS LOG ASCII STANDARD - VERSION 2.00
WRAP .                  YES:  Multiple lines per depth step
~Well Information Block
#MNEM.UNIT        Data Type   Information
#---------- ----------------  -----------
STRT .M          3450.03120:  START DEPTH
STOP .M          3948.83640:  STOP DEPTH
STEP .M             0.15240:  STEP
NULL .              -999.25:  NULL VALUE
COMP .              Statoil:  COMPANY
WELL .        NO_15/9-F-1_C:  WELL
FLD  .                Volve:  FIELD
LOC  .            North Sea:  LOCATION
CTRY .               Norway:  COUNTRY
STAT .                     :  STATE
CNTY .                     :  COUNTY
SRVC .         Schlumberger:  SERVICE COMPANY
DATE .          27-Nov-2014:  DATE
API  .                     :  API NUMBER
UWI  .           15/9-F-1 C:  UNIQUE WELL ID
LATI .     58° 26' 29.91" N:  LATITUDE
LONG .      1° 53' 14.71" E:  LONGITUDE
~Curve Information Block
#MNEM.UNIT         API CODE   Curve Description
#---------- ----------------  -----------------
DEPTH.M                    :  DEPTH (BOREHOLE)
BSAL .PPM                  :  Borehole Salinity
CCLC .V                    :  CCL
CIRF .                     :  RST Capture to Inelastic Ratio Far
CIRN .                     :  RST Capture to Inelastic Ratio Near
CVEL .M/SEC                 :  Cable Velocity
DFRB .DEG                  :  Calibrated Relative Bearing
DSIG .CU                   :  Sigma Difference
FBEF .UA                   :  RST Far Effective Beam Current
GR   .GAPI                 :  Gamma Ray
IRAT .                     :  RST Inelastic Ratio
PFC1 .IN                   :  PFCS CaliperX
PFC2 .IN                   :  PFCS CaliperY
RSCF .                     :  RST Far Detector Effective Unregulated
RSCN .                     :  RST Near Detector Effective
SFFA .CU                   :  RST Sigma Formation Far Apparent
SIBF .CU                   :  RST Sigma Borehole Fluid
SIGM .CU                   :  Formation Sigma (Neutron Capture Cross
TENS .LBF                  :  Cable Tension
TPHI .V/V                  :  Thermal Decay Porosity
~Parameter Information Block
#MNEM.UNIT            Value   Description
#---------- ----------------  -----------
APD  .M           54.900002:  Elevation of Depth Reference (LMF) above Permanent Datum
BHS  .                 CASE:  Borehole Status (Open or Cased Hole)
BS   .IN                8.5:  Bit Size
BSAL .PPM                 0:  Borehole Salinity
BSALOPT.              UNKNOWN:  Borehole Salinity Option
CSIZ .IN                  7:  Current Casing Size
CWEI .LB/F               29:  Casing Weight
EPD  .C3                  0:  Elevation of Permanent Datum above Mean Sea Level
LMF  .                   KB:  Logging Measured From (Name of Logging Elevation Reference)
MATR .                 SAND:  Rock Matrix for Neutron Porosity Corrections
PDAT .                  MSL:  Permanent Datum
RUN  .                Run 1:  RUN NUMBER
TAPE_NAME.     Statoil_Volve_15-9-F-1 C_PLT-RST_28Nov14_ConCu_R1L16Up_SigmaMain.las:  
TOOL_STRING.              UNKNOWN:  
WN   .           15/9-F-1 C:  WELL
PROJECT.     SLEIPNER_OST@st-vlinapp01:  
SET  .       RSTD_1114_SIG1:  
~Other Information Block
~Ascii Log Data
# ...
    3935.57760 
    68435.0938        -0.0335         2.2265         0.6018      -0.142422 
      338.6400        -2.0419        76.0989        24.0011     0.33140001 
        5.6255         5.8794        10.7595         8.6851        17.6178 
       46.5371        16.2394      3559.7500     0.16310000
    3935.73000 
    68110.6016        -0.0335         2.2663         0.6145      -0.139392 
      338.6400        -1.9484        76.9260        24.0011     0.32760000 
        5.6255         5.8737        10.3069         7.9416        17.7668 
       46.4168        16.0974      3459.7500     0.16450000
    3935.88240 
    68066.2969        -0.0335         2.2749         0.6051      -0.139118 
      338.6400        -1.9115        81.0115        24.0011     0.32810000 
        5.6255         5.8788         9.9014         8.1360        17.7161 
       46.4003        15.9425      3463.0588     0.16560000
    3936.03480 
    68111.7031        -0.0335         2.2226         0.6022      -0.138307 
      338.6400        -1.9856        77.5478        24.0011     0.32949999 
        5.6255         5.8794         9.8689         7.8428        17.1516 
       46.4172        15.9121      3519.8125     0.16680001
    3936.18720 
    67734.5938        -0.0335         2.1698         0.6028      -0.137757 
      338.6400        -2.1437        76.1056        24.0011     0.32690001 
        5.6255         5.8718        10.1371         8.4565        17.6579 
       46.2773        16.0128      3528.8752     0.16960000
    3936.33960 
    68518.3984        -0.0335         2.2242         0.5832      -0.137718 
      338.6400        -2.0855        81.9517        24.0011     0.32749999 
        5.6255         5.8817         9.6311         8.2030        18.0094 
       46.5680        16.1861      3402.9412     0.17180000
    3936.49200 
    68346.0000        -0.0335         2.2446         0.6271      -0.138225 
      338.6400        -2.0368        76.0705        24.0011     0.32380000 
        5.6255         5.8763        10.3282         8.5801        17.6661 
       46.5041        16.2393      3459.1177     0.17479999
    3936.64440 
    67335.6016        -0.0335         2.2385         0.6089      -0.134297 
      338.6400        -2.0454        80.1585        24.0011     0.33320001 
        5.6255         5.8821        10.0009         8.5454        17.8061 
       46.1295        16.3200      3480.2502     0.17490000
    3936.79680 
    67033.8984        -0.0335         2.1642         0.6237      -0.126540 
      338.6400        -1.8708        76.0336        24.0011     0.33379999 
        5.6255         5.8745         9.7970         7.9951        18.2369 
       46.0177        16.7212      3391.6470     0.17039999
    3936.94920 
    65916.5000        -0.0335         2.1733         0.6108      -0.123512 
      338.6400        -1.9681        77.4834        24.0011     0.33669999 
        5.6255         5.8702         9.7749         7.9524        18.8553 
       45.6041        16.6152      3442.5264     0.16869999
    3937.10160 
    67870.7969        -0.0335         2.2707         0.6224      -0.123893 
      338.6400        -1.8835        78.7326        24.0011     0.33379999 
        5.6255         5.8787         9.8505         7.7888        17.4728 
       46.3278        16.2668      3469.1667     0.16769999
    3937.25400 
    68157.8984        -0.0335         2.1514         0.6017      -0.123943 
      338.6400        -1.9847        79.0677        24.0011     0.33440000 
        5.6255         5.8817         9.3562         7.8388        17.1749 
       46.4343        15.9225      3364.7896     0.16880000
    3937.40640 
    66519.7969        -0.0335         2.2060         0.6085      -0.123502 
      338.6400        -1.8836        79.1125        24.0011     0.33340001 
        5.6255         5.8787         9.4068         7.5951        17.8067 
       45.8273        16.0155      3438.2222     0.16740000
    3937.55880 
    67036.5000        -0.0335         2.1916         0.6021      -0.124098 
      338.6400        -1.9050        75.8101        24.0011     0.33289999 
        5.6255         5.8727         9.9811         7.9712        17.7312 
       46.0187        16.4080      3424.5264     0.16530000
    3937.71120 
    67705.2031        -0.0335         2.2072         0.6126      -0.124563 
      338.6400        -1.7893        79.7024        24.0011     0.32720000 
        5.6255         5.8770         9.8724         8.4298        18.3389 
       46.2665        16.4185      3304.8889     0.16660000
    3937.86360 
    69086.5000        -0.0335         2.2778         0.5884      -0.124640 
      338.6400        -1.7059        81.0577        24.0011     0.32659999 
        5.6255         5.8781        10.2095         8.4321        17.8318 
       46.7789        16.7091      3419.4446     0.16900000
    3938.01600 
    72143.0000        -0.0335         2.2147         0.6067      -0.124355 
      338.6400        -1.7177        78.0800        24.0011     0.32490000 
        5.6255         5.8770        10.1299         8.4025        18.5850 
       47.9157        16.7274      3392.1055     0.17320000
    3938.16840 
    73739.7031        -0.0335         2.2525         0.6211      -0.123137 
      338.6400        -1.7148        80.8607        24.0011     0.32409999 
        5.6255         5.8787         9.7895         8.2196        18.3622 
       48.5112        16.5812      3319.5000     0.17710000
    3938.32080 
    73015.8984        -0.0335         2.3424         0.5929      -0.123273 
      338.6400        -1.6487        80.6701        24.0011     0.32249999 
        5.6255         5.8781        10.0361         7.7491        17.3656 
       48.2411        16.3945      3453.3687     0.17780000
    3938.47320 
    72788.5938        -0.0335         2.2337         0.6094      -0.123838 
      338.6400        -1.6593        78.5093        24.0011     0.32200000 
        5.6255         5.8753         9.6806         7.8065        18.0030 
       48.1563        16.2768      3384.0000     0.17860000
    3938.62560 
    74723.0000        -0.0335         2.2005         0.6056      -0.123683 
      338.6400        -1.6437        76.5873        24.0011     0.33100000 
        5.6255         5.8727         9.7525         7.8435        18.0129 
       48.8784        16.3879      3325.4211     0.17700000
    3938.77800 
    80000.8047        -0.0335         2.2222         0.6083      -0.123302 
      338.6400        -1.5768        77.5246        24.0011     0.33160001 
        5.6255         5.8753         9.7400         7.8129        17.6680 
       50.8568        16.3273      3438.0000     0.17190000
    3938.93040 
    77954.9062        -0.0335         2.2854         0.5916      -0.123710 
      338.6400        -1.2974        78.6793        24.0011     0.33090001 
        5.6255         5.8781        10.2546         7.8525        17.8174 
       50.0884        16.4365      3351.8420     0.16530000
    3939.08280 
    73674.6016        -0.0335         2.2479         0.5782      -0.123715 
      338.6400        -0.9049        76.9508        24.0011     0.32940000 
        5.6255         5.8804        10.4845         8.0601        18.2991 
       48.4868        16.3353      3342.1111     0.16050000
    3939.23520 
    64839.9961        -0.0335         2.2387         0.6157      -0.123492 
      338.6400        -1.3519        78.6537        24.0011     0.33360001 
        5.6255         5.8787         9.9063         8.1437        17.3984 
       45.2061        15.8201      3445.8420     0.16190000
    3939.38760 
 -3365719.5000        -0.0335     -3226.4983     -3222.8887      -0.124117 
      338.6400     -3218.5127        78.6537        24.0011 -3222.26147461 
        5.6255         5.8781     -3243.5503     -3239.6306     -3260.2124 
    -3322.0549     -3256.7024      3309.3889 -3221.87939453
    3939.54000 
     -999.2500        -0.0335      -999.2500      -999.2500      -0.124208 
      338.6400      -999.2500        78.6537        24.0011  -999.25000000 
        5.6255         5.8736      -999.2500      -999.2500      -999.2500 
     -999.2500      -999.2500      3360.6843  -999.25000000
