~Version Information Block
VERS .                 2.00:  CWLS LOG ASCII STANDARD - VERSION 2.00
WRAP .                   NO:  One line per depth step
~Well Information Block
#MNEM.UNIT        Data Type   Information
#---------- ----------------  -----------
STRT .M          3439.51560:  START DEPTH
STOP .M          3642.36000:  STOP DEPTH
STEP .M             0.15240:  STEP
NULL .              -999.25:  NULL VALUE
COMP .              Statoil:  COMPANY
WELL .          NO_15/9-F-5:  WELL
FLD  .                VOLVE:  FIELD
LOC  .            North Sea:  LOCATION
CTRY .                     :  COUNTRY
STAT .                     :  STATE
CNTY .                     :  COUNTY
SRVC .         Schlumberger:  SERVICE COMPANY
DATE .          16-Sep-2012:  DATE
API  .                     :  API NUMBER
UWI  .             15/9-F-5:  UNIQUE WELL ID
~Curve Information Block
#MNEM.UNIT         API CODE   Curve Description
#---------- ----------------  -----------------
DEPTH.M                    :  DEPTH (BOREHOLE)
BSAL .PPM                  :  Borehole Salinity
CCLC .V                    :  CCL
CIRF .                     :  RST Capture to Inelastic Ratio Far
CIRN .                     :  RST Capture to Inelastic Ratio Near
CVEL .M/MIN                 :  Cable Velocity
DSIG .CU                   :  Sigma Difference
FBEF .UA                   :  RST Far Effective Beam Current
GR   .GAPI                 :  Gamma Ray
IRAT .                     :  RST Inelastic Ratio
RSCF .                     :  RST Far Detector Effective Unregulated Capture Count Rate
RSCN .                     :  RST Near Detector Effective Unregulated Capture Count Rate
SFFA .CU                   :  RST Sigma Formation Far Apparent
SIBF .CU                   :  RST Sigma Borehole Fluid
SIGM .CU                   :  Formation Sigma (Neutron Capture Cross Section)
TENS .LBF                  :  Cable Tension
TPHI .V/V                  :  Thermal Decay Porosity
~Parameter Information Block
#MNEM.UNIT            Value   Description
#---------- ----------------  -----------
APD  .M           54.900002:  Elevation of Depth Reference (LMF) above Permanent Datum
BHS  .                 CASE:  Borehole Status (Open or Cased Hole)
BS   .IN                8.5:  Bit Size
BSAL .PPM       34972.17188:  Borehole Salinity
BSALOPT.              UNKNOWN:  Borehole Salinity Option
CSID .IN              6.184:  Casing Inner Diameter
CSIZ .IN                  7:  Current Casing Size
CWEI .LB/F               29:  Casing Weight
MATR .                 SAND:  Rock Matrix for Neutron Porosity Corrections
RUN  .                Run 1:  RUN NUMBER
PROJECT.     SLEIPNER_OST@st-vlinapp01:  
SET  .       RSTD_0912_SIG1:  
~Other Information Block
# 
~A       DEPTH           BSAL           CCLC           CIRF           CIRN           CVEL           DSIG           FBEF             GR           IRAT           RSCF           RSCN           SFFA           SIBF           SIGM           TENS           TPHI 
# ...
    3571.18920     26250.2012        -0.1719         2.3847     0.78200001       -4.44170        -0.0820        81.1172        41.0149     0.32339999        10.1324        10.2922        17.2298        31.2677        15.5102      2650.7742     0.21439999
    3571.34160     26385.9004         0.0664         2.3585     0.75419998       -4.53070        -0.0846        82.0027        39.7693     0.32030001         9.9911         9.9320        17.1711        31.3156        15.4109      2661.9666     0.21320000
    3571.49400     26406.9004        -0.1851         2.3528     0.76950002       -4.41200        -0.0098        82.9562        41.5677     0.31840000        10.0744        10.3853        17.2660        31.3230        15.4482      2654.0322     0.21660000
    3571.64640     26993.6016         0.6041         2.3825     0.77329999       -4.41580         0.0451        84.5121        37.3934     0.31770000         9.9448        10.1550        17.3349        31.5301        15.4020      2641.8064     0.21850000
    3571.79880     27750.9004         0.2348         2.3253     0.76359999       -4.42610         0.0473        80.5560        35.9999     0.31840000         9.9592         9.8395        17.0281        31.7977        15.3582      2647.1936     0.21980000
    3571.95120     28489.0000        -0.0694         2.3120     0.73629999       -4.45360         0.1833        80.7104        33.2128     0.32159999         9.9473         9.7644        17.1337        32.0588        15.5919      2648.2903     0.21490000
    3572.10360     28785.2988         0.0184         2.2597     0.75290000       -4.41620         0.2229        80.3498        32.5485     0.32310000        10.0785        10.4154        18.0357        32.1637        16.0180      2645.3872     0.21250001
    3572.25600     28368.6016        -0.3555         2.2591     0.73360002       -4.43890         0.2789        80.9003        29.8911     0.32120001         9.7300         9.6117        18.2996        32.0162        16.1469      2639.1289     0.21200000
    3572.40840     28504.5000        -0.1992         2.3117     0.74720001       -4.41680         0.2445        85.2001        32.8197     0.31860000         9.7256        10.0762        17.5148        32.0643        16.1210      2637.9355     0.21690001
    3572.56080     28390.6992        -0.0588         2.2551     0.72850001       -4.42710         0.2425        82.7863        33.3829     0.31659999         9.3908         9.4827        17.9545        32.0240        15.8290      2670.3872     0.22160000
    3572.71320     28566.7988         0.1667         2.2255     0.74070001       -4.44470         0.1970        79.3402        34.8721     0.31889999         9.8130         9.9068        17.4221        32.0863        15.8607      2657.8711     0.22530000
    3572.86560     28943.4004        -0.3542         2.2841     0.75440001       -4.41760         0.2134        81.7612        35.3210     0.31860000         9.5864         9.6140        17.6075        32.2196        15.7962      2635.7000     0.22730000
    3573.01800     28273.0000        -0.0174         2.2826     0.74559999       -4.41820         0.2150        85.9396        35.9023     0.31860000         9.3969        10.0490        17.7624        31.9824        15.7546      2666.7815     0.23160000
    3573.17040     28811.1992         0.1115         2.2084     0.74629998       -4.41540         0.2782        83.9441        36.8158     0.31830001         9.2499         9.7909        17.3021        32.1728        15.6549      2651.7419     0.23540001
    3573.32280     29089.1992        -0.2855         2.2077     0.74900001       -4.43280         0.2888        81.9944        35.9854     0.32060000         9.2562         9.8133        17.3174        32.2713        15.7032      2647.9355     0.23530000
    3573.47520     28915.8008         0.4141         2.2564     0.75029999       -4.45490         0.3787        80.3228        34.4408     0.31790000         9.6683         9.7770        17.9122        32.2098        15.8048      2650.6333     0.22970000
    3573.62760     29134.3008         0.1818         2.3122     0.73760003       -4.47880         0.3213        83.8677        34.5212     0.31349999         9.5879         9.6299        17.6085        32.2872        16.0009      2638.4194     0.22600000
    3573.78000     28859.3008        -0.2848         2.2285     0.69620001       -4.43190         0.3323        84.3202        34.0230     0.30790001         9.3232         9.2249        17.9063        32.1898        15.8049      2643.0645     0.23170000
    3573.93240     29481.0996         0.0868         2.1866     0.71719998       -4.43370         0.4838        83.2145        31.7808     0.30700001         9.2569         9.6281        17.3302        32.4101        15.7129      2649.8066     0.23989999
    3574.08480     28971.0996        -0.1885         2.1686     0.72100002       -4.53360         0.6501        81.8225        31.7532     0.30960000         9.3756         9.7782        17.3441        32.2295        15.8366      2644.0332     0.23970000
    3574.23720     28954.7988         0.1052         2.2125     0.71980000       -4.43980         0.6169        82.1232        32.2627     0.31340000         9.1979         9.1992        18.2867        32.2237        15.9590      2649.9355     0.23370001
    3574.38960     28468.5000        -0.0511         2.2680     0.73409998       -4.43070         0.7273        83.9522        33.8093     0.31410000         9.4469         9.6404        17.6994        32.0515        16.0283      2662.3547     0.22730000
    3574.54200     28382.7988         0.2547         2.2812     0.74620003       -4.43060         0.7449        85.2705        35.0801     0.31619999         9.0275         9.4859        17.5538        32.0212        15.6692      2659.1936     0.22759999
    3574.69440     28038.6016         0.0418         2.2370     0.73970002       -4.41210         0.8082        84.2217        36.6714     0.31900001         9.2497         9.7999        17.2088        31.8995        15.4265      2646.2258     0.22810000
    3574.84680     28281.0996        -0.0326         2.2040     0.73229998       -4.41820         0.9120        80.1059        36.1979     0.32300001         9.2055         9.1565        16.9710        31.9852        15.4491      2649.5161     0.22550000
    3574.99920     28360.0000        -0.2176         2.1767     0.72799999       -4.43340         0.9328        81.6306        37.4046     0.32409999         9.2567         9.5602        17.6170        32.0131        15.6191      2646.9678     0.22360000
    3575.15160     28276.4004        -0.1299         2.2042     0.72320002       -4.43890         1.0245        84.4412        35.2144     0.32220000         9.0809         9.3091        17.7087        31.9836        16.0301      2656.0645     0.22040001
    3575.30400     28545.9004         0.3174         2.1933     0.73159999       -4.45770         1.0249        82.3210        34.2003     0.31619999         9.3932         9.7657        18.2032        32.0789        16.2537      2640.3872     0.22229999
    3575.45640     28461.0996         0.0205         2.2824     0.71770000       -4.42070         1.1477        86.4203        32.2416     0.30530000         9.3736         9.7544        18.2849        32.0489        16.6484      2649.0645     0.22139999
    3575.60880     28048.7988         0.0018         2.0990     0.63480002       -4.41920         1.1302        86.2135        31.3017     0.29960001         8.6824         8.9080        18.8907        31.9031        17.1691      2652.0000     0.22280000
    3575.76120     28015.3008         0.7775         1.8190     0.59649998       -4.42860         1.0531        81.5674        30.3656     0.30289999         8.2536         8.8484        19.7558        31.8912        17.2438      2645.7419     0.22589999
    3575.91360     27825.7012         0.2623         1.9226     0.65270001       -4.43100         0.9850        83.6704        32.1217     0.31230000         8.1287         8.7419        18.5004        31.8242        17.0568      2662.4194     0.22740000
