~Version Information Block
VERS .                 2.00:  CWLS LOG ASCII STANDARD - VERSION 2.00
WRAP .                   NO:  One line per depth step
~Well Information Block
#MNEM.UNIT        Data Type   Information
#---------- ----------------  -----------
STRT .M          3451.70760:  START DEPTH
STOP .M          3790.03560:  STOP DEPTH
STEP .M             0.15240:  STEP
NULL .              -999.25:  NULL VALUE
COMP .              Statoil:  COMPANY
WELL .        NO_15/9-F-1_C:  WELL
FLD  .                Volve:  FIELD
LOC  .            North Sea:  LOCATION
CTRY .               Norway:  COUNTRY
STAT .                     :  STATE
CNTY .                     :  COUNTY
SRVC .         Schlumberger:  SERVICE COMPANY
DATE .          27-Nov-2014:  DATE
API  .                     :  API NUMBER
UWI  .           15/9-F-1 C:  UNIQUE WELL ID
LATI .     58° 26' 29.91" N:  LATITUDE
LONG .      1° 53' 14.71" E:  LONGITUDE
~Curve Information Block
#MNEM.UNIT         API CODE   Curve Description
#---------- ----------------  -----------------
DEPTH.M                    :  DEPTH (BOREHOLE)
CVEL .M/SEC                 :  Cable Velocity
DFRB .DEG                  :  Calibrated Relative Bearing
FBEF .UA                   :  RST Far Effective Beam Current
FCOR .                     :  RST Far Carbon/Oxygen Ratio
FERD .                     :  RST Far IC Mode Capture Optimization
FIRD .                     :  RST Far Inelastic Optimization Resolution
GR   .GAPI                 :  Gamma Ray
NCOR .                     :  RST Near Carbon/Oxygen Ratio
NERD .                     :  RST Near IC Mode Capture Optimization
NIRD .                     :  RST Near Inelastic Optimization Resolution
PFC1 .IN                   :  PFCS CaliperX
PFC2 .IN                   :  PFCS CaliperY
TENS .LBF                  :  Cable Tension
~Parameter Information Block
#MNEM.UNIT            Value   Description
#---------- ----------------  -----------
APD  .M           54.900002:  Elevation of Depth Reference (LMF) above Permanent Datum
EPD  .C3                  0:  Elevation of Permanent Datum above Mean Sea Level
LMF  .                   KB:  Logging Measured From (Name of Logging Elevation Reference)
PDAT .                  MSL:  Permanent Datum
RUN  .                Run 1:  RUN NUMBER
TAPE_NAME.     Statoil_Volve_15-9-F-1 C_PLT-RST_28Nov14_ConCu_R1L18Up_IC2.las:  
TOOL_STRING.              UNKNOWN:  
WN   .           15/9-F-1 C:  WELL
PROJECT.     SLEIPNER_OST@st-vlinapp01:  
SET  .        RSTD_1114_IC2:  
~Other Information Block
# 
~A       DEPTH           CVEL           DFRB           FBEF           FCOR           FERD           FIRD             GR           NCOR           NERD           NIRD           PFC1           PFC2           TENS 
# ...
    3540.86160     -0.0083267       358.3940       106.7593        -0.7401         5.4193         5.4193        35.9836         2.7094         6.5880         6.5880         6.2219         6.0137      4323.6533
    3541.01400     -0.0084983       358.3940       110.8814         0.5547         5.4302         5.4302        38.1477         0.5884         6.5880         6.5880         6.2219         6.0151      4263.1978
    3541.16640     -0.0084667       358.3940       105.2136        -0.1851         5.4302         5.4302        38.0204         1.1070         6.6383         6.6383         6.2208         6.0143      4158.2061
    3541.31880     -0.0086317       358.3940       105.2136        -0.1851         5.4302         5.4302        41.6839         0.3657         6.6383         6.6383         6.2124         6.0036      4219.6885
    3541.47120     -0.0082167       358.3940       106.1411         1.6112         5.4302         5.4302        44.2582         0.3657         6.6383         6.6383         6.1905         5.9863      4431.8311
    3541.62360     -0.0082633       358.3940       107.3527         0.2023         5.4302         5.4302        45.0785         1.4243         6.6383         6.6383         6.2021         5.9864      4369.6138
    3541.77600     -0.0082483       358.3940       107.8915        -0.0660         5.4302         5.4302        44.0177         1.0370         6.6383         6.6383         6.2218         5.9862      4419.8271
    3541.92840     -0.0083717       358.3940       110.6258         0.4040         5.4302         5.4302        46.5920         0.3501         6.6383         6.6383         6.2219         5.9862      4354.6377
    3542.08080     -0.0084567       358.3940       110.6258         0.4040         5.4302         5.4302        47.1861         0.6520         6.6383         6.6383         6.2219         5.9862      4353.8857
    3542.23320     -0.0085600       358.3940       107.3593         0.1297         5.4302         5.4302        46.8183         0.6520         6.6383         6.6383         6.2219         5.9864      4321.6230
    3542.38560     -0.0086200       358.3940       109.0122         0.1789         5.3877         5.3877        48.2045         0.4663         6.6383         6.6383         6.2200         5.9863      4277.9399
    3542.53800     -0.0086933       358.3940       109.7801         0.7002         5.3877         5.3877        47.2851         0.7963         6.6366         6.6366         6.2219         5.9862      4271.8931
    3542.69040     -0.0086967       358.3940       109.7801         0.7002         5.3877         5.3877        46.9173         0.3132         6.6366         6.6366         6.1989         5.9862      4179.3701
    3542.84280     -0.0090583       358.3940       109.9708        -0.4809         5.3877         5.3877        43.1549         0.3132         6.6366         6.6366         6.1905         5.9862      4066.2183
    3542.99520     -0.0087117       358.3940       109.4393        -0.7655         5.3877         5.3877        42.7871         0.7255         6.6366         6.6366         6.1905         5.9862      4335.3604
    3543.14760     -0.0085250       358.3940       111.1989         0.1491         5.3877         5.3877        40.7645         3.8336         6.6366         6.6366         6.2016         5.9862      4355.9668
    3543.30000     -0.0085050       358.3940       111.1989         0.1491         5.3877         5.3877        39.7743         0.3975         6.6366         6.6366         6.2215         5.9862      4311.6465
    3543.45240     -0.0086150       358.3940       108.7572        -0.1599         5.3877         5.3877        39.0388         0.3975         6.6366         6.6366         6.2193         5.9862      4247.3477
    3543.60480     -0.0087333       358.3940       105.8198        -0.0642         5.3877         5.3877        41.6697         0.8242         6.6366         6.6366         6.2219         5.9862      4141.3486
    3543.75720     -0.0086467       358.3940       106.2947         0.1946         5.3958         5.3958        40.9625         0.6831         6.6366         6.6366         6.2219         5.9862      4245.5527
    3543.90960     -0.0085467       358.3940       106.2947         0.1945         5.3958         5.3958        41.3302         1.4074         6.6494         6.6494         6.2219         5.9861      4290.8452
    3544.06200     -0.0085067       358.3940       104.1032         0.4448         5.3958         5.3958        42.5184         1.4074         6.6494         6.6494         6.2219         5.9862      4264.2998
    3544.21440     -0.0083783       358.3940       104.3047         0.1542         5.3958         5.3958        43.2539         0.8590         6.6494         6.6494         6.2219         5.9862      4332.3398
    3544.36680     -0.0084583       358.3940       103.4740         0.2552         5.3958         5.3958        43.7914         0.8779         6.6494         6.6494         6.2219         5.9861      4280.7705
    3544.51920     -0.0085183       358.3940       103.4740         0.2552         5.3958         5.3958        43.3953         0.6768         6.6494         6.6494         6.2176         5.9859      4283.2271
    3544.67160     -0.0086067       358.3940       103.1680         0.3914         5.3958         5.3958        44.6825         0.6768         6.6494         6.6494         6.2203         5.9862      4232.4209
    3544.82400     -0.0086000       358.3940       100.6462         0.4268         5.3958         5.3958        44.1167        -2.7775         6.6494         6.6494         6.2193         5.9863      4117.7783
    3544.97640     -0.0088933       358.3940        98.9304        -3.6385         5.3958         5.3958        43.6217         0.8062         6.6494         6.6494         6.2211         5.9862      4032.8174
    3545.12880     -0.0083000       358.3940        98.9304        -3.6385         5.3958         5.3958        40.3260         0.5334         6.6494         6.6494         6.2038         5.9862      4389.2983
    3545.28120     -0.0083900       358.3940       102.7468         0.3385         5.3447         5.3447        39.5339         0.5334         6.6494         6.6494         6.1961         5.9862      4303.5347
    3545.43360     -0.0083550       358.3940        99.2490         0.2915         5.3447         5.3447        34.0175         0.6887         6.5985         6.5985         6.2219         5.9864      4346.1206
    3545.58600     -0.0083850       358.3940        99.8120         0.3522         5.3447         5.3447        30.2268         0.4037         6.5985         6.5985         6.2219         5.9863      4335.3848
    3545.73840     -0.0083700       358.3940        99.8120         0.3522         5.3447         5.3447        24.1022         0.6015         6.5985         6.5985         6.2217         6.0117      4351.7500
    3545.89080     -0.0084133       358.3940       100.9963        -0.0300         5.3447         5.3447        20.6651         0.6015         6.5985         6.5985         6.2219         6.0367      4336.7622
    3546.04320     -0.0084533       358.3940       100.6858         7.5814         5.3447         5.3447        17.5958         0.6012         6.5985         6.5985         6.2219         6.0362      4287.9707
    3546.19560     -0.0086400       358.3940       103.4177        -1.1154         5.3447         5.3447        18.5152         1.1348         6.5985         6.5985         6.2219         6.0377      4194.2993
    3546.34800     -0.0085067       358.3940       103.4177        -1.1154         5.3447         5.3447        19.1092         0.6715         6.5985         6.5985         6.2219         6.0411      4374.0337
    3546.50040     -0.0084800       359.8050       105.1729         0.0569         5.3447         5.3447        21.8674         0.6715         6.5985         6.5985         6.2219         6.0417      4350.7856
    3546.65280     -0.0086017       359.8050       106.7219         0.5824         5.3448         5.3448        23.0980         0.3164         6.5985         6.5985         6.2219         6.0413      4267.3647
