~Version Information Block
VERS .                 2.00:  CWLS LOG ASCII STANDARD - VERSION 2.00
WRAP .                   NO:  One line per depth step
~Well Information Block
#MNEM.UNIT        Data Type   Information
#---------- ----------------  -----------
STRT .M          3454.45080:  START DEPTH
STOP .M          3788.05440:  STOP DEPTH
STEP .M             0.15240:  STEP
NULL .              -999.25:  NULL VALUE
COMP .              Statoil:  COMPANY
WELL .        NO_15/9-F-1_C:  WELL
FLD  .                Volve:  FIELD
LOC  .            North Sea:  LOCATION
CTRY .               Norway:  COUNTRY
STAT .                     :  STATE
CNTY .                     :  COUNTY
SRVC .         Schlumberger:  SERVICE COMPANY
DATE .          27-Nov-2014:  DATE
API  .                     :  API NUMBER
UWI  .           15/9-F-1 C:  UNIQUE WELL ID
LATI .     58° 26' 29.91" N:  LATITUDE
LONG .      1° 53' 14.71" E:  LONGITUDE
~Curve Information Block
#MNEM.UNIT         API CODE   Curve Description
#---------- ----------------  -----------------
DEPTH.M                    :  DEPTH (BOREHOLE)
CRRA .                     :  Near/Far Count Rate Ratio
CVEL .M/SEC                 :  Cable Velocity
DFRB .DEG                  :  Calibrated Relative Bearing
FBEF .UA                   :  RST Far Effective Beam Current
FCOR .                     :  RST Far Carbon/Oxygen Ratio
FERD .                     :  RST Far IC Mode Capture Optimization
FIRD .                     :  RST Far Inelastic Optimization Resolution
GR   .GAPI                 :  Gamma Ray
NCOR .                     :  RST Near Carbon/Oxygen Ratio
NERD .                     :  RST Near IC Mode Capture Optimization
NIRD .                     :  RST Near Inelastic Optimization Resolution
PFC1 .IN                   :  PFCS CaliperX
PFC2 .IN                   :  PFCS CaliperY
TENS .LBF                  :  Cable Tension
~Parameter Information Block
#MNEM.UNIT            Value   Description
#---------- ----------------  -----------
APD  .M           54.900002:  Elevation of Depth Reference (LMF) above Permanent Datum
EPD  .C3                  0:  Elevation of Permanent Datum above Mean Sea Level
LMF  .                   KB:  Logging Measured From (Name of Logging Elevation Reference)
PDAT .                  MSL:  Permanent Datum
RUN  .                Run 1:  RUN NUMBER
TAPE_NAME.     Statoil_Volve_15-9-F-1 C_PLT-RST_28Nov14_ConCu_R1L17Up_IC1.las:  
TOOL_STRING.              UNKNOWN:  
WN   .           15/9-F-1 C:  WELL
PROJECT.     SLEIPNER_OST@st-vlinapp01:  
SET  .        RSTD_1114_IC1:  
~Other Information Block
# 
~A       DEPTH           CRRA           CVEL           DFRB           FBEF           FCOR           FERD           FIRD             GR           NCOR           NERD           NIRD           PFC1           PFC2           TENS 
# ...
    3761.68920         2.7302      -0.008568       330.1740       117.3533         0.1113         5.3750         5.3750        12.2175         0.0306         6.9333         6.9333         6.1982         6.0834      4624.5059
    3761.84160         2.7292      -0.009047       330.1740       117.9408         0.0216         5.4380         5.4380        12.5929         0.0307         7.0149         7.0149         6.2006         6.0834      4491.0586
    3761.99400         2.7557      -0.009927       330.1740       117.7651        -0.0154         5.5020         5.5020        13.0618         0.1199         7.0369         7.0369         6.2055         6.0834      4602.8701
    3762.14640         2.7420      -0.010442       330.1740       117.3289        -0.1908         5.5631         5.5631        12.9322         0.0246         7.0485         7.0485         6.2073         6.0834      4577.7432
    3762.29880         2.7308      -0.010498       330.1740       116.8708        -0.0658         5.5349         5.5349        13.0714         0.1256         7.0825         7.0825         6.2100         6.0834      4538.3838
    3762.45120         2.7321      -0.010567       330.1740       117.9297         0.0074         5.5412         5.5412        13.3572        -0.0161         7.0782         7.0782         6.2056         6.0834      4488.6040
    3762.60360         2.7521      -0.010405       330.1740       116.5908         0.2020         5.5159         5.5159        12.8975         0.0232         7.0274         7.0274         6.2136         6.0834      4556.6953
    3762.75600         2.7226      -0.010430       330.1740       117.0448         0.0128         5.5142         5.5142        12.6400         0.0092         7.0775         7.0775         6.2169         6.0834      4520.7979
    3762.90840         2.7413      -0.010305       330.1740       117.5849        -0.1603         5.4576         5.4576        12.2017         0.1312         7.0763         7.0763         6.2189         6.0834      4635.9189
    3763.06080         2.7594      -0.010288       330.1740       116.6924         0.1038         5.4391         5.4391        12.4840         0.0488         7.0742         7.0742         6.2195         6.0834      4578.0273
    3763.21320         2.7239      -0.010450       330.1740       116.4812        -0.0812         5.4609         5.4609        13.2197        -0.0116         7.0707         7.0707         6.2189         6.0834      4560.7275
    3763.36560         2.7234      -0.010442       330.1740       116.6323        -0.0839         5.6274         5.6274        13.6901         0.0089         7.0311         7.0311         6.2183         6.0834      4615.3696
    3763.51800         2.7164      -0.010407       330.1740       116.5795         0.1000         5.5365         5.5365        14.0691        -0.0012         7.0073         7.0073         6.2200         6.0834      4561.7490
    3763.67040         2.7165      -0.010518       330.1740       117.1176        -0.0426         5.5503         5.5503        14.6999         0.0471         7.0298         7.0298         6.2219         6.0834      4540.6650
    3763.82280         2.7506      -0.010293       330.1740       117.0693        -0.1328         5.5702         5.5702        14.0368         0.0614         7.0271         7.0271         6.2219         6.0834      4725.4575
    3763.97520         2.7421      -0.010300       330.1740       116.7918         0.0816         5.5947         5.5947        13.7756         0.0467         7.0025         7.0025         6.2219         6.0834      4659.5537
    3764.12760         2.7457      -0.010365       330.1740       116.2814         0.0666         5.5875         5.5875        13.4481        -0.0225         7.0220         7.0220         6.2219         6.0834      4666.2637
    3764.28000         2.7337      -0.010480       330.1740       116.0781         0.0249         5.6555         5.6555        13.2970         0.1192         6.9900         6.9900         6.2195         6.0834      4557.4639
    3764.43240         2.7165      -0.010478       330.1740       116.1332         0.0029         5.5923         5.5923        13.5887        -0.0155         6.9948         6.9948         6.2097         6.0834      4497.2998
    3764.58480         2.7185      -0.010607       330.1740       116.8321         0.0522         5.4609         5.4609        13.9064         0.0522         6.9454         6.9454         6.2070         6.0834      4455.5991
    3764.73720         2.7285      -0.010732       330.1740       119.6836         0.1734         5.4637         5.4637        13.6135        -0.0172         6.9955         6.9955         6.2145         6.0834      4326.2881
    3764.88960         2.8086      -0.010592       330.1740       122.6128         0.0722         5.5081         5.5081        13.4181         0.0164         6.9217         6.9217         6.2086         6.0834      4539.7920
    3765.04200         2.9034      -0.009895       332.9960       119.9333         0.1060         5.5237         5.5237        13.4742         0.0410         6.9186         6.9186         6.2083         6.0800      4739.3931
    3765.19440         2.8104      -0.008305       332.9960       115.9469        -0.0351         5.5045         5.5045        13.8217         0.0036         6.9793         6.9793         6.2206         6.0834      4650.1748
    3765.34680         2.7101      -0.008312       332.9960       117.5115         0.0713         5.5075         5.5075        14.3815         0.0466         6.9782         6.9782         6.2219         6.0834      4602.5542
    3765.49920         2.7390      -0.009473       332.9960       117.4114         0.0852         5.5208         5.5208        15.2845         0.0182         7.0233         7.0233         6.2185         6.0834      4514.2139
    3765.65160         2.7436      -0.010463       332.9960       118.7790        -0.1110         5.4940         5.4940        17.1413         0.0041         6.8114         6.8114         6.2188         6.0833      4556.6392
    3765.80400         2.7380      -0.010405       334.4070       119.3657         0.0283         5.5201         5.5201        18.7427         0.0917         6.9601         6.9601         6.2189         6.0834      4665.0137
    3765.95640         2.7764      -0.010383       334.4070       119.9122         0.0111         5.4683         5.4683        19.6739        -0.1379         6.7400         6.7400         6.2186         6.0824      4575.5205
    3766.10880         2.7754      -0.010392       335.8180       119.1754         0.0040         5.4845         5.4845        20.9512         0.0029         6.8695         6.8695         6.2125         6.0821      4628.3979
    3766.26120         2.7509      -0.010385       335.8180       120.0513         0.1119         5.5304         5.5304        22.3123         0.1107         6.6867         6.6867         6.2093         6.0834      4619.3857
    3766.41360         2.7820      -0.010382       335.8180       120.4321         0.0080         5.4693         5.4693        22.4378         0.0290         6.8518         6.8518         6.2106         6.0833      4606.8013
    3766.56600         2.7828      -0.010427       335.8180       119.7407         0.0080         5.4547         5.4547        22.2079         0.0339         6.8155         6.8155         6.2062         6.0785      4622.6924
    3766.71840         2.7601      -0.010393       335.8180       119.8661        -0.3041         5.4855         5.4855        22.4779         0.0684         6.7901         6.7901         6.2097         6.0773      4620.0317
    3766.87080         2.7628      -0.010213       337.2290       120.0024         0.0079         5.5566         5.5566        21.8681         0.0008         6.7994         6.7994         6.2075         6.0693      4665.1616
    3767.02320         2.7769      -0.010432       337.2290       119.9446         0.0988         5.4271         5.4271        20.9262         0.0071         6.7884         6.7884         6.1973         6.0525      4626.4209
