~Version Information Block
VERS .                 2.00:  CWLS LOG ASCII STANDARD - VERSION 2.00
WRAP .                   NO:  One line per depth step
~Well Information Block
#MNEM.UNIT        Data Type   Information
#---------- ----------------  -----------
STRT .M          3445.30680:  START DEPTH
STOP .M          3639.15960:  STOP DEPTH
STEP .M             0.15240:  STEP
NULL .              -999.25:  NULL VALUE
COMP .              Statoil:  COMPANY
WELL .          NO_15/9-F-5:  WELL
FLD  .                VOLVE:  FIELD
LOC  .            North Sea:  LOCATION
CTRY .                     :  COUNTRY
STAT .                     :  STATE
CNTY .                     :  COUNTY
SRVC .         Schlumberger:  SERVICE COMPANY
DATE .          16-Sep-2012:  DATE
API  .                     :  API NUMBER
UWI  .             15/9-F-5:  UNIQUE WELL ID
~Curve Information Block
#MNEM.UNIT         API CODE   Curve Description
#---------- ----------------  -----------------
DEPTH.M                    :  DEPTH (BOREHOLE)
CCLC .V                    :  CCL
CRRA .                     :  Near-Far Count Rate Ratio
CVEL .M/MIN                 :  Cable Velocity
FBEF .UA                   :  RST Far Effective Beam Current
FCOR .                     :  RST Far Carbon/Oxygen Ratio
FERD .                     :  RST Far IC Mode Capture Optimization Resolution Degradation Factor
FIRD .                     :  RST Far Inelastic Optimization Resolution Degradation Factor
GR   .GAPI                 :  Gamma Ray
NCOR .                     :  RST Near Carbon/Oxygen Ratio
NERD .                     :  RST Near IC Mode Capture Optimization Resolution Degradation Factor
NIRD .                     :  RST Near Inelastic Optimization Resolution Degradation Factor
RB_PCMS.DEG                  :  Relative Bearing
TENS .LBF                  :  Cable Tension
~Parameter Information Block
#MNEM.UNIT            Value   Description
#---------- ----------------  -----------
APD  .M           54.900002:  Elevation of Depth Reference (LMF) above Permanent Datum
RUN  .                Run 1:  RUN NUMBER
PROJECT.     SLEIPNER_OST@st-vlinapp01:  
SET  .        RSTD_0912_IC3:  
~Other Information Block
# 
~A       DEPTH           CCLC           CRRA           CVEL           FBEF           FCOR           FERD           FIRD             GR           NCOR           NERD           NIRD        RB_PCMS           TENS 
    3445.30680        -0.0029         3.1454       -0.03130       118.9319     0.07720000         5.9577         5.9577        26.2657       0.046900         2.5621         2.5621         8.6539      2746.7898
    3445.45920        -0.0029         3.1454       -0.03130       118.9319     0.07720000         5.9577         5.9577        26.2657       0.046900         2.5621         2.5621         8.6539      2746.7898
    3445.61160        -0.0029         3.1454       -0.03130       118.9319     0.07720000         5.9577         5.9577        26.2657       0.046900         2.5621         2.5621         8.6539      2746.7898
    3445.76400        -0.0029         3.1454       -0.03130       118.9319     0.07720000         5.9577         5.9577        26.2657       0.046900         2.5621         2.5621         8.6539      2746.7898
    3445.91640        -0.0029         3.1454       -0.03130       118.9319     0.07720000         5.9577         5.9577        26.2657       0.046900         2.5621         2.5621         8.6539      2746.7898
    3446.06880        -0.0029         3.1454       -0.03130       118.9319     0.07720000         5.9577         5.9577        26.2657       0.046900         2.5621         2.5621         8.6539      2746.7898
    3446.22120        -0.0029         3.1454       -0.03130       118.9319     0.07720000         5.9577         5.9577        26.2657       0.046900         2.5621         2.5621         8.6539      2746.7898
    3446.37360        -0.0029         3.1454       -0.03130       118.9319     0.07720000         5.9577         5.9577        26.2657       0.046900         2.5621         2.5621         8.6539      2746.7898
    3446.52600        -0.0029         3.1454       -0.03130       118.9319     0.07720000         5.9577         5.9577        26.2657       0.046900         2.5621         2.5621         8.6539      2746.7898
    3446.67840        -0.0029         3.1454       -0.03130       118.9319     0.07720000         5.9577         5.9577        26.2657       0.046900         2.5621         2.5621         8.6539      2746.7898
    3446.83080        -0.0029         3.1454       -0.03130       118.9319     0.07720000         5.9577         5.9577        26.2657       0.046900         2.5621         2.5621         8.6539      2746.7898
    3446.98320        -0.0029         3.1454       -0.03130       118.9319     0.07720000         5.9577         5.9577        26.2657       0.046900         2.5621         2.5621         8.6539      2746.7898
    3447.13560        -0.0029         3.1454       -0.03130       118.9319     0.07720000         5.9577         5.9577        26.2657       0.046900         2.5621         2.5621         8.6539      2746.7898
    3447.28800        -0.0029         3.1454       -0.03130       118.9319     0.07720000         5.9577         5.9577        26.2657       0.046900         2.5621         2.5621         8.6539      2746.7898
    3447.44040        -0.0029         3.1454       -0.03130       118.9319     0.07720000         5.9577         5.9577        26.2657       0.046900         2.5621         2.5621         8.6539      2746.7898
    3447.59280        -0.0029         3.1454       -0.03130       118.9319     0.07720000         5.9577         5.9577        26.2657       0.046900         2.5621         2.5621         8.6539      2746.7898
    3447.74520        -0.0029         3.1454       -0.03130       118.9319     0.07720000         5.9577         5.9577        26.2657       0.046900         2.5621         2.5621         8.6539      2746.7898
    3447.89760        -0.0029         3.1454       -0.03130       118.9319     0.07720000         5.9577         5.9577        26.2657       0.046900         2.5621         2.5621         8.6539      2746.7898
    3448.05000        -0.0029         3.1454       -0.03130       118.9319     0.07720000         5.9577         5.9577        26.2657       0.046900         2.5621         2.5621         8.6539      2746.7898
    3448.20240        -0.0029         3.1454       -0.03130       118.9319     0.07720000         5.9577         5.9577        26.2657       0.046900         2.5621         2.5621         8.6539      2746.7898
    3448.35480        -0.0029         3.1454       -0.03130       118.9319     0.07720000         5.9577         5.9577        26.2657       0.046900         2.5621         2.5621         8.6539      2746.7898
    3448.50720        -0.0029         3.1454       -0.03130       118.9319     0.07720000         5.9577         5.9577        26.2657       0.046900         2.5621         2.5621         8.6539      2746.7898
    3448.65960        -0.0029         3.1454       -0.03130       118.9319     0.07720000         5.9577         5.9577        26.2657       0.046900         2.5621         2.5621         8.6539      2746.7898
    3448.81200        -0.0029         3.1454       -0.03130       118.9319     0.07720000         5.9577         5.9577        26.2657       0.046900         2.5621         2.5621         8.6539      2746.7898
    3448.96440        -0.0029         3.1454       -0.03130       118.9319     0.07720000         5.9577         5.9577        26.2657       0.046900         2.5621         2.5621         8.6539      2746.7898
    3449.11680        -0.0029         3.1454       -0.03130       118.9319     0.07720000         5.9577         5.9577        26.2657       0.046900         2.5621         2.5621         8.6539      2746.7898
    3449.26920        -0.0029         3.1454       -0.03130       118.9319     0.07720000         5.9577         5.9577        26.2657       0.046900         2.5621         2.5621         8.6539      2746.7898
    3449.42160        -0.0029         3.1454       -0.03130       118.9319     0.07720000         5.9577         5.9577        26.2657       0.046900         2.5621         2.5621         8.6539      2746.7898
    3449.57400        -0.0029         3.1454       -0.03130       118.9319     0.07720000         5.9577         5.9577        26.2657       0.046900         2.5621         2.5621         8.6539      2746.7898
    3449.72640        -0.0029         3.1454       -0.03130       118.9319     0.07720000         5.9577         5.9577        26.2657       0.046900         2.5621         2.5621         8.6539      2746.7898
    3449.87880        -0.0029         3.1454       -0.03130       118.9319     0.07720000         5.9577         5.9577        26.2657       0.046900         2.5621         2.5621         8.6539      2746.7898
    3450.03120        -0.0029         3.1454       -0.03130       118.9319     0.07720000         5.9577         5.9577        26.2657       0.046900         2.5621         2.5621         8.6539      2746.7898
    3450.18360        -0.0029         3.1454       -0.03130       118.9319     0.07720000         5.9577         5.9577        26.2657       0.046900         2.5621         2.5621         8.6539      2746.7898
    3450.33600        -0.0029         3.1454       -0.03130       118.9319     0.07720000         5.9577         5.9577        26.2657       0.046900         2.5621         2.5621         8.6539      2746.7898
    3450.48840        -0.0029         3.1454       -0.03130       118.9319     0.07720000         5.9577         5.9577        26.2657       0.046900         2.5621         2.5621         8.6539      2746.7898
    3450.64080        -0.0029         3.1454       -0.03130       118.9319     0.07720000         5.9577         5.9577        26.2657       0.046900         2.5621         2.5621         8.6539      2746.7898
    3450.79320        -0.0029         3.1454       -0.03130       118.9319     0.07720000         5.9577         5.9577        26.2657       0.046900         2.5621         2.5621         8.6539      2746.7898
    3450.94560        -0.0029         3.1454       -0.03130       118.9319     0.07720000         5.9577         5.9577        26.2657       0.046900         2.5621         2.5621         8.6539      2746.7898
    3451.09800        -0.0029         3.1454       -0.03130       118.9319     0.07720000         5.9577         5.9577        26.2657       0.046900         2.5621         2.5621         8.6539      2746.7898
