~Version Information Block
VERS .                 2.00:  CWLS LOG ASCII STANDARD - VERSION 2.00
WRAP .                   NO:  One line per depth step
~Well Information Block
#MNEM.UNIT        Data Type   Information
#---------- ----------------  -----------
STRT .M          3454.45080:  START DEPTH
STOP .M          3788.05440:  STOP DEPTH
STEP .M             0.15240:  STEP
NULL .              -999.25:  NULL VALUE
COMP .              Statoil:  COMPANY
WELL .        NO_15/9-F-1_C:  WELL
FLD  .                Volve:  FIELD
LOC  .            North Sea:  LOCATION
CTRY .               Norway:  COUNTRY
STAT .                     :  STATE
CNTY .                     :  COUNTY
SRVC .         Schlumberger:  SERVICE COMPANY
DATE .          27-Nov-2014:  DATE
API  .                     :  API NUMBER
UWI  .           15/9-F-1 C:  UNIQUE WELL ID
LATI .     58° 26' 29.91" N:  LATITUDE
LONG .      1° 53' 14.71" E:  LONGITUDE
~Curve Information Block
#MNEM.UNIT         API CODE   Curve Description
#---------- ----------------  -----------------
DEPTH.M                    :  DEPTH (BOREHOLE)
CRRA .                     :  Near/Far Count Rate Ratio
CVEL .M/SEC                 :  Cable Velocity
DFRB .DEG                  :  Calibrated Relative Bearing
FBEF .UA                   :  RST Far Effective Beam Current
FCOR .                     :  RST Far Carbon/Oxygen Ratio
FERD .                     :  RST Far IC Mode Capture Optimization
FIRD .                     :  RST Far Inelastic Optimization Resolution
GR   .GAPI                 :  Gamma Ray
NCOR .                     :  RST Near Carbon/Oxygen Ratio
NERD .                     :  RST Near IC Mode Capture Optimization
NIRD .                     :  RST Near Inelastic Optimization Resolution
PFC1 .IN                   :  PFCS CaliperX
PFC2 .IN                   :  PFCS CaliperY
TENS .LBF                  :  Cable Tension
~Parameter Information Block
#MNEM.UNIT            Value   Description
#---------- ----------------  -----------
APD  .M           54.900002:  Elevation of Depth Reference (LMF) above Permanent Datum
EPD  .C3                  0:  Elevation of Permanent Datum above Mean Sea Level
LMF  .                   KB:  Logging Measured From (Name of Logging Elevation Reference)
PDAT .                  MSL:  Permanent Datum
RUN  .                Run 1:  RUN NUMBER
TAPE_NAME.     Statoil_Volve_15-9-F-1 C_PLT-RST_28Nov14_ConCu_R1L17Up_IC1.las:  
TOOL_STRING.              UNKNOWN:  
WN   .           15/9-F-1 C:  WELL
PROJECT.     SLEIPNER_OST@st-vlinapp01:  
SET  .        RSTD_1114_IC1:  
~Other Information Block
# 
~A       DEPTH           CRRA           CVEL           DFRB           FBEF           FCOR           FERD           FIRD             GR           NCOR           NERD           NIRD           PFC1           PFC2           TENS 
# ...
    3520.28760         2.6295      -0.008772       358.3940       113.2630         0.1899         5.0427         5.0427        25.9804         0.9329         6.7935         6.7935         6.2219         6.0186      4169.5381
    3520.44000         2.6430      -0.008273       358.3940       115.1309         0.2695         5.0603         5.0603        25.4784         0.8181         6.7582         6.7582         6.2219         6.0186      4113.0947
    3520.59240         2.7351      -0.007863       358.3940       114.4825         0.2771         5.0266         5.0266        25.7831         0.8559         6.7445         6.7445         6.2219         6.0188      4085.3796
    3520.74480         2.7061      -0.007910       359.8050       113.5850         0.2062         5.0148         5.0148        25.7529         0.7173         6.7454         6.7454         6.2222         6.0189      4140.5537
    3520.89720         2.6583      -0.008322       359.8050       112.8911         0.1292         5.1250         5.1250        26.1966         0.8087         6.7586         6.7586         6.2219         6.0181      4083.0657
    3521.04960         2.6355      -0.008780       359.8050       112.8900         0.1372         5.0880         5.0880        26.2382         0.8470         6.7958         6.7958         6.2220         6.0186      3958.6782
    3521.20200         2.6381      -0.008770       358.3940       112.5914         0.2072         5.0362         5.0362        26.7115         0.7203         6.6797         6.6797         6.2219         6.0186      4243.1460
    3521.35440         2.6430      -0.007960       358.3940       113.0300         0.1712         5.1859         5.1859        26.7102         0.6805         6.7519         6.7519         6.2224         6.0188      4202.1294
    3521.50680         2.6386      -0.007778       358.3940       113.1400         0.0804         5.3559         5.3559        26.8117         0.6552         6.8057         6.8057         6.2220         6.0186      4170.4082
    3521.65920         2.6509      -0.007870       358.3940       113.1121         0.2248         5.3434         5.3434        26.9646         0.6390         6.8020         6.8020         6.2219         6.0186      4194.0073
    3521.81160         2.6538      -0.008187       358.3940       112.2531         0.1147         5.2251         5.2251        27.1749         0.7077         6.8286         6.8286         6.2219         6.0186      4086.5269
    3521.96400         2.6360      -0.007783       358.3940       112.6496         0.1876         5.1626         5.1626        27.2076         0.7511         6.8907         6.8907         6.2223         6.0190      4225.9897
    3522.11640         2.6325      -0.008498       358.3940       113.1197         0.1297         5.1669         5.1669        27.0983         0.7213         6.9158         6.9158         6.2219         6.0188      4224.7192
    3522.26880         2.6377      -0.008795       358.3940       113.1305         0.1375         5.2841         5.2841        27.3569         0.6726         6.9615         6.9615         6.2231         6.0189      4212.1338
    3522.42120         2.6527      -0.008887       358.3940       113.1914         0.1541         5.1643         5.1643        27.6266         0.6704         6.9643         6.9643         6.2235         6.0189      4116.0933
    3522.57360         2.6510      -0.008232       358.3940       112.9765         0.1868         5.1951         5.1951        27.6270         0.6294         6.9536         6.9536         6.2235         6.0186      4252.8906
    3522.72600         2.6565      -0.007677       356.9830       113.0066         0.1609         5.2832         5.2832        27.9808         0.7833         6.9810         6.9810         6.2237         6.0188      4178.7861
    3522.87840         2.6572      -0.007818       356.9830       111.9694         0.1159         5.2269         5.2269        27.6492         0.6884         6.9197         6.9197         6.2226         6.0187      4180.2646
    3523.03080         2.6318      -0.007698       356.9830       111.7797         0.1531         5.2848         5.2848        26.7808         0.7473         6.8985         6.8985         6.2228         6.0186      4154.0840
    3523.18320         2.6366      -0.007703       356.9830       111.5890         0.1521         5.2859         5.2859        26.3515         0.6993         6.8259         6.8259         6.2220         6.0186      4061.5884
    3523.33560         2.6300      -0.007827       356.9830       111.9287         0.1182         5.2276         5.2276        25.6160         0.7337         6.7821         6.7821         6.2221         6.0186      4005.2432
    3523.48800         2.6424      -0.008193       356.9830       115.5301        -0.0160         5.1208         5.1208        24.7919         0.7971         6.7985         6.7985         6.2220         6.0183      3887.7322
    3523.64040         2.8406      -0.008078       356.9830       116.2314         0.1370         5.2123         5.2123        24.4641         0.7674         6.7857         6.7857         6.2218         5.9939      4182.4722
    3523.79280         2.8973      -0.008795       358.3940       116.0364         0.0838         5.2648         5.2648        24.1103         0.8235         6.8116         6.8116         6.2157         6.0133      4242.8999
    3523.94520         2.8768      -0.008962       358.3940       115.8167         0.1142         5.0770         5.0770        23.5916         0.9511         6.8176         6.8176         6.2221         6.0482      4202.7500
    3524.09760         2.8700      -0.008765       358.3940       112.8546         0.2032         5.1197         5.1197        24.4829         0.7952         6.7952         6.7952         6.2221         6.0466      4209.3730
    3524.25000         2.6583      -0.008285       358.3940       112.9688         0.1503         4.9510         4.9510        25.1320         0.7415         6.7825         6.7825         6.2218         6.0027      4176.7954
    3524.40240         2.6625      -0.007708       358.3940       112.6233         0.1817         4.9647         4.9647        25.2198         0.7453         6.8037         6.8037         6.2219         5.9868      4178.9224
    3524.55480         2.6578      -0.007790       358.3940       112.8601         0.2091         4.9507         4.9507        25.6978         0.7050         6.7896         6.7896         6.2219         5.9873      4174.6807
    3524.70720         2.6601      -0.007845       358.3940       113.6912         0.0945         5.0601         5.0601        26.1892         0.7689         6.8235         6.8235         6.2262         6.0163      4045.4949
    3524.85960         2.6574      -0.007902       358.3940       112.7596         0.1396         5.1105         5.1105        25.7190         0.6740         6.8189         6.8189         6.2325         6.0510      4281.1060
    3525.01200         2.6363      -0.008775       358.3940       112.9992         0.1104         5.1196         5.1196        25.3672         0.7162         6.8110         6.8110         6.2330         6.0510      4220.1992
    3525.16440         2.6330      -0.008492       358.3940       112.9322         0.2288         5.1646         5.1646        26.2554         0.8031         6.8728         6.8728         6.2365         6.0511      4111.8330
    3525.31680         2.6418      -0.007792       358.3940       112.7677         0.1663         5.1616         5.1616        26.5731         0.7512         6.9565         6.9565         6.2452         6.0510      4211.2681
    3525.46920         2.6456      -0.007742       359.8050       112.5946         0.2487         5.2503         5.2503        26.8008         0.6192         6.9502         6.9502         6.2471         6.0514      4230.1079
    3525.62160         2.6393      -0.007817       359.8050       111.9979         0.1330         5.2344         5.2344        26.9383         0.7164         6.9582         6.9582         6.2476         6.0510      4135.2661
