~Version Information Block
VERS .                 2.00:  CWLS LOG ASCII STANDARD - VERSION 2.00
WRAP .                  YES:  Multiple lines per depth step
~Well Information Block
#MNEM.UNIT        Data Type   Information
#---------- ----------------  -----------
STRT .M          3437.38200:  START DEPTH
STOP .M          3636.11160:  STOP DEPTH
STEP .M             0.15240:  STEP
NULL .              -999.25:  NULL VALUE
COMP .                     :  COMPANY
WELL .          NO_15/9-F-5:  WELL
FLD  .                     :  FIELD
LOC  .                     :  LOCATION
CTRY .                     :  COUNTRY
STAT .                     :  STATE
CNTY .                     :  COUNTY
SRVC .                     :  SERVICE COMPANY
DATE .                     :  DATE
API  .                     :  API NUMBER
UWI  .                     :  UNIQUE WELL ID
~Curve Information Block
#MNEM.UNIT         API CODE   Curve Description
#---------- ----------------  -----------------
DEPTH.M                    :  
BSAL .PPM                  :  (RST-D)                 (6in)                   Borehole Salinity Depths
CCLC .V                    :  (PSTP-B)                (1in)                   CCL Computed Amplitude D
CIRF .                     :  (RST-D)                 (6in)                   Capture to Inelastic Rat
CIRN .                     :  (RST-D)                 (6in)                   Capture to Inelastic Rat
CVEL .M/SEC                 :  (WLWorkflow)            (1in)                   Cable Velocity Depthshif
DSIG .CU                   :  (RST-D)                 (6in)                   Sigma Difference Depthsh
DSIG21.                     :  SIGM_1 -RSTD_0912_OW.SAT201SI_SIGR_1
FBEF .UA                   :  (RST-D)                 (6in)                   Far Effective Beam Curre
GR   .GAPI                 :  (PSTP-B)                (6in)                   Gamma Ray Depthshifted
IRAT .                     :  (RST-D)                 (6in)                   Inelastic Ratio Depthshi
RB_PCMS.DEG                  :  (PCMS-A)                (6in)                   Relative Bearing Depthsh
RSCF .                     :  (RST-D)                 (6in)                   Far Detector Effective U
RSCN .                     :  (RST-D)                 (6in)                   Near Detector Effective
SFFA .CU                   :  (RST-D)                 (6in)                   Sigma Formation Far Appa
SIBF .CU                   :  (RST-D)                 (6in)                   Sigma Borehole Fluid Dep
SIGM .CU                   :  (RST-D)                 (6in)                   Formation Sigma (Neutron
TENS .LBF                  :  (WLWorkflow)            (1in)                   Cable Tension Depthshift
TPHI .V/V                  :  (RST-D)                 (6in)                   Thermal Decay Porosity D
WPRE .BAR                  :  (PSTP-B)                (6in)                   Well Pressure Depthshift
WTEP .DEGC                 :  (PSTP-B)                (6in)                   Well Temperature Depthsh
~Parameter Information Block
#MNEM.UNIT            Value   Description
#---------- ----------------  -----------
PROJECT.     SLEIPNER_OST@st-vlinapp01:  
SET  .     RSTD_1115_SIG1_DS:  
~Other Information Block
~Ascii Log Data
# ...
    3591.91560 
    41914.2148        -0.0008         1.9647       0.630557     -0.0768823 
        2.1899         0.8515       105.4511        43.4287       0.315355 
      353.7575         6.1979         6.0531        20.6398        36.8485 
       18.7429      3985.1331       0.215781       368.2163        72.0620
    3592.06800 
    41638.6250        -0.0507         2.0343       0.626341     -0.0772288 
        2.3295         0.4861       107.1994        43.3282       0.317592 
      353.7520         6.3863         6.1428        20.3532        36.7494 
       18.2700      3995.8340       0.192473       368.2217        72.0448
    3592.22040 
    41452.9922        -0.0219         2.0984       0.612835     -0.0772853 
        2.3691         0.0479       108.1722        41.1879       0.320030 
      353.6909         6.5013         5.8758        19.3462        36.6826 
       17.6936      4003.9111       0.170936       368.2452        72.0141
    3592.37280 
    41749.1641         0.0005         2.0737       0.599902     -0.0769472 
        2.3582         0.0155       101.9686        39.7090       0.324083 
      353.4103         6.8693         5.9206        18.8401        36.7891 
       17.2480      3982.1545       0.150435       368.2440        72.0035
    3592.52520 
    42165.1484        -0.0758         2.1014       0.587586     -0.0779890 
        2.3629         0.2561        99.4117        37.9107       0.329660 
      353.2204         7.1889         5.9830        18.9896        36.9387 
       17.0677      4022.6843       0.130128       368.2582        71.9908
    3592.67760 
    42204.9766         0.0027         2.1275       0.585740     -0.0771479 
        2.2601         0.6508        96.3915        36.0313       0.336890 
      352.9626         7.6472         6.1287        18.8703        36.9530 
       16.8873      4026.0811       0.115661       368.2714        71.9834
    3592.83000 
    42112.4297         0.0141         2.0626       0.579614     -0.0771556 
        2.0855         0.8867        92.3344        33.5177       0.349432 
      352.7068         7.9696         6.2402        18.3979        36.9198 
       16.5582      4023.0381       0.109201       368.2699        71.9841
    3592.98240 
    42139.4844         0.0754         1.9263       0.576090     -0.0766414 
        1.8115         0.8742        88.7769        32.1544       0.358508 
      352.6331         7.8204         6.2972        18.0919        36.9295 
       15.9277      4021.3560       0.111419       368.2889        71.9447
    3593.13480 
    42062.8047         0.0420         1.9216       0.573105     -0.0765299 
        1.4666         0.5679        89.6012        30.4198       0.361789 
      352.6758         7.6239         6.2312        17.0813        36.9019 
       15.1555      3984.1995       0.116834       368.2959        71.9097
    3593.28720 
    42028.4531        -0.0338         1.9353       0.567530     -0.0768723 
        1.1421        -0.0039        89.6521        30.1510       0.359140 
      352.7769         7.6098         6.1955        16.1374        36.8895 
       14.2703      4007.7908       0.124107       368.3024        71.8955
    3593.43960 
    42038.3750         0.0461         1.9783       0.577101     -0.0769682 
        0.8345        -0.2568        89.6889        29.1755       0.354542 
      352.8126         7.9829         6.4143        15.4758        36.8931 
       13.8433      4011.1943       0.128937       368.3196        71.8809
    3593.59200 
    41783.4648         0.0439         2.0275       0.589870     -0.0771218 
        0.5908        -0.2902        93.5146        27.8188       0.349094 
      352.8802         7.9482         6.5273        15.8382        36.8014 
       14.0132      3991.8538       0.131496       368.3222        71.8590
    3593.74440 
    41923.9375         0.0217         2.0780       0.594070     -0.0764745 
        0.3567        -0.1136        95.7723        27.7741       0.341444 
      353.0225         7.9541         6.6662        16.7087        36.8520 
       14.5656      3994.7146       0.132535       368.3356        71.8244
    3593.89680 
    42421.1914         0.0127         2.1168       0.590375     -0.0765266 
        0.1653        -0.0453        96.2712        29.2031       0.336674 
      353.1699         7.9581         6.6050        17.2305        37.0309 
       15.0986      4022.9495       0.134729       368.3462        71.7998
    3594.04920 
    42954.0156        -0.0412         2.1069       0.603743     -0.0768965 
        0.0081        -0.0071        97.0803        29.3038       0.333826 
      353.2146         7.7491         6.5929        17.4828        37.2227 
       15.4500      4042.6763       0.140432       368.3517        71.7872
    3594.20160 
    43302.9180         0.0196         2.1074       0.608171     -0.0767689 
       -0.1092        -0.0206        99.1609        29.2955       0.331115 
      353.1982         7.5578         6.4804        17.7505        37.3483 
       15.6889      4043.7502       0.149065       368.3666        71.7739
    3594.35400 
    43559.8164         0.0539         2.1119       0.605012     -0.0769811 
       -0.1290        -0.2650        99.2718        31.1962       0.327951 
      353.2772         7.5290         6.3364        17.8851        37.4409 
       15.8368      4034.1853       0.161930       368.3718        71.7727
    3594.50640 
    44012.3789        -0.0222         2.0683       0.610134     -0.0765666 
       -0.0523        -0.2434       102.1616        33.4280       0.325965 
      353.3265         7.1467         6.3706        17.8134        37.6040 
       16.1418      4054.6790       0.177377       368.3832        71.7420
    3594.65880 
    44467.4570        -0.0303         1.9732       0.610109     -0.0767170 
        0.1619        -0.0484       105.2214        35.2034       0.325092 
      353.2612         6.4914         6.2116        18.4989        37.7681 
       16.6402      4078.7883       0.191587       368.3947        71.7000
    3594.81120 
    44816.9492        -0.0206         1.9393       0.611328     -0.0771019 
        0.4630         0.2959       104.2090        36.0991       0.324484 
      353.1676         6.3888         6.1395        19.2647        37.8943 
       17.1263      4055.4927       0.200002       368.3996        71.6805
    3594.96360 
    45275.2656         0.0004         1.9617       0.609470     -0.0773106 
        0.7721         0.4437       102.9073        36.7090       0.324935 
      353.0894         6.6265         6.2460        19.1892        38.0597 
       17.1523      4054.4045       0.201549       368.4159        71.6462
    3595.11600 
    45640.8984         0.0242         1.9645       0.606664     -0.0776493 
        1.0648         0.1809       102.3713        36.9314       0.326072 
      353.0097         6.7524         6.3455        18.4848        38.1918 
       16.7189      4044.1331       0.197165       368.4234        71.6190
    3595.26840 
    45671.1289        -0.0124         2.0387       0.621515     -0.0767888 
        1.2998         0.2245       103.4500        35.4385       0.326980 
      352.8789         6.8661         6.3742        17.8701        38.2027 
       16.3574      4016.0952       0.185593       368.4302        71.5993
    3595.42080 
    45581.9570        -0.0083         2.1604       0.632083     -0.0767536 
        1.4543         0.3575       102.5880        33.2145       0.329369 
      352.8210         7.1535         6.2755        18.0309        38.1705 
       16.0575      4034.5442       0.170111       368.4467        71.5624
    3595.57320 
    45779.0859         0.0088         2.1768       0.620764     -0.0770770 
        1.4755         0.3135        98.1509        31.3634       0.333995 
      352.8519         7.5537         6.2783        17.5794        38.2417 
       15.5281      4022.2747       0.158277       368.4502        71.5417
    3595.72560 
    46164.3672         0.0057         2.1240       0.611115     -0.0769099 
        1.4221        -0.1366        95.0442        29.5999       0.337507 
      352.8203         7.8579         6.4693        16.2599        38.3809 
       14.7873      4029.4690       0.155944       368.4602        71.5150
