~Version Information Block
VERS .                 2.00:  CWLS LOG ASCII STANDARD - VERSION 2.00
WRAP .                   NO:  One line per depth step
~Well Information Block
#MNEM.UNIT        Data Type   Information
#---------- ----------------  -----------
STRT .M          3439.51560:  START DEPTH
STOP .M          3642.36000:  STOP DEPTH
STEP .M             0.15240:  STEP
NULL .              -999.25:  NULL VALUE
COMP .              Statoil:  COMPANY
WELL .          NO_15/9-F-5:  WELL
FLD  .                VOLVE:  FIELD
LOC  .            North Sea:  LOCATION
CTRY .                     :  COUNTRY
STAT .                     :  STATE
CNTY .                     :  COUNTY
SRVC .         Schlumberger:  SERVICE COMPANY
DATE .          16-Sep-2012:  DATE
API  .                     :  API NUMBER
UWI  .             15/9-F-5:  UNIQUE WELL ID
~Curve Information Block
#MNEM.UNIT         API CODE   Curve Description
#---------- ----------------  -----------------
DEPTH.M                    :  DEPTH (BOREHOLE)
BSAL .PPM                  :  Borehole Salinity
CCLC .V                    :  CCL
CIRF .                     :  RST Capture to Inelastic Ratio Far
CIRN .                     :  RST Capture to Inelastic Ratio Near
CVEL .M/MIN                 :  Cable Velocity
DSIG .CU                   :  Sigma Difference
FBEF .UA                   :  RST Far Effective Beam Current
GR   .GAPI                 :  Gamma Ray
IRAT .                     :  RST Inelastic Ratio
RSCF .                     :  RST Far Detector Effective Unregulated Capture Count Rate
RSCN .                     :  RST Near Detector Effective Unregulated Capture Count Rate
SFFA .CU                   :  RST Sigma Formation Far Apparent
SIBF .CU                   :  RST Sigma Borehole Fluid
SIGM .CU                   :  Formation Sigma (Neutron Capture Cross Section)
TENS .LBF                  :  Cable Tension
TPHI .V/V                  :  Thermal Decay Porosity
~Parameter Information Block
#MNEM.UNIT            Value   Description
#---------- ----------------  -----------
APD  .M           54.900002:  Elevation of Depth Reference (LMF) above Permanent Datum
BHS  .                 CASE:  Borehole Status (Open or Cased Hole)
BS   .IN                8.5:  Bit Size
BSAL .PPM       34972.17188:  Borehole Salinity
BSALOPT.              UNKNOWN:  Borehole Salinity Option
CSID .IN              6.184:  Casing Inner Diameter
CSIZ .IN                  7:  Current Casing Size
CWEI .LB/F               29:  Casing Weight
MATR .                 SAND:  Rock Matrix for Neutron Porosity Corrections
RUN  .                Run 1:  RUN NUMBER
PROJECT.     SLEIPNER_OST@st-vlinapp01:  
SET  .       RSTD_0912_SIG1:  
~Other Information Block
# 
~A       DEPTH           BSAL           CCLC           CIRF           CIRN           CVEL           DSIG           FBEF             GR           IRAT           RSCF           RSCN           SFFA           SIBF           SIGM           TENS           TPHI 
# ...
    3556.55880     28288.6992         0.0486         2.1997     0.74620003       -4.41860        -0.4447        75.1989        23.7578     0.33140001        10.1455         9.5639        17.6205        31.9879        15.9260      2652.5161     0.20610000
    3556.71120     28765.8008         0.1647         2.2905     0.74779999       -4.42460        -0.4083        79.1409        24.8373     0.32570001         9.9097         9.7220        17.4568        32.1568        15.7981      2637.8389     0.20090000
    3556.86360     29069.5996         0.2751         2.4122     0.72899997       -4.43810        -0.4067        81.8525        24.8295     0.32210001        10.4557        10.1957        17.7046        32.2643        15.5968      2640.2581     0.19490001
    3557.01600     28808.0000         0.0516         2.3605     0.74570000       -4.43200        -0.2873        79.0436        24.8295     0.32030001        10.5024         9.8277        17.0144        32.1717        15.6335      2647.6453     0.19050001
    3557.16840     27761.2988        -0.0605         2.3234     0.74049997       -4.44650        -0.3531        80.4699        24.4143     0.32530001        10.2902        10.0560        17.5735        31.8014        15.5442      2637.4839     0.19040000
    3557.32080     26959.5996         0.0143         2.2794     0.72100002       -4.43570        -0.3130        80.3647        23.9161     0.32400000        10.0308         9.6502        17.4490        31.5181        15.8973      2632.5808     0.18680000
    3557.47320     26476.5000         0.0039         2.2277     0.70440000       -4.42200        -0.4229        79.1522        23.6618     0.32350001         9.8166         9.4712        18.0844        31.3475        15.8553      2631.5486     0.18950000
    3557.62560     26984.5996         0.2068         2.2163     0.70190001       -4.43710        -0.5197        79.2090        24.8243     0.32030001         9.5968         9.1677        17.4519        31.5269        15.6307      2652.8066     0.19159999
    3557.77800     26257.2012         0.4801         2.2325     0.70389998       -4.42210        -0.4416        79.1496        25.3226     0.32339999        10.0297         9.5580        16.7713        31.2701        15.2039      2641.2903     0.19670001
    3557.93040     26552.6016        -0.2310         2.3218     0.76779997       -4.43000        -0.3636        79.3745        28.3952     0.32560000        10.1391         9.8668        16.8041        31.3744        15.0152      2639.2581     0.20070000
    3558.08280     27168.0000        -0.1289         2.3504     0.76410002       -4.41070        -0.2400        82.7635        29.8069     0.32870001         9.7792         9.9429        16.8836        31.5917        15.1779      2648.0000     0.20440000
    3558.23520     28036.1992        -0.4156         2.3273     0.76550001       -4.41970        -0.1002        78.0669        30.1442     0.32470000        10.0530         9.6814        17.2596        31.8986        15.6162      2641.4194     0.20510000
    3558.38760     28025.8008        -0.1238         2.2668     0.72740000       -4.42130        -0.0468        78.5756        30.2273     0.32310000        10.4312        10.3458        18.1198        31.8949        15.9491      2642.0645     0.20479999
    3558.54000     27940.3984         0.6329         2.2270     0.71399999       -4.41840        -0.1287        80.8415        29.5629     0.31999999         9.7101         9.5819        17.8917        31.8647        16.1125      2645.2903     0.20000000
    3558.69240     27128.2988        -0.1589         2.1650     0.70330000       -4.44560        -0.2057        80.1798        28.0682     0.31959999         9.6417         9.5323        17.7537        31.5777        15.9875      2631.0969     0.19610000
    3558.84480     27131.0000        -0.2354         2.2658     0.68839997       -4.45050        -0.0846        81.4426        27.2378     0.32010001         9.7350         9.1571        17.7495        31.5787        15.6830      2645.7742     0.19110000
    3558.99720     27508.4004        -0.0233         2.2829     0.71700001       -4.43220         0.0692        77.7417        25.9091     0.32359999        10.2208         9.7049        16.9809        31.7120        15.1437      2646.4839     0.19040000
    3559.14960     27817.9004        -0.0939         2.3320     0.76220000       -4.43260         0.1880        77.9464        23.0026     0.32620001        10.6409        10.5174        16.1387        31.8214        14.6769      2642.9001     0.18780001
    3559.30200     28293.1992        -0.0089         2.5531     0.78210002       -4.41190         0.2908        80.6271        21.6220     0.32820001        11.0589        10.2999        16.3558        31.9895        14.1865      2644.0967     0.18719999
    3559.45440     28283.5996        -0.3805         2.5675     0.77880001       -4.42550         0.2216        79.6811        21.1238     0.32499999        11.1712        10.0956        15.5270        31.9861        14.1049      2656.7744     0.18880001
    3559.60680     28499.3984        -0.3912         2.4633     0.78070003       -4.43660         0.0719        81.1389        19.7951     0.32510000        10.3373         9.9531        15.9040        32.0625        13.9866      2651.9678     0.19580001
    3559.75920     29054.5000         0.0752         2.3020     0.75070000       -4.42910        -0.0459        81.9258        19.7121     0.32269999         9.4522         9.6830        16.0066        32.2590        14.0671      2653.6775     0.20090000
    3559.91160     29145.0000        -0.1853         2.5484     0.77640003       -4.41110        -0.1493        82.5137        19.9612     0.32319999        10.4111         9.6346        15.7718        32.2910        14.0046      2637.9678     0.20350000
    3560.06400     29541.5996         0.2162         2.5003     0.79460001       -4.39550        -0.2594        81.7706        18.9336     0.32249999        10.6660        10.4036        15.7209        32.4315        14.0614      2642.5806     0.20290001
    3560.21640     29368.7988         0.2093         2.5451     0.81220001       -4.41410        -0.2779        82.1806        18.6014     0.32300001        10.7396        10.4740        16.1782        32.3703        14.2626      2644.0625     0.19800000
    3560.36880     29138.0000        -0.0742         2.5523     0.78399998       -4.43650        -0.2803        83.5050        18.6014     0.32200000        10.5296        10.3711        16.3817        32.2885        14.5002      2632.8711     0.19050001
    3560.52120     29182.9004        -0.0471         2.5471     0.76660001       -4.42570        -0.3176        80.2043        17.7710     0.32339999        10.8956        10.2086        16.4399        32.3044        14.3020      2637.5000     0.18380000
    3560.67360     28820.2988        -0.1496         2.5265     0.78549999       -4.40970        -0.3910        81.6376        18.2692     0.32390001        10.5999        10.1824        15.5900        32.1761        13.9723      2647.3438     0.17890000
    3560.82600     29079.7988        -0.0686         2.6532     0.79430002       -4.40940        -0.4349        81.3931        18.6844     0.32530001        11.3325        10.5702        15.4008        32.2679        13.4853      2635.3550     0.17680000
    3560.97840     28917.6992         0.0537         2.6728     0.78750002       -4.39750        -0.2805        81.1008        16.4423     0.32460001        11.1559        10.1411        14.9858        32.2105        13.1159      2640.0967     0.17670000
    3561.13080     29124.0996         0.0105         2.6157     0.79659998       -4.40700        -0.1363        78.6827        15.8610     0.32490000        11.2699        10.5394        14.4905        32.2836        12.9940      2643.8066     0.17910001
    3561.28320     30092.5000        -0.1539         2.6179     0.79070002       -4.44430        -0.0400        78.1091        15.3628     0.32400000        11.4834        10.3016        15.0380        32.6268        12.9526      2647.7742     0.18330000
