~Version Information Block
VERS .                 2.00:  CWLS LOG ASCII STANDARD - VERSION 2.00
WRAP .                   NO:  One line per depth step
~Well Information Block
#MNEM.UNIT        Data Type   Information
#---------- ----------------  -----------
STRT .M          3445.30680:  START DEPTH
STOP .M          3635.80680:  STOP DEPTH
STEP .M             0.15240:  STEP
NULL .              -999.25:  NULL VALUE
COMP .              Statoil:  COMPANY
WELL .          NO_15/9-F-5:  WELL
FLD  .                VOLVE:  FIELD
LOC  .            North Sea:  LOCATION
CTRY .                     :  COUNTRY
STAT .                     :  STATE
CNTY .                     :  COUNTY
SRVC .         Schlumberger:  SERVICE COMPANY
DATE .          16-Sep-2012:  DATE
API  .                     :  API NUMBER
UWI  .             15/9-F-5:  UNIQUE WELL ID
~Curve Information Block
#MNEM.UNIT         API CODE   Curve Description
#---------- ----------------  -----------------
DEPTH.M                    :  DEPTH (BOREHOLE)
CCLC .V                    :  CCL
CCLD .V                    :  CCL Discriminated Amplitude
CRRA .                     :  Near-Far Count Rate Ratio
CS   .F/MN                 :  Cable Speed
CVEL .M/MIN                 :  Cable Velocity
DEVI .DEG                  :  Hole Deviation
FBEF .UA                   :  RST Far Effective Beam Current
FCOR .                     :  RST Far Carbon/Oxygen Ratio
FERD .                     :  RST Far IC Mode Capture Optimization Resolution Degradation Factor
FIRD .                     :  RST Far Inelastic Optimization Resolution Degradation Factor
GR   .GAPI                 :  Gamma Ray
NCOR .                     :  RST Near Carbon/Oxygen Ratio
NERD .                     :  RST Near IC Mode Capture Optimization Resolution Degradation Factor
NIRD .                     :  RST Near Inelastic Optimization Resolution Degradation Factor
RB_PCMS.DEG                  :  Relative Bearing
TENS .LBF                  :  Cable Tension
WPRE .PSI                  :  Well Pressure
WTEP .DEGC                 :  Well Temperature
~Parameter Information Block
#MNEM.UNIT            Value   Description
#---------- ----------------  -----------
APD  .M           54.900002:  Elevation of Depth Reference (LMF) above Permanent Datum
RUN  .                Run 1:  RUN NUMBER
PROJECT.     SLEIPNER_OST@st-vlinapp01:  
SET  .        RSTD_0912_IC1:  
~Other Information Block
# 
~A       DEPTH           CCLC           CCLD           CRRA             CS           CVEL           DEVI           FBEF           FCOR           FERD           FIRD             GR           NCOR           NERD           NIRD        RB_PCMS           TENS           WPRE           WTEP 
# ...
    3458.56560         0.0076         0.0000         3.3008         1.5892      -0.215600        46.2821       122.7583    -0.08480000         6.0238         6.0238        44.4615       0.034400         2.7301         2.7301         8.6522      2686.2061      4995.8462        95.8221
    3458.71800        -0.0058         0.0000         3.2487         1.5892      -0.215600        46.3055       122.5256     0.10470000         6.0169         6.0169        46.4645       0.016100         2.7271         2.7271         8.7153      2686.2061      4995.9868        95.8154
    3458.87040        -0.0103         0.0000         3.1979         1.5892      -0.215600        46.3237       124.3467     0.08670000         5.9187         5.9187        49.7637       0.033000         2.7480         2.7480         8.9079      2686.2061      4996.1484        95.8031
    3459.02280        -0.0062         0.0000         3.2020         1.5892      -0.215600        46.3177       127.2951    -0.01940000         5.9243         5.9243        54.0764       0.047600         2.7379         2.7379         8.9998      2686.2061      4996.3042        95.7890
    3459.17520        -0.0128         0.0000         3.2598         1.5892      -0.215600        46.3262       127.9070     0.16040000         6.1634         6.1634        56.3573       0.054700         2.7180         2.7180         8.9641      2686.2061      4996.5029        95.7809
    3459.32760         0.0901         0.0000         3.2764         1.5892      -0.215600        46.3458       128.1582     0.16599999         6.2213         6.2213        56.0310       0.046900         2.8033         2.8033         8.8864      2686.2061      4996.6440        95.7741
    3459.48000         0.0273         0.0000         3.3040         1.5892      -0.215600        46.3226       128.4687     0.13110000         6.2047         6.2047        51.9159       0.048600         2.8206         2.8206         8.5590      2686.2061      4996.7603        95.7710
    3459.63240        -0.0075         0.0000         3.3751         1.5892      -0.215600        46.3332       129.5319     0.17690000         6.0664         6.0664        47.5888       0.107200         2.8577         2.8577         8.6838      2686.2061      4996.9048        95.7600
    3459.78480        -0.0096         0.0000         3.4480         1.5892      -0.215600        46.3503       129.4188     0.18430001         6.2354         6.2354        43.1198       0.030000         2.8035         2.8035         8.7104      2686.2061      4997.0645        95.7544
    3459.93720         0.0240         0.0000         3.4051         1.5892      -0.215600        46.3638       128.4004     0.16880000         5.9718         5.9718        37.8545       0.087400         2.7684         2.7684         8.6498      2686.2061      4997.2119        95.7483
    3460.08960         0.0388         0.0000         3.4014         1.5892      -0.215600        46.3742       128.9923     0.00750000         5.8981         5.8981        33.6676      -0.006500         2.8374         2.8374         8.6142      2686.2061      4997.3726        95.7425
    3460.24200        -0.0590         0.0000         3.4587         1.5892      -0.215600        46.3880       128.6508     0.07450000         5.8473         5.8473        31.9970       0.075100         2.8458         2.8458         8.5116      2686.2061      4997.5127        95.7391
    3460.39440        -0.0112         0.0000         3.4363         1.5892      -0.215600        46.3612       128.1107    -0.00180000         5.9264         5.9264        30.8160       0.063600         2.7861         2.7861         8.6805      2686.2061      4997.6797        95.7388
    3460.54680        -0.0345         0.0000         3.4447         1.5892      -0.215600        46.3884       127.9805     0.08230000         5.9044         5.9044        29.5919       0.114200         2.8138         2.8138         8.6179      2686.2061      4997.8208        95.7406
    3460.69920        -0.0082         0.0000         3.4023         1.5892      -0.215600        46.4013       128.2094     0.20160000         6.0707         6.0707        29.7872       0.042800         2.8253         2.8253         8.5858      2686.2061      4997.9976        95.7408
    3460.85160        -0.0080         0.0000         3.4170         1.5892      -0.215600        46.4218       129.5620     0.08100000         6.2391         6.2391        31.4634       0.035300         2.8164         2.8164         8.4988      2686.2061      4998.1313        95.7401
    3461.00400         0.1445         0.0000         3.4142         1.5892      -0.215600        46.4473       128.7135     0.12780000         6.2139         6.2139        32.0227      -0.011900         2.8238         2.8238         8.5296      2686.2061      4998.2583        95.7420
    3461.15640        -0.0106         0.0000         3.4205         1.5892      -0.215600        46.4429       127.2069     0.09350000         6.2268         6.2268        32.5403       0.076700         2.8387         2.8387         8.3414      2686.2061      4998.4326        95.7443
    3461.30880        -0.0106         0.0000         3.3808         1.5846      -0.215600        46.4698       125.9417     0.13500001         6.1921         6.1921        32.3385       0.037800         2.8734         2.8734         8.0076      2686.2061      4998.5508        95.7491
    3461.46120         0.0195         0.0000         3.3395         1.5620      -0.481200        46.4911       122.8941     0.06150000         6.3109         6.3109        33.0747       0.109700         2.8710         2.8710         7.9459      2749.9299      4998.7197        95.7525
    3461.61360        -0.0083         0.0000         3.2502         1.5879      -0.483200        46.4872       120.3280     0.07990000         6.2267         6.2267        32.9353       0.036000         2.9607         2.9607         7.9064      2745.1309      4998.8359        95.7567
    3461.76600        -0.0087         0.0000         3.1587         1.5955      -0.484800        46.5050       116.6502     0.07430000         6.4005         6.4005        33.8754       0.038000         2.9542         2.9542         8.0767      2738.2227      4998.9878        95.7565
    3461.91840        -0.0099         0.0000         3.0842         1.5951      -0.483700        46.5194       113.5230     0.09010000         6.2710         6.2710        33.7266       0.058300         2.9606         2.9606         8.1453      2745.2827      4999.1377        95.7593
    3462.07080        -0.0078         0.0000         2.9940         1.5741      -0.483100        46.5294       116.3530    -0.06870000         6.4277         6.4277        33.5257       0.059200         2.9643         2.9643         8.2005      2728.7930      4999.3105        95.7618
    3462.22320        -0.0221         0.0000         3.1052         1.5620      -0.480600        46.5410       118.0414     0.04150000         6.5223         6.5223        33.6838       0.024500         2.9695         2.9695         8.1965      2745.5754      4999.4463        95.7639
    3462.37560         0.0331         0.0000         3.1592         1.5906      -0.483200        46.5704       118.6221     0.04130000         6.2989         6.2989        32.8530       0.083900         3.0016         3.0016         8.1498      2745.0811      4999.6030        95.7652
    3462.52800        -0.0038         0.0000         3.1636         1.5902      -0.484300        46.5612       118.0622    -0.13390000         6.3103         6.3103        31.8780       0.077100         3.0011         3.0011         8.3030      2748.6006      4999.7417        95.7693
    3462.68040        -0.0110         0.0000         3.1131         1.6056      -0.486900        46.5840       118.1650    -0.00730000         6.2244         6.2244        31.5440      -0.100900         3.0061         3.0061         8.2488      2741.2385      4999.8882        95.7750
    3462.83280         0.0457         0.0000         3.1147         1.5689      -0.480800        46.6080       118.4334     0.12840000         6.3285         6.3285        31.2665      -0.028600         3.0077         3.0077         8.0345      2757.2236      5000.0371        95.7765
