~Version Information Block
VERS .                 2.00:  CWLS LOG ASCII STANDARD - VERSION 2.00
WRAP .                   NO:  One line per depth step
~Well Information Block
#MNEM.UNIT        Data Type   Information
#---------- ----------------  -----------
STRT .M          3454.60320:  START DEPTH
STOP .M          3792.47400:  STOP DEPTH
STEP .M             0.15240:  STEP
NULL .              -999.25:  NULL VALUE
COMP .              Statoil:  COMPANY
WELL .        NO_15/9-F-1_C:  WELL
FLD  .                Volve:  FIELD
LOC  .            North Sea:  LOCATION
CTRY .               Norway:  COUNTRY
STAT .                     :  STATE
CNTY .                     :  COUNTY
SRVC .         Schlumberger:  SERVICE COMPANY
DATE .          27-Nov-2014:  DATE
API  .                     :  API NUMBER
UWI  .           15/9-F-1 C:  UNIQUE WELL ID
LATI .     58° 26' 29.91" N:  LATITUDE
LONG .      1° 53' 14.71" E:  LONGITUDE
~Curve Information Block
#MNEM.UNIT         API CODE   Curve Description
#---------- ----------------  -----------------
DEPTH.M                    :  DEPTH (BOREHOLE)
CVEL .M/SEC                 :  Cable Velocity
DFRB .DEG                  :  Calibrated Relative Bearing
FBEF .UA                   :  RST Far Effective Beam Current
FCOR .                     :  RST Far Carbon/Oxygen Ratio
FERD .                     :  RST Far IC Mode Capture Optimization
FIRD .                     :  RST Far Inelastic Optimization Resolution
GR   .GAPI                 :  Gamma Ray
NCOR .                     :  RST Near Carbon/Oxygen Ratio
NERD .                     :  RST Near IC Mode Capture Optimization
NIRD .                     :  RST Near Inelastic Optimization Resolution
PFC1 .IN                   :  PFCS CaliperX
PFC2 .IN                   :  PFCS CaliperY
TENS .LBF                  :  Cable Tension
~Parameter Information Block
#MNEM.UNIT            Value   Description
#---------- ----------------  -----------
APD  .M           54.900002:  Elevation of Depth Reference (LMF) above Permanent Datum
EPD  .C3                  0:  Elevation of Permanent Datum above Mean Sea Level
LMF  .                   KB:  Logging Measured From (Name of Logging Elevation Reference)
PDAT .                  MSL:  Permanent Datum
RUN  .                Run 1:  RUN NUMBER
TAPE_NAME.     ConCu_R1L19Up_S012_PFCS_PILS_DEFT_RST_PCMS_PSTP.las:  
TOOL_STRING.              UNKNOWN:  
WN   .           15/9-F-1 C:  WELL
PROJECT.     SLEIPNER_OST@st-vlinapp01:  
SET  .        RSTD_1114_IC3:  
~Other Information Block
# 
~A       DEPTH           CVEL           DFRB           FBEF           FCOR           FERD           FIRD             GR           NCOR           NERD           NIRD           PFC1           PFC2           TENS 
# ...
    3519.98280      -0.007792       358.3940       112.5200         0.0694         4.9691         4.9691        37.6440         0.7734         6.9679         6.9679         6.2219         6.0185      4017.2019
    3520.13520      -0.007153       359.8050       113.3145         0.2503         4.9071         4.9071        39.5023         0.6564         6.9703         6.9703         6.2219         6.0186      4383.5000
    3520.28760      -0.007287       359.8050       114.2067         0.2292         4.8954         4.8954        41.8222         0.8558         6.9810         6.9810         6.2219         6.0186      4326.5654
    3520.44000      -0.007465       359.8050       114.9044         0.2158         4.9181         4.9181        44.2527         0.8125         6.9561         6.9561         6.2219         6.0186      4233.0522
    3520.59240      -0.007445       359.8050       113.8670         0.1776         4.8512         4.8512        44.4355         0.7928         6.9292         6.9292         6.2219         6.0186      4183.7178
    3520.74480      -0.007600       359.8050       112.9566         0.2043         4.8623         4.8623        44.0062         0.7387         6.9590         6.9590         6.2219         6.0186      4105.9966
    3520.89720      -0.007738       359.8050       113.6481         0.0347         4.9076         4.9076        45.1286         0.7115         6.9449         6.9449         6.2219         6.0186      4016.3220
    3521.04960      -0.007712       359.8050       113.5026         0.2909         4.8618         4.8618        47.0835         0.7935         6.8958         6.8958         6.2219         6.0186      4106.1782
    3521.20200      -0.007277       358.3940       113.2231         0.1738         4.8282         4.8282        48.6195         0.8479         6.9606         6.9606         6.2219         6.0186      4341.8418
    3521.35440      -0.007430       358.3940       113.7522         0.0815         4.8965         4.8965        51.9478         0.8253         6.9788         6.9788         6.2218         6.0157      4267.2612
    3521.50680      -0.007472       358.3940       112.8771         0.1994         4.8793         4.8793        55.0483         0.7123         6.9484         6.9484         6.2219         6.0151      4211.7324
    3521.65920      -0.007585       358.3940       113.2229         0.0038         4.9368         4.9368        55.3579         0.6518         6.9372         6.9372         6.2219         6.0161      4121.6846
    3521.81160      -0.007778       358.3940       113.6364         0.1202         4.9822         4.9822        53.9432         0.6656         6.9166         6.9166         6.2219         6.0157      4046.7612
    3521.96400      -0.007327       358.3940       113.2006         0.1388         4.9642         4.9642        51.0560         0.6750         6.9230         6.9230         6.2219         6.0146      4318.6616
    3522.11640      -0.007188       358.3940       113.7478         0.1816         4.9936         4.9936        47.9623         0.6508         6.9162         6.9162         6.2219         6.0153      4321.0815
    3522.26880      -0.007215       358.3940       113.6938         0.1341         4.9162         4.9162        44.8747         0.8418         6.9182         6.9182         6.2218         6.0183      4336.2485
    3522.42120      -0.007420       358.3940       113.2358         0.0949         4.9264         4.9264        43.6788         0.7173         6.8934         6.8934         6.2219         6.0167      4246.9902
    3522.57360      -0.007428       358.3940       114.1608         0.1070         4.9347         4.9347        45.6355         0.7888         6.9309         6.9309         6.2170         6.0167      4177.3345
    3522.72600      -0.007523       358.3940       114.2293         0.1200         4.9799         4.9799        47.5564         0.7536         6.9185         6.9185         6.1939         6.0176      4099.2349
    3522.87840      -0.007290       358.3940       113.5169         0.3080         4.9470         4.9470        46.2052         0.7234         6.9272         6.9272         6.1955         6.0179      4314.9873
    3523.03080      -0.007472       359.8050       113.0288         0.1626         5.0307         5.0307        44.1135         0.7045         6.9454         6.9454         6.2220         6.0192      4279.4839
    3523.18320      -0.007597       359.8050       112.4420         0.1847         5.0268         5.0268        40.8149         0.6529         6.9332         6.9332         6.2219         6.0186      4223.6392
    3523.33560      -0.007643       359.8050       112.9844         0.1762         5.0422         5.0422        34.6054         0.7318         6.9460         6.9460         6.2219         6.0186      4135.7974
    3523.48800      -0.007738       359.8050       113.8901         0.1336         5.1483         5.1483        30.0217         0.6970         6.9717         6.9717         6.2219         6.0186      4131.3652
    3523.64040      -0.007472       358.3940       116.6626         0.1903         5.1237         5.1237        29.8415         0.8053         6.9654         6.9654         6.2163         6.0151      4257.3628
    3523.79280      -0.007493       358.3940       117.0225         0.2627         5.1893         5.1893        31.4192         0.9471         6.9487         6.9487         6.2219         6.0491      4224.4873
    3523.94520      -0.007527       358.3940       113.9303         0.2191         5.2282         5.2282        33.7334         1.8899         6.9806         6.9806         6.2213         6.0497      4305.0000
    3524.09760      -0.007322       358.3940       112.0255         0.1355         5.0581         5.0581        37.4996         0.8647         6.9521         6.9521         6.2219         6.0510      4312.1025
    3524.25000      -0.007477       358.3940       113.2266         0.0993         5.1476         5.1476        41.3202         0.7711         6.9343         6.9343         6.2190         6.0402      4294.5928
    3524.40240      -0.007372       358.3940       113.6485         0.1262         5.1244         5.1244        41.2702         0.6546         6.9346         6.9346         6.2145         5.9884      4342.4097
    3524.55480      -0.007332       358.3940       113.2781         0.1552         5.1137         5.1137        40.0198         0.7485         6.9401         6.9401         6.2206         5.9867      4266.1963
    3524.70720      -0.007485       358.3940       113.2264         0.1629         5.2075         5.2075        38.7354         0.7274         6.9214         6.9214         6.2219         6.0015      4327.4951
    3524.85960      -0.007387       358.3940       113.8763         0.1851         5.2778         5.2778        36.1003         0.6881         6.9953         6.9953         6.2221         6.0483      4265.7925
    3525.01200      -0.007385       358.3940       113.8753         0.1995         5.2878         5.2878        34.0401         0.6736         7.0175         7.0175         6.2221         6.0487      4298.2314
    3525.16440      -0.007428       358.3940       112.9163         0.3399         5.1914         5.1914        34.8287         0.6835         6.9330         6.9330         6.2222         6.0488      4310.8799
    3525.31680      -0.007387       358.3940       114.1768         0.2435         5.2841         5.2841        35.5326         0.7745         6.9209         6.9209         6.2222         6.0495      4269.8838
    3525.46920      -0.007448       358.3940       113.5678         0.2386         5.2932         5.2932        37.0336         0.6622         6.9254         6.9254         6.2222         6.0490      4309.1069
    3525.62160      -0.007622       358.3940       112.1819         0.2174         5.2715         5.2715        41.1290         0.7619         6.8929         6.8929         6.2222         6.0489      4248.5034
    3525.77400      -0.007763       358.3940       111.3523         0.0154         5.2464         5.2464        45.0013         0.8462         6.8958         6.8958         6.2228         6.0501      4142.8374
