~Version Information Block
VERS .                 2.00:  CWLS LOG ASCII STANDARD - VERSION 2.00
WRAP .                   NO:  One line per depth step
~Well Information Block
#MNEM.UNIT        Data Type   Information
#---------- ----------------  -----------
STRT .M          3199.94280:  START DEPTH
STOP .M          3410.40720:  STOP DEPTH
STEP .M             0.15240:  STEP
NULL .              -999.25:  NULL VALUE
COMP .              Statoil:  COMPANY
WELL .          NO_15/9-F-4:  WELL
FLD  .                VOLVE:  FIELD
LOC  .            North Sea:  LOCATION
CTRY .                     :  COUNTRY
STAT .                     :  STATE
CNTY .                     :  COUNTY
SRVC .         Schlumberger:  SERVICE COMPANY
DATE .          13-Sep-2012:  DATE
API  .                     :  API NUMBER
UWI  .             15/9-F-4:  UNIQUE WELL ID
~Curve Information Block
#MNEM.UNIT         API CODE   Curve Description
#---------- ----------------  -----------------
DEPTH.M                    :  DEPTH (BOREHOLE)
CCLC .V                    :  CCL
CRRA .                     :  Near-Far Count Rate Ratio
CVEL .M/MIN                 :  Cable Velocity
FBEF .UA                   :  RST Far Effective Beam Current
FCOR .                     :  RST Far Carbon/Oxygen Ratio
FERD .                     :  RST Far IC Mode Capture Optimization Resolution Degradation Factor
FIRD .                     :  RST Far Inelastic Optimization Resolution Degradation Factor
GR   .GAPI                 :  Gamma Ray
NCOR .                     :  RST Near Carbon/Oxygen Ratio
NERD .                     :  RST Near IC Mode Capture Optimization Resolution Degradation Factor
NIRD .                     :  RST Near Inelastic Optimization Resolution Degradation Factor
RB_PCMS.DEG                  :  Relative Bearing
TENS .LBF                  :  Cable Tension
~Parameter Information Block
#MNEM.UNIT            Value   Description
#---------- ----------------  -----------
APD  .M                  54:  Elevation of Depth Reference (LMF) above Permanent Datum
RUN  .                    4:  RUN NUMBER
PROJECT.     SLEIPNER_OST@st-vlinapp01:  
SET  .        RSTD_0912_IC1:  
~Other Information Block
# 
~A       DEPTH           CCLC           CRRA           CVEL           FBEF           FCOR           FERD           FIRD             GR           NCOR           NERD           NIRD        RB_PCMS           TENS 
# ...
    3295.04040        -0.0046         2.8453      -0.509000       112.3603         0.1631         5.4346         5.4346        15.8372       0.016900         2.8145         2.8145       356.9717      2276.1926
    3295.19280        -0.0006         2.8655      -0.496600       112.1738         0.0936         5.4206         5.4206        15.9549       0.014100         2.8695         2.8695       357.0755      2259.2754
    3295.34520        -0.0000         2.8587      -0.498100       112.8735        -0.3519         5.3735         5.3735        15.8253       0.011900         2.8642         2.8642       357.2354      2264.3091
    3295.49760         0.0655         2.8733      -0.498400       112.8012        -0.0101         5.5052         5.5052        15.4322      -0.024500         2.7928         2.7928       357.4853      2254.8982
    3295.65000        -0.0011         2.8646      -0.503900       113.0189        -0.0920         5.2698         5.2698        15.4558      -0.014100         2.8181         2.8181       357.4181      2244.4854
    3295.80240        -0.0033         2.8795      -0.498600       113.3301         0.0377         5.3970         5.3970        15.3814       0.068600         2.7339         2.7339       357.2675      2263.5564
    3295.95480        -0.0086         2.8884      -0.501200       113.1865        -0.1560         5.3600         5.3600        15.0977       0.001600         2.7445         2.7445       357.2798      2257.9048
    3296.10720        -0.0059         2.8871      -0.501600       113.5452        -0.0916         5.3580         5.3580        14.7383       0.009400         2.6894         2.6894       357.2239      2254.7590
    3296.25960        -0.0087         2.8869      -0.503600       113.5877        -0.2931         5.3853         5.3853        14.9751       0.006800         2.6954         2.6954       357.2261      2259.7097
    3296.41200        -0.0256         2.8859      -0.501200       112.4201         0.0618         5.3794         5.3794        14.8119       0.036800         2.6583         2.6583       357.2389      2247.3809
    3296.56440        -0.0040         2.8678      -0.506600       112.8866        -0.0682         5.4606         5.4606        14.7023       0.010200         2.6590         2.6590       357.0049      2266.2214
    3296.71680        -0.0082         2.8940      -0.504800       112.2461         0.0250         5.6274         5.6274        14.5739       0.009200         2.6294         2.6294       356.8431      2250.6301
    3296.86920        -0.0711         2.8723      -0.502800       111.7631        -0.0867         5.4667         5.4667        14.3519      -0.017100         2.6485         2.6485       356.7754      2259.9595
    3297.02160         0.1141         2.8478      -0.502000       113.2807        -0.0671         5.4460         5.4460        14.5448      -0.048100         2.5778         2.5778       356.6410      2261.9341
    3297.17400         0.0680         2.8800      -0.504300       112.9709        -0.1152         5.3566         5.3566        14.7578      -0.102100         2.5665         2.5665       356.5839      2261.7363
    3297.32640        -0.0145         2.8617      -0.504900       113.6042        -0.0755         5.3905         5.3905        15.3571      -0.102300         2.5748         2.5748       356.5208      2262.8821
    3297.47880         0.1634         2.8940      -0.498200       113.6769        -0.0421         5.2873         5.2873        16.1026      -0.031200         2.5587         2.5587       356.4702      2265.7739
    3297.63120         0.0682         2.8898      -0.506800       113.9764         0.0720         5.1605         5.1605        16.3176      -0.010800         2.4669         2.4669       356.5641      2256.4434
    3297.78360        -0.0076         2.8911      -0.504200       114.8333        -0.4137         5.2557         5.2557        16.2331       0.062600         2.4616         2.4616       356.5645      2271.2852
    3297.93600        -0.0068         2.8980      -0.507700       113.6143        -0.0396         5.3159         5.3159        16.8164      -0.026600         2.4740         2.4740       356.5097      2264.6606
    3298.08840        -0.0089         2.8785      -0.505700       115.0862        -0.0463         5.3156         5.3156        17.2978       0.009700         2.4966         2.4966       356.5142      2266.6052
    3298.24080        -0.1857         2.9154      -0.505500       113.9003        -0.1661         5.3712         5.3712        17.3579       0.005600         2.4871         2.4871       356.6064      2267.8271
    3298.39320        -0.0185         2.8788      -0.504500       114.5622        -0.0928         5.3275         5.3275        17.5651      -0.035400         2.5070         2.5070       356.7370      2260.6223
    3298.54560        -0.0206         2.9065      -0.505300       115.1938        -0.0937         5.2701         5.2701        17.7710      -0.046900         2.4776         2.4776       357.1499      2264.2244
    3298.69800        -0.0180         2.9221      -0.501000       114.5628         0.0689         5.3132         5.3132        17.3241      -0.000200         2.4677         2.4677       357.2805      2260.3176
    3298.85040        -0.0159         2.9059      -0.502000       114.3644        -0.0928         5.3781         5.3781        16.5816      -0.021800         2.4454         2.4454       357.3235      2265.1685
    3299.00280        -0.0167         2.9020      -0.502900       114.1034        -0.1130         5.2867         5.2867        15.8847      -0.049500         2.4697         2.4697       357.3004      2268.5457
    3299.15520        -0.0145         2.8930      -0.506600       114.1467        -0.0308         5.3485         5.3485        15.8495       0.004900         2.4801         2.4801       357.2638      2265.4871
    3299.30760        -0.0148         2.8873      -0.502200       113.5704         0.0457         5.3753         5.3753        15.5283       0.026400         2.4776         2.4776       357.0427      2266.6362
    3299.46000        -0.0118         2.8804      -0.502100       113.0266         0.0307         5.3906         5.3906        15.1325      -0.060700         2.4739         2.4739       357.1041      2273.8979
    3299.61240        -0.0128         2.8821      -0.500900       113.0542         0.0199         5.4392         5.4392        15.0310      -0.024200         2.4536         2.4536       357.2140      2268.5605
    3299.76480        -0.0143         2.8714      -0.500900       113.4293         0.0811         5.5949         5.5949        15.0612      -0.066500         2.4571         2.4571       357.1078      2273.1565
    3299.91720        -0.0089         2.8828      -0.511100       113.2644         0.0256         5.4880         5.4880        15.4115       0.072000         2.4721         2.4721       357.0957      2271.7688
    3300.06960        -0.0073         2.8833      -0.502300       113.3858        -0.0886         5.6293         5.6293        15.6397       0.018300         2.5100         2.5100       356.9376      2261.3921
    3300.22200         0.0163         2.8620      -0.502000       113.3481         0.0506         5.5268         5.5268        15.8935       0.014500         2.5640         2.5640       356.9673      2262.9268
    3300.37440        -0.0104         2.8834      -0.499900       113.0452        -0.0836         5.5392         5.5392        16.1796       0.050900         2.5704         2.5704       357.0917      2259.3396
    3300.52680        -0.0055         2.8648      -0.504900       113.5995         0.0220         5.4486         5.4486        16.6275       0.010300         2.6124         2.6124       357.2054      2256.6902
    3300.67920        -0.0022         2.8636      -0.505800       114.6399         0.1781         5.3734         5.3734        16.6070       0.016800         2.6515         2.6515       357.3069      2255.3494
    3300.83160        -0.1929         2.8784      -0.504700       114.9449        -0.0730         5.4387         5.4387        16.6601      -0.028300         2.6560         2.6560       357.3398      2255.1912
