~Version Information Block
VERS .                 2.00:  CWLS LOG ASCII STANDARD - VERSION 2.00
WRAP .                   NO:  One line per depth step
~Well Information Block
#MNEM.UNIT        Data Type   Information
#---------- ----------------  -----------
STRT .M          3445.61160:  START DEPTH
STOP .M          3638.55000:  STOP DEPTH
STEP .M             0.15240:  STEP
NULL .              -999.25:  NULL VALUE
COMP .              Statoil:  COMPANY
WELL .          NO_15/9-F-5:  WELL
FLD  .                VOLVE:  FIELD
LOC  .            North Sea:  LOCATION
CTRY .                     :  COUNTRY
STAT .                     :  STATE
CNTY .                     :  COUNTY
SRVC .         Schlumberger:  SERVICE COMPANY
DATE .          16-Sep-2012:  DATE
API  .                     :  API NUMBER
UWI  .             15/9-F-5:  UNIQUE WELL ID
~Curve Information Block
#MNEM.UNIT         API CODE   Curve Description
#---------- ----------------  -----------------
DEPTH.M                    :  DEPTH (BOREHOLE)
CCLC .V                    :  CCL
CCLD .V                    :  CCL Discriminated Amplitude
CRRA .                     :  Near-Far Count Rate Ratio
CS   .F/MN                 :  Cable Speed
CVEL .M/MIN                 :  Cable Velocity
DEVI .DEG                  :  Hole Deviation
FBEF .UA                   :  RST Far Effective Beam Current
FCOR .                     :  RST Far Carbon/Oxygen Ratio
FERD .                     :  RST Far IC Mode Capture Optimization Resolution Degradation Factor
FIRD .                     :  RST Far Inelastic Optimization Resolution Degradation Factor
GR   .GAPI                 :  Gamma Ray
NCOR .                     :  RST Near Carbon/Oxygen Ratio
NERD .                     :  RST Near IC Mode Capture Optimization Resolution Degradation Factor
NIRD .                     :  RST Near Inelastic Optimization Resolution Degradation Factor
RB_PCMS.DEG                  :  Relative Bearing
TENS .LBF                  :  Cable Tension
WPRE .PSI                  :  Well Pressure
WTEP .DEGC                 :  Well Temperature
~Parameter Information Block
#MNEM.UNIT            Value   Description
#---------- ----------------  -----------
APD  .M           54.900002:  Elevation of Depth Reference (LMF) above Permanent Datum
RUN  .                Run 1:  RUN NUMBER
PROJECT.     SLEIPNER_OST@st-vlinapp01:  
SET  .        RSTD_0912_IC2:  
~Other Information Block
# 
~A       DEPTH           CCLC           CCLD           CRRA             CS           CVEL           DEVI           FBEF           FCOR           FERD           FIRD             GR           NCOR           NERD           NIRD        RB_PCMS           TENS           WPRE           WTEP 
# ...
    3520.74480         0.0551         0.0000         2.8714         1.4337      -0.444100        50.7557       112.0313     0.01180000         5.6965         5.6965        31.7370    -0.04980000         2.7682         2.7682         7.8332      2803.9968      5053.4067        93.0782
    3520.89720         0.0150         0.0000         2.8795         1.4469      -0.444000        50.7695       111.9749     0.09140000         5.8097         5.8097        31.7108    -0.02640000         2.7910         2.7910         7.7742      2789.4429      5053.5454        93.0696
    3521.04960        -0.0145         0.0000         2.8790         1.4469      -0.440700        50.7854       111.5480    -0.10080000         5.6466         5.6466        31.0611     0.04820000         2.7630         2.7630         7.7465      2804.1287      5053.6709        93.0508
    3521.20200        -0.0527         0.0000         2.8739         1.4472      -0.440000        50.7844       111.9394     0.05670000         5.7617         5.7617        30.7350     0.02660000         2.7681         2.7681         7.8434      2789.0066      5053.8237        93.0327
    3521.35440        -0.0165         0.0000         2.8834         1.4465      -0.441200        50.8018       111.3950     0.05260000         5.6499         5.6499        30.4215     0.02990000         2.8188         2.8188         8.1143      2796.9421      5053.9702        93.0247
    3521.50680        -0.0137         0.0000         2.8588         1.4370      -0.438600        50.8259       111.1536    -0.12060000         5.7156         5.7156        30.6960     0.01510000         2.8089         2.8089         8.5236      2814.7158      5054.0923        93.0055
    3521.65920        -0.0113         0.0000         2.8643         1.4370      -0.440900        50.8396       112.3471     0.03800000         5.6594         5.6594        30.9229    -0.05850000         2.8253         2.8253         8.4226      2813.5918      5054.2393        92.9987
    3521.81160        -0.0172         0.0000         2.8921         1.4285      -0.437200        50.8549       111.1820    -0.12430000         5.5892         5.5892        31.6059    -0.03530000         2.7917         2.7917         8.2405      2811.8218      5054.3608        92.9790
    3521.96400         0.0561         0.0000         2.8871         1.4370      -0.437800        50.8694       110.5031     0.07700000         5.3747         5.3747        31.6360     0.02820000         2.7747         2.7747         8.1638      2804.4521      5054.4854        92.9663
    3522.11640        -0.0099         0.0000         2.8639         1.4337      -0.437900        50.8754       109.5475    -0.22000000         5.4073         5.4073        31.6314    -0.03090000         2.7757         2.7757         8.0493      2801.0063      5054.6172        92.9478
    3522.26880        -0.0101         0.0000         2.8398         1.4196      -0.437000        50.8878       109.7357     0.01300000         5.3472         5.3472        31.7185     0.05540000         2.7843         2.7843         7.8747      2805.1943      5054.7690        92.9338
    3522.42120         0.0370         0.0000         2.8449         1.4278      -0.436800        50.9030       109.8806    -0.04150000         5.4399         5.4399        31.6092    -0.03420000         2.8188         2.8188         7.7199      2811.3367      5054.8901        92.9233
    3522.57360        -0.0070         0.0000         2.8475         1.4321      -0.437500        50.9098       108.8607     0.08100000         5.4022         5.4022        30.6875    -0.11020000         2.8415         2.8415         7.7277      2798.9619      5055.0288        92.9079
    3522.72600        -0.0070         0.0000         2.8248         1.4327      -0.435800        50.9348       110.3823     0.06240000         5.3826         5.3826        31.1110     0.10570000         2.8658         2.8658         7.8414      2814.5923      5055.1582        92.8921
    3522.87840        -0.0059         0.0000         2.8444         1.4373      -0.436500        50.9432       109.6417    -0.20909999         5.2400         5.2400        30.2263     0.02740000         2.8939         2.8939         7.8983      2804.8855      5055.3008        92.8694
    3523.03080        -0.0128         0.0000         2.8291         1.4413      -0.436900        50.9623       109.7924     0.01050000         5.1196         5.1196        30.2505    -0.03180000         2.8642         2.8642         7.8467      2801.5129      5055.4263        92.8513
    3523.18320         0.0304         0.0000         2.8298         1.4846      -0.442300        50.9692       110.2811     0.00960000         5.2522         5.2522        30.1410     0.02050000         2.8006         2.8006         7.8585      2811.3806      5055.5439        92.8328
    3523.33560         0.0637         0.0000         2.8473         1.4180      -0.436000        50.9946       109.7384    -0.02410000         5.0792         5.0792        30.5826     0.05980000         2.8286         2.8286         7.8897      2805.9683      5055.7031        92.8140
    3523.48800        -0.0056         0.0000         2.8523         1.4272      -0.438100        50.9988       110.1075    -0.11290000         5.1403         5.1403        30.1015    -0.05910000         2.8068         2.8068         7.8603      2819.6646      5055.8145        92.7970
    3523.64040         0.0072         0.0000         2.8416         1.4373      -0.435700        51.0228       109.7936    -0.10860000         5.2359         5.2359        30.5641    -0.05930000         2.8362         2.8362         7.8118      2807.1299      5055.9312        92.7806
    3523.79280        -0.0088         0.0000         2.8427         1.4245      -0.435900        51.0475       109.6724    -0.06460000         5.0746         5.0746        29.9725    -0.05630000         2.8192         2.8192         7.8368      2787.9778      5056.0796        92.7482
    3523.94520        -0.0662         0.0000         2.8382         1.4557      -0.438500        51.0664       108.8204    -0.01290000         5.1164         5.1164        29.5703     0.02030000         2.7637         2.7637         7.8610      2805.1409      5056.2036        92.7407
    3524.09760        -0.0336         0.0000         2.8306         1.4419      -0.438500        51.0668       109.1911     0.02700000         5.0322         5.0322        29.9014     0.06560000         2.7359         2.7359         7.6002      2797.8110      5056.3545        92.7162
    3524.25000        -0.0072         0.0000         2.8307         1.4373      -0.437900        51.0755       109.9929    -0.17170000         5.0745         5.0745        29.6831    -0.05850000         2.6979         2.6979         7.4994      2796.7668      5056.4897        92.6978
    3524.40240        -0.0095         0.0000         2.8583         1.4564      -0.440800        51.0884       109.4480    -0.01000000         4.9537         4.9537        29.8787     0.12160000         2.6452         2.6452         7.4802      2800.8660      5056.6201        92.6703
    3524.55480         0.1298         0.0000         2.8345         1.4324      -0.439900        51.1081       109.7262    -0.18089999         4.9546         4.9546        29.8294     0.02120000         2.6253         2.6253         7.5883      2794.9680      5056.7583        92.6542
    3524.70720         0.0454         0.0000         2.8471         1.4665      -0.441600        51.1166       109.6308    -0.06010000         4.9179         4.9179        30.5496     0.01620000         2.5983         2.5983         7.8614      2800.6904      5056.9136        92.6217
    3524.85960        -0.0091         0.0000         2.8446         1.4259      -0.440700        51.1549       110.1414    -0.08290000         5.0694         5.0694        30.1522     0.04180000         2.5896         2.5896         8.0461      2807.8586      5057.0303        92.6075
    3525.01200        -0.0078         0.0000         2.8538         1.4462      -0.436100        51.1719       110.3328     0.04120000         4.9846         4.9846        31.1974     0.05840000         2.5736         2.5736         8.0380      2813.2983      5057.1660        92.5826
