~Version Information Block
VERS .                 2.00:  CWLS LOG ASCII STANDARD - VERSION 2.00
WRAP .                   NO:  One line per depth step
~Well Information Block
#MNEM.UNIT        Data Type   Information
#---------- ----------------  -----------
STRT .M          3439.51560:  START DEPTH
STOP .M          3642.36000:  STOP DEPTH
STEP .M             0.15240:  STEP
NULL .              -999.25:  NULL VALUE
COMP .              Statoil:  COMPANY
WELL .          NO_15/9-F-5:  WELL
FLD  .                VOLVE:  FIELD
LOC  .            North Sea:  LOCATION
CTRY .                     :  COUNTRY
STAT .                     :  STATE
CNTY .                     :  COUNTY
SRVC .         Schlumberger:  SERVICE COMPANY
DATE .          16-Sep-2012:  DATE
API  .                     :  API NUMBER
UWI  .             15/9-F-5:  UNIQUE WELL ID
~Curve Information Block
#MNEM.UNIT         API CODE   Curve Description
#---------- ----------------  -----------------
DEPTH.M                    :  DEPTH (BOREHOLE)
BSAL .PPM                  :  Borehole Salinity
CCLC .V                    :  CCL
CIRF .                     :  RST Capture to Inelastic Ratio Far
CIRN .                     :  RST Capture to Inelastic Ratio Near
CVEL .M/MIN                 :  Cable Velocity
DSIG .CU                   :  Sigma Difference
FBEF .UA                   :  RST Far Effective Beam Current
GR   .GAPI                 :  Gamma Ray
IRAT .                     :  RST Inelastic Ratio
RSCF .                     :  RST Far Detector Effective Unregulated Capture Count Rate
RSCN .                     :  RST Near Detector Effective Unregulated Capture Count Rate
SFFA .CU                   :  RST Sigma Formation Far Apparent
SIBF .CU                   :  RST Sigma Borehole Fluid
SIGM .CU                   :  Formation Sigma (Neutron Capture Cross Section)
TENS .LBF                  :  Cable Tension
TPHI .V/V                  :  Thermal Decay Porosity
~Parameter Information Block
#MNEM.UNIT            Value   Description
#---------- ----------------  -----------
APD  .M           54.900002:  Elevation of Depth Reference (LMF) above Permanent Datum
BHS  .                 CASE:  Borehole Status (Open or Cased Hole)
BS   .IN                8.5:  Bit Size
BSAL .PPM       34972.17188:  Borehole Salinity
BSALOPT.              UNKNOWN:  Borehole Salinity Option
CSID .IN              6.184:  Casing Inner Diameter
CSIZ .IN                  7:  Current Casing Size
CWEI .LB/F               29:  Casing Weight
MATR .                 SAND:  Rock Matrix for Neutron Porosity Corrections
RUN  .                Run 1:  RUN NUMBER
PROJECT.     SLEIPNER_OST@st-vlinapp01:  
SET  .       RSTD_0912_SIG1:  
~Other Information Block
# 
~A       DEPTH           BSAL           CCLC           CIRF           CIRN           CVEL           DSIG           FBEF             GR           IRAT           RSCF           RSCN           SFFA           SIBF           SIGM           TENS           TPHI 
# ...
    3619.95720     32375.7012         0.4166         2.7300     0.81099999       -4.78970        -0.7257        79.5232        12.8593     0.33039999        11.9505        10.4925        13.8932        33.4374        11.7269      2689.3215     0.17670000
    3620.10960     31923.7988        -0.6873         2.6919     0.81269997       -4.75620        -0.7026        80.9851        13.0457     0.33219999        11.4567        10.2799        13.7370        33.2768        11.7758      2690.7585     0.18009999
    3620.26200     31486.9004         0.0247         2.6620     0.80940002       -4.79780        -0.6801        78.0977        14.4131     0.33410001        11.6186        10.1592        13.5020        33.1216        11.6866      2695.3447     0.18160000
    3620.41440     31760.2988         0.0977         2.6447     0.82020003       -4.78820        -0.5954        79.5201        13.9012     0.33489999        11.5455        10.8766        13.5904        33.2187        11.6824      2690.5713     0.18390000
    3620.56680     31793.9004         0.4951         2.7476     0.82770002       -4.76870        -0.6791        77.7141        13.2739     0.33309999        11.8033        10.2299        13.7001        33.2307        11.6912      2692.5864     0.18230000
    3620.71920     32472.5996        -0.5429         2.6900     0.82279998       -4.76900        -0.6876        79.7055        11.3003     0.32940000        11.5101        10.4070        13.5070        33.4719        12.0058      2689.6553     0.18080001
    3620.87160     32757.1992         0.2334         2.6792     0.77679998       -4.77410        -0.7243        79.7248        10.3564     0.32960001        11.6838        10.3817        14.5053        33.5731        12.0904      2692.5173     0.17890000
    3621.02400     32930.9023        -0.6067         2.6208     0.80140001       -4.79600        -0.6489        79.4960         8.7260     0.33160001        11.3529        10.2770        13.9401        33.6349        12.1147      2684.9644     0.18189999
    3621.17640     32435.6992        -0.8914         2.6658     0.82249999       -4.80070        -0.5806        76.4190         9.3267     0.33399999        11.6790        10.4129        13.5788        33.4588        11.9309      2701.5173     0.18080001
    3621.32880     32529.5000        -0.4028         2.7050     0.82669997       -4.79380        -0.6544        79.2567         9.9595     0.32710001        11.2979        10.3033        13.9388        33.4921        11.9148      2703.5356     0.17720000
    3621.48120     32957.5000         0.0499         2.8562     0.76859999       -4.76630        -0.7147        80.2012        11.0750     0.32110000        12.4512        10.4313        13.8895        33.6444        12.0253      2717.7241     0.16810000
    3621.63360     33197.8984         0.0019         2.7370     0.77710003       -4.75530        -0.6699        79.4616        11.8473     0.32179999        12.2448        10.6202        13.9233        33.7299        11.8381      2714.1035     0.17010000
    3621.78600     32673.0000        -0.0492         2.6580     0.78700000       -4.78270        -0.7356        78.9827        12.4324     0.32620001        11.6018        10.4230        13.4071        33.5431        11.6896      2705.5173     0.17420000
    3621.93840     32698.8984        -0.2519         2.7134     0.82080001       -4.78240        -0.7536        78.4552        11.2310     0.33070001        11.6261        10.5588        13.4536        33.5524        11.6475      2710.4644     0.17990001
    3622.09080     32223.0996         0.0766         2.7593     0.82160002       -4.77100        -0.7932        76.5940        10.8823     0.32879999        12.1653        10.6320        13.8052        33.3832        11.6106      2711.2070     0.17960000
    3622.24320     31870.0996        -0.0226         2.7926     0.81900001       -4.75830        -0.8023        79.4724         9.7283     0.32640001        11.8836        10.4426        13.3006        33.2577        11.5104      2702.8965     0.17790000
    3622.39560     31779.5996        -0.5785         2.7355     0.79869998       -4.74990        -0.7348        78.8979        10.2404     0.32659999        12.1987        11.1031        13.1609        33.2256        11.3890      2703.5518     0.17500000
    3622.54800     32254.0020        -0.0567         2.7350     0.80479997       -4.76680        -0.6767        77.7146         9.6405     0.32870001        11.6801        10.1620        13.4413        33.3942        11.4190      2695.4827     0.17100000
    3622.70040     32753.2988        -0.1334         2.6915     0.78130001       -4.77050        -0.5891        75.4515        10.4128     0.33199999        11.8453        10.0279        13.4019        33.5717        11.4598      2701.5359     0.16520000
    3622.85280     33078.8984         0.0166         2.6915     0.78850001       -4.76200        -0.5868        78.8334        10.4128     0.33129999        11.3788        10.0621        13.3016        33.6876        11.4547      2706.7244     0.16339999
    3623.00520     33714.4023        -0.1627         2.7667     0.77590001       -4.65930        -0.5672        78.0342        11.3094     0.32650000        12.3635        10.3870        13.4693        33.9138        11.6833      2724.1035     0.16180000
    3623.15760     34298.5977        -0.5072         2.7955     0.79970002       -4.63460        -0.5307        80.0740        10.3682     0.31690001        11.9751        10.6127        14.0992        34.1219        11.8174      2713.2668     0.16429999
    3623.31000     33852.9023         0.9982         2.7334     0.73220003       -4.65280        -0.4795        82.7289        10.2114     0.30800000        11.7445        10.3714        13.7062        33.9631        11.8087      2718.3794     0.16509999
    3623.46240     33687.0000         2.9546         2.5748     0.67159998       -4.65170        -0.3043        79.8949        10.3830     0.31000000        11.5390         9.9269        13.4286        33.9040        11.4353      2717.1333     0.16680001
    3623.61480     33556.0977         0.0802         2.5534     0.74370003       -4.61800        -0.1761        79.4093        10.2972     0.32089999        11.1511        10.1102        13.0020        33.8574        11.4282      2716.8276     0.16010000
    3623.76720     33933.3008        -0.2318         2.7959     0.81650001       -4.64110        -0.1204        77.4867        10.2114     0.33500001        12.2130        10.4232        13.7162        33.9917        11.5108      2712.5332     0.14530000
    3623.91960     34352.1016        -0.0971         2.8486     0.78320003       -4.64150        -0.0276        74.6486         9.7823     0.34169999        13.3919        10.6445        13.7425        34.1410        11.5682      2702.7932     0.12500000
    3624.07200     34236.5977        -0.2134         2.7594     0.74989998       -4.62500        -0.2157        73.2683        10.4688     0.35049999        13.0816        10.0446        13.2869        34.0998        11.2230      2712.7334     0.10940000
    3624.22440     33685.1992         0.0089         2.6101     0.73640001       -4.64200        -0.4143        66.8234        10.0398     0.35879999        14.0128        10.6632        12.8225        33.9034        10.7218      2710.4668     0.10120000
    3624.37680     33753.0000        -0.1160         2.5402     0.71670002       -4.65640        -0.7142        66.2421        10.9837     0.36790001        14.0210        10.7870        12.3669        33.9275        10.3823      2705.2415     0.09650000
    3624.52920     33022.0000        -0.0060         2.5046     0.71859998       -4.66110        -0.8870        66.5193        10.8979     0.36800000        13.6575        10.6258        12.3890        33.6673        10.2737      2719.5332     0.09540000
    3624.68160     33305.9023        -0.0340         2.6058     0.71469998       -4.58470        -1.0161        68.2651        11.9276     0.36080000        13.8416        10.3923        12.6301        33.7684        10.6458      2718.9312     0.09620000
