~Version Information Block
VERS .                 2.00:  CWLS LOG ASCII STANDARD - VERSION 2.00
WRAP .                   NO:  One line per depth step
~Well Information Block
#MNEM.UNIT        Data Type   Information
#---------- ----------------  -----------
STRT .M          3454.60320:  START DEPTH
STOP .M          3792.47400:  STOP DEPTH
STEP .M             0.15240:  STEP
NULL .              -999.25:  NULL VALUE
COMP .              Statoil:  COMPANY
WELL .        NO_15/9-F-1_C:  WELL
FLD  .                Volve:  FIELD
LOC  .            North Sea:  LOCATION
CTRY .               Norway:  COUNTRY
STAT .                     :  STATE
CNTY .                     :  COUNTY
SRVC .         Schlumberger:  SERVICE COMPANY
DATE .          27-Nov-2014:  DATE
API  .                     :  API NUMBER
UWI  .           15/9-F-1 C:  UNIQUE WELL ID
LATI .     58° 26' 29.91" N:  LATITUDE
LONG .      1° 53' 14.71" E:  LONGITUDE
~Curve Information Block
#MNEM.UNIT         API CODE   Curve Description
#---------- ----------------  -----------------
DEPTH.M                    :  DEPTH (BOREHOLE)
CVEL .M/SEC                 :  Cable Velocity
DFRB .DEG                  :  Calibrated Relative Bearing
FBEF .UA                   :  RST Far Effective Beam Current
FCOR .                     :  RST Far Carbon/Oxygen Ratio
FERD .                     :  RST Far IC Mode Capture Optimization
FIRD .                     :  RST Far Inelastic Optimization Resolution
GR   .GAPI                 :  Gamma Ray
NCOR .                     :  RST Near Carbon/Oxygen Ratio
NERD .                     :  RST Near IC Mode Capture Optimization
NIRD .                     :  RST Near Inelastic Optimization Resolution
PFC1 .IN                   :  PFCS CaliperX
PFC2 .IN                   :  PFCS CaliperY
TENS .LBF                  :  Cable Tension
~Parameter Information Block
#MNEM.UNIT            Value   Description
#---------- ----------------  -----------
APD  .M           54.900002:  Elevation of Depth Reference (LMF) above Permanent Datum
EPD  .C3                  0:  Elevation of Permanent Datum above Mean Sea Level
LMF  .                   KB:  Logging Measured From (Name of Logging Elevation Reference)
PDAT .                  MSL:  Permanent Datum
RUN  .                Run 1:  RUN NUMBER
TAPE_NAME.     ConCu_R1L19Up_S012_PFCS_PILS_DEFT_RST_PCMS_PSTP.las:  
TOOL_STRING.              UNKNOWN:  
WN   .           15/9-F-1 C:  WELL
PROJECT.     SLEIPNER_OST@st-vlinapp01:  
SET  .        RSTD_1114_IC3:  
~Other Information Block
# 
~A       DEPTH           CVEL           DFRB           FBEF           FCOR           FERD           FIRD             GR           NCOR           NERD           NIRD           PFC1           PFC2           TENS 
# ...
    3763.67040      -0.007682       335.8180       116.9056         0.0033         5.1633         5.1633        19.8979         0.0671         7.0223         7.0223         6.2219         6.0829      4522.5938
    3763.82280      -0.008705       335.8180       117.0954         0.0276         5.2112         5.2112        19.2184         0.0804         7.0354         7.0354         6.2220         6.0828      4536.6191
    3763.97520      -0.008092       335.8180       117.9376         0.0241         5.1768         5.1768        19.0044         0.0204         7.0022         7.0022         6.2221         6.0719      4471.4771
    3764.12760      -0.007763       335.8180       117.1673         0.1132         5.1956         5.1956        20.8969         0.0056         7.0294         7.0294         6.2219         6.0655      4543.6294
    3764.28000      -0.007817       335.8180       116.3406         0.0367         5.2548         5.2548        23.1203        -0.0687         6.9924         6.9924         6.2214         6.0750      4492.0068
    3764.43240      -0.007742       335.8180       116.8491        -0.0112         5.2080         5.2080        26.1902         0.0085         6.9953         6.9953         6.2218         6.0829      4542.1323
    3764.58480      -0.007695       335.8180       116.3485        -0.0510         5.1285         5.1285        28.9955        -0.0054         6.9464         6.9464         6.2219         6.0753      4590.9600
    3764.73720      -0.008375       335.8180       117.0680         0.0898         5.0930         5.0930        29.9103         0.0892         7.0066         7.0066         6.2219         6.0751      4517.4546
    3764.88960      -0.008548       337.2290       119.6208        -0.0188         5.1004         5.1004        26.8938         0.0402         7.0227         7.0227         6.2219         6.0665      4538.4023
    3765.04200      -0.007807       337.2290       122.8533        -0.1937         5.0550         5.0550        23.9052         0.0052         7.1096         7.1096         6.2219         6.0550      4555.9458
    3765.19440      -0.007847       337.2290       121.7112        -0.0611         5.0679         5.0679        21.2915        -0.1520         7.0742         7.0742         6.2049         6.0454      4499.1938
    3765.34680      -0.007960       337.2290       120.0018         0.0035         5.0864         5.0864        19.6190        -0.1141         7.0300         7.0300         6.1147         5.9827      4474.3774
    3765.49920      -0.007935       337.2290       116.8173         0.0116         5.0813         5.0813        19.4535         0.0964         6.9556         6.9556         6.1450         5.9938      4499.9341
    3765.65160      -0.007890       337.2290       117.6424         0.0018         5.0947         5.0947        21.8228         0.0490         6.9723         6.9723         6.2225         6.0834      4468.5571
    3765.80400      -0.007803       337.2290       117.4168        -0.0659         5.0688         5.0688        24.7957        -0.0058         6.9702         6.9702         6.2250         6.0834      4541.9282
    3765.95640      -0.007652       337.2290       118.2826        -0.1452         5.1077         5.1077        27.3393        -0.0196         7.0633         7.0633         6.2228         6.0834      4583.2002
    3766.10880      -0.007755       337.2290       117.8388         0.0267         5.2562         5.2562        29.2429        -0.0178         7.0794         7.0794         6.2233         6.0830      4516.9458
    3766.26120      -0.008467       337.2290       120.0996        -0.0221         5.1294         5.1294        31.1398        -0.0750         7.1197         7.1197         6.2239         6.0822      4535.3198
    3766.41360      -0.008215       337.2290       120.7113         0.0418         5.0399         5.0399        33.2156         0.0710         7.1041         7.1041         6.2220         6.0805      4527.8623
    3766.56600      -0.007852       337.2290       120.9450         0.0416         5.0970         5.0970        33.8081         0.0123         7.0760         7.0760         6.2221         6.0820      4511.6680
    3766.71840      -0.007813       337.2290       120.0707        -0.0134         5.0707         5.0707        33.6590         0.0136         7.0371         7.0371         6.2219         6.0833      4541.0171
    3766.87080      -0.007788       338.6400       119.8006        -0.0423         5.0849         5.0849        33.0032         0.0535         7.0811         7.0811         6.2219         6.0834      4534.5000
    3767.02320      -0.007768       338.6400       119.8326         0.0387         5.0853         5.0853        31.2846         0.0016         7.1411         7.1411         6.2220         6.0828      4531.1499
    3767.17560      -0.008858       338.6400       119.9634         0.0834         5.0609         5.0609        28.5953        -0.0075         7.1917         7.1917         6.2219         6.0806      4528.7681
    3767.32800      -0.008063       338.6400       119.8844        -0.0404         4.9762         4.9762        27.7503         0.0059         7.1669         7.1669         6.2220         6.0834      4486.4365
    3767.48040      -0.007755       338.6400       120.5004         0.1271         5.1190         5.1190        27.9709         0.0224         7.1772         7.1772         6.2221         6.0759      4506.4082
    3767.63280      -0.007717       338.6400       119.5693        -0.0351         5.0783         5.0783        28.3575         0.0606         7.2202         7.2202         6.2219         6.0749      4468.4863
    3767.78520      -0.007730       338.6400       119.7345         0.0801         5.1034         5.1034        27.9959         0.0373         7.1920         7.1920         6.2220         6.0681      4519.9766
    3767.93760      -0.007747       338.6400       120.3599         0.0519         5.0741         5.0741        27.1957        -0.0328         7.2416         7.2416         6.2220         6.0516      4500.5459
    3768.09000      -0.008627       338.6400       120.9551         0.0083         4.9663         4.9663        26.0116         0.0399         7.1743         7.1743         6.2220         6.0574      4473.7354
    3768.24240      -0.008133       338.6400       122.5557        -0.0526         4.7157         4.7157        25.7819         0.0739         7.2580         7.2580         6.2219         6.0512      4508.1045
    3768.39480      -0.007793       338.6400       119.6200        -0.1280         4.6553         4.6553        26.7729        -0.0581         7.2681         7.2681         6.2219         6.0597      4499.1865
    3768.54720      -0.008067       338.6400       118.5376         0.0026         4.6131         4.6131        28.2787         0.0270         7.3119         7.3119         6.2220         6.0573      4398.5054
    3768.69960      -0.007793       338.6400       118.6287        -0.1236         4.6559         4.6559        30.6512        -0.1039         7.2962         7.2962         6.2219         6.0511      4598.2744
    3768.85200      -0.008215       338.6400       118.6086         0.0921         4.5437         4.5437        32.1823        -0.0441         7.2326         7.2326         6.2220         6.0511      4544.4639
    3769.00440      -0.007983       338.6400       119.3899         0.0366         4.5044         4.5044        31.7691        -0.0112         7.3043         7.3043         6.2209         6.0521      4498.2349
    3769.15680      -0.007792       338.6400       118.7561        -0.0081         4.5770         4.5770        31.2084         0.0204         7.3459         7.3459         6.2220         6.0510      4492.4404
    3769.30920      -0.007647       338.6400       119.4062         0.0568         4.5533         4.5533        31.6738         0.0665         7.3251         7.3251         6.2432         6.0814      4471.1030
    3769.46160      -0.007917       338.6400       118.7937         0.0003         4.6000         4.6000        31.8488         0.0457         7.3225         7.3225         6.2432         6.0828      4428.6841
