#------------------------------------------------------------------------------
#
#   Created by   : las_export
#   Created on   : 2009-06-18 13:07:55
#   Project      : VOLVE
#   User         : TONYG
#   Interpreters : *
#
#------------------------------------------------------------------------------
~VERSION INFORMATION
VERS. 2.0 : CWLS Log ASCII Standard - version 2.0
WRAP.  NO : One line per depth step

~WELL INFORMATION
#MNEMONIC   .UNIT                                           VALUE :DESCRIPTION
#------------------------------------------------------------------------------
STRT        .M                                       2560.0412 :START DEPTH
STOP        .M                                       3222.0668 :STOP DEPTH
STEP        .M                                          0.1524 :STEP
NULL        .                                        -999.2500 :NULL VALUE
COMP        .                                                  :COMPANY
WELL        .                                      15/9-F-15 C :WELL
FLD         .                                            VOLVE :FIELD
LOC         .                                          UNKNOWN :LOCATION
CNTY        .                                          UNKNOWN :COUNTY
STAT        .                                          UNKNOWN :STATE
CTRY        .                                           Norway :COUNTRY
SRVC        .                                          UNKNOWN :SERVICE COMPANY
DATE        .                                          UNKNOWN :LOG DATE
UWI         .                                   NO 15/9-F-15 C :UNIQUE WELL ID
XCOORD      .M                                   435053.550000 :SURFACE X
YCOORD      .M                                  6478560.360000 :SURFACE Y
LAT         .                                        58.441585 :LATITUDE
LON         .                                         1.887541 :LONGITUDE
ELEV        .M                                         54.9000 :SURFACE ELEV
ELEV_TYPE   .                                               KB :ELEV TYPE

~CURVE INFORMATION
#MNEMONIC   .UNIT          API CODE       : CURVE DESCRIPTION
#------------------------------------------------------------------------------
DEPTH       .M                            : Measured Depth
DT          .us/ft         UNKNOWN        : DT:UNKNOWN:rC:NONE:v1
GR          .API           UNKNOWN        : GR:UNKNOWN:rC:NONE:v1
~A     DEPTH           DT           GR 
# ...
  2681.96120  -999.250000    74.582741 
  2682.11360  -999.250000    78.481987 
  2682.26600  -999.250000    73.192452 
  2682.41840  -999.250000    62.456406 
  2682.57080  -999.250000    56.160988 
  2682.72320  -999.250000    54.375032 
  2682.87560  -999.250000    57.310601 
  2683.02800  -999.250000    58.431180 
  2683.18040  -999.250000    55.955188 
  2683.33280  -999.250000    52.245031 
  2683.48520  -999.250000    50.560788 
  2683.63760  -999.250000    51.742349 
  2683.79000  -999.250000    53.473493 
  2683.94240  -999.250000    54.354177 
  2684.09480  -999.250000    54.721544 
  2684.24720  -999.250000    55.408038 
  2684.39960  -999.250000    54.490829 
  2684.55200  -999.250000    51.969048 
  2684.70440  -999.250000    52.297247 
  2684.85680  -999.250000    53.903079 
  2685.00920  -999.250000    55.505875 
  2685.16160  -999.250000    55.375532 
  2685.31400  -999.250000    57.243588 
  2685.46640  -999.250000    57.818231 
  2685.61880  -999.250000    54.750602 
  2685.77120  -999.250000    53.285853 
  2685.92360  -999.250000    51.091119 
  2686.07600  -999.250000    50.929354 
  2686.22840  -999.250000    48.514473 
  2686.38080  -999.250000    47.808920 
  2686.53320  -999.250000    48.030039 
  2686.68560  -999.250000    47.998226 
  2686.83800  -999.250000    49.895714 
  2686.99040  -999.250000    50.590912 
  2687.14280  -999.250000    50.916698 
  2687.29520  -999.250000    50.787484 
  2687.44760  -999.250000    50.125795 
  2687.60000  -999.250000    49.709245 
  2687.75240  -999.250000    48.701042 
  2687.90480  -999.250000    49.780236 
  2688.05720  -999.250000    49.853979 
  2688.20960  -999.250000    50.360564 
  2688.36200  -999.250000    49.396395 
  2688.51440  -999.250000    49.343575 
  2688.66680  -999.250000    49.481467 
  2688.81920  -999.250000    47.756100 
  2688.97160  -999.250000    48.694380 
  2689.12400  -999.250000    49.109799 
  2689.27640  -999.250000    52.236155 
  2689.42880  -999.250000    50.678394 
  2689.58120  -999.250000    51.812275 
  2689.73360  -999.250000    52.629784 
  2689.88600  -999.250000    53.906876 
  2690.03840  -999.250000    54.082818 
  2690.19080  -999.250000    59.517022 
  2690.34320  -999.250000    74.013742 
  2690.49560  -999.250000    92.341289 
  2690.64800  -999.250000   105.884736 
  2690.80040  -999.250000   110.085350 
  2690.95280  -999.250000   109.397968 
  2691.10520  -999.250000   111.388532 
  2691.25760  -999.250000   111.059593 
  2691.41000  -999.250000   103.754661 
  2691.56240  -999.250000    89.156005 
  2691.71480  -999.250000    79.251079 
  2691.86720  -999.250000    70.254574 
  2692.01960  -999.250000    62.369343 
  2692.17200  -999.250000    51.925337 
  2692.32440  -999.250000    46.306061 
  2692.47680  -999.250000    43.891335 
  2692.62920  -999.250000    42.461617 
  2692.78160  -999.250000    42.850513 
  2692.93400  -999.250000    41.749401 
  2693.08640  -999.250000    41.601918 
  2693.23880  -999.250000    39.366945 
  2693.39120  -999.250000    39.407095 
  2693.54360  -999.250000    40.924751 
  2693.69600  -999.250000    41.917718 
  2693.84840  -999.250000    41.870820 
  2694.00080  -999.250000    39.708052 
  2694.15320  -999.250000    37.451099 
  2694.30560  -999.250000    37.465465 
  2694.45800  -999.250000    37.726735 
  2694.61040  -999.250000    38.705253 
  2694.76280  -999.250000    38.540667 
  2694.91520  -999.250000    36.724368 
  2695.06760  -999.250000    37.330653 
  2695.22000  -999.250000    38.041912 
  2695.37240  -999.250000    40.478772 
  2695.52480  -999.250000    40.884669 
  2695.67720  -999.250000    39.854391 
  2695.82960  -999.250000    37.966998 
  2695.98200  -999.250000    38.292702 
  2696.13440  -999.250000    38.709094 
  2696.28680  -999.250000    40.891326 
  2696.43920  -999.250000    41.807474 
  2696.59160  -999.250000    42.576655 
  2696.74400  -999.250000    42.584358 
  2696.89640  -999.250000    41.567366 
  2697.04880  -999.250000    41.652442 
  2697.20120  -999.250000    40.337779 
  2697.35360  -999.250000    40.350513 
  2697.50600  -999.250000    38.235448 
  2697.65840  -999.250000    37.413881 
  2697.81080  -999.250000    39.591886 
  2697.96320  -999.250000    40.912254 
  2698.11560  -999.250000    43.145901 
  2698.26800  -999.250000    42.940102 
  2698.42040  -999.250000    41.796021 
  2698.57280  -999.250000    41.289451 
  2698.72520  -999.250000    42.746648 
  2698.87760  -999.250000    45.114565 
  2699.03000  -999.250000    43.513853 
  2699.18240  -999.250000    39.969241 
  2699.33480  -999.250000    38.606707 
  2699.48720  -999.250000    38.324512 
  2699.63960  -999.250000    36.127195 
  2699.79200  -999.250000    35.930792 
  2699.94440  -999.250000    36.246493 
  2700.09680  -999.250000    38.506204 
  2700.24920  -999.250000    38.371935 
  2700.40160  -999.250000    39.446181 
  2700.55400  -999.250000    39.842692 
  2700.70640  -999.250000    38.539622 
  2700.85880  -999.250000    39.172755 
  2701.01120  -999.250000    38.773420 
  2701.16360  -999.250000    40.196478 
  2701.31600  -999.250000    38.309191 
  2701.46840  -999.250000    37.776886 
  2701.62080  -999.250000    37.484606 
  2701.77320  -999.250000    37.709718 
  2701.92560  -999.250000    37.969122 
  2702.07800  -999.250000    37.884139 
  2702.23040  -999.250000    38.364663 
  2702.38280  -999.250000    37.549124 
  2702.53520  -999.250000    36.688120 
  2702.68760  -999.250000    37.766359 
  2702.84000  -999.250000    39.640994 
  2702.99240  -999.250000    41.489106 
  2703.14480  -999.250000    38.889587 
  2703.29720  -999.250000    37.836113 
  2703.44960  -999.250000    39.301185 
  2703.60200  -999.250000    40.291772 
  2703.75440  -999.250000    41.683820 
  2703.90680  -999.250000    41.531409 
  2704.05920  -999.250000    43.978100 
  2704.21160  -999.250000    42.561225 
  2704.36400  -999.250000    40.469986 
  2704.51640  -999.250000    40.287780 
  2704.66880  -999.250000    41.335181 
  2704.82120  -999.250000    43.210786 
  2704.97360  -999.250000    43.928121 
  2705.12600  -999.250000    42.784994 
  2705.27840  -999.250000    40.257374 
  2705.43080  -999.250000    38.379027 
  2705.58320  -999.250000    37.939608 
  2705.73560  -999.250000    38.213465 
  2705.88800  -999.250000    37.345018 
  2706.04040  -999.250000    37.920294 
  2706.19280  -999.250000    39.323082 
  2706.34520  -999.250000    39.810267 
  2706.49760  -999.250000    40.225118 
  2706.65000  -999.250000    39.589319 
  2706.80240  -999.250000    40.097582 
  2706.95480  -999.250000    41.179378 
  2707.10720  -999.250000    41.498416 
  2707.25960  -999.250000    40.728865 
  2707.41200  -999.250000    38.764192 
  2707.56440  -999.250000    38.840605 
  2707.71680  -999.250000    40.051856 
  2707.86920  -999.250000    40.284500 
  2708.02160  -999.250000    40.093066 
  2708.17400  -999.250000    39.492620 
  2708.32640  -999.250000    41.160219 
  2708.47880  -999.250000    41.381339 
  2708.63120  -999.250000    40.894870 
  2708.78360  -999.250000    40.323585 
  2708.93600  -999.250000    40.030415 
  2709.08840  -999.250000    41.941483 
  2709.24080  -999.250000    43.252081 
  2709.39320  -999.250000    42.935235 
  2709.54560  -999.250000    42.405946 
  2709.69800  -999.250000    39.980865 
  2709.85040  -999.250000    38.313142 
  2710.00280  -999.250000    34.586321 
  2710.15520  -999.250000    33.840447 
  2710.30760  -999.250000    34.215627 
  2710.46000  -999.250000    37.567834 
  2710.61240  -999.250000    39.709576 
  2710.76480  -999.250000    40.623226 
  2710.91720  -999.250000    39.724373 
  2711.06960  -999.250000    38.238466 
  2711.22200  -999.250000    39.788285 
  2711.37440  -999.250000    40.821493 
  2711.52680  -999.250000    41.678242 
  2711.67920  -999.250000    41.292706 
  2711.83160  -999.250000    39.032996 
  2711.98400  -999.250000    39.133759 
  2712.13640  -999.250000    38.581030 
  2712.28880  -999.250000    41.349086 
