~Version Information Block
VERS .                 2.00:  CWLS LOG ASCII STANDARD - VERSION 2.00
WRAP .                  YES:  Multiple lines per depth step
~Well Information Block
#MNEM.UNIT        Data Type   Information
#---------- ----------------  -----------
STRT .M          3437.38200:  START DEPTH
STOP .M          3636.11160:  STOP DEPTH
STEP .M             0.15240:  STEP
NULL .              -999.25:  NULL VALUE
COMP .                     :  COMPANY
WELL .          NO_15/9-F-5:  WELL
FLD  .                     :  FIELD
LOC  .                     :  LOCATION
CTRY .                     :  COUNTRY
STAT .                     :  STATE
CNTY .                     :  COUNTY
SRVC .                     :  SERVICE COMPANY
DATE .                     :  DATE
API  .                     :  API NUMBER
UWI  .                     :  UNIQUE WELL ID
~Curve Information Block
#MNEM.UNIT         API CODE   Curve Description
#---------- ----------------  -----------------
DEPTH.M                    :  
BSAL .PPM                  :  (RST-D)                 (6in)                   Borehole Salinity Depths
CCLC .V                    :  (PSTP-B)                (1in)                   CCL Computed Amplitude D
CIRF .                     :  (RST-D)                 (6in)                   Capture to Inelastic Rat
CIRN .                     :  (RST-D)                 (6in)                   Capture to Inelastic Rat
CVEL .M/SEC                 :  (WLWorkflow)            (1in)                   Cable Velocity Depthshif
DSIG .CU                   :  (RST-D)                 (6in)                   Sigma Difference Depthsh
DSIG21.                     :  SIGM_1 -RSTD_0912_OW.SAT201SI_SIGR_1
FBEF .UA                   :  (RST-D)                 (6in)                   Far Effective Beam Curre
GR   .GAPI                 :  (PSTP-B)                (6in)                   Gamma Ray Depthshifted
IRAT .                     :  (RST-D)                 (6in)                   Inelastic Ratio Depthshi
RB_PCMS.DEG                  :  (PCMS-A)                (6in)                   Relative Bearing Depthsh
RSCF .                     :  (RST-D)                 (6in)                   Far Detector Effective U
RSCN .                     :  (RST-D)                 (6in)                   Near Detector Effective
SFFA .CU                   :  (RST-D)                 (6in)                   Sigma Formation Far Appa
SIBF .CU                   :  (RST-D)                 (6in)                   Sigma Borehole Fluid Dep
SIGM .CU                   :  (RST-D)                 (6in)                   Formation Sigma (Neutron
TENS .LBF                  :  (WLWorkflow)            (1in)                   Cable Tension Depthshift
TPHI .V/V                  :  (RST-D)                 (6in)                   Thermal Decay Porosity D
WPRE .BAR                  :  (PSTP-B)                (6in)                   Well Pressure Depthshift
WTEP .DEGC                 :  (PSTP-B)                (6in)                   Well Temperature Depthsh
~Parameter Information Block
#MNEM.UNIT            Value   Description
#---------- ----------------  -----------
PROJECT.     SLEIPNER_OST@st-vlinapp01:  
SET  .     RSTD_1115_SIG1_DS:  
~Other Information Block
~Ascii Log Data
# ...
    3627.57720 
    35237.1367      -999.2500         2.0942       0.705547     -0.0732416 
        1.1843         0.2619       108.3984      -999.2500       0.313463 
      349.2259         6.5968         6.8740        19.0016        34.4566 
       17.1725      4556.1343       0.246037      -999.2500      -999.2500
    3627.72960 
    35827.9648      -999.2500         2.1009       0.708923     -0.0733250 
        1.1710         0.0433       107.4107      -999.2500       0.313993 
      349.2244         6.8285         7.1474        18.6374        34.6675 
       16.9249      4489.6665       0.250183      -999.2500      -999.2500
    3627.88200 
    36527.0156      -999.2500         2.1125       0.693047     -0.0723610 
        1.0668        -0.2318       107.1278      -999.2500       0.311673 
      349.2537         6.9450         7.0527        18.5090        34.9172 
       16.6499      4630.8447       0.249683      -999.2500      -999.2500
    3628.03440 
    36393.9531      -999.2500         2.1462       0.699567     -0.0717447 
        0.9341        -0.5248       110.1611      -999.2500       0.310440 
      349.2714         6.8374         6.9753        18.1874        34.8696 
       16.5544      4620.6226       0.245417      -999.2500      -999.2500
    3628.18680 
    36273.4805      -999.2500         2.1533       0.688743     -0.0723102 
        0.8943        -0.6515       110.2054      -999.2500       0.310823 
      349.2526         6.7904         6.9151        18.3561        34.8266 
       16.6022      4526.2676       0.239740      -999.2500      -999.2500
    3628.33920 
    36128.6094      -999.2500         2.1187       0.674557     -0.0730403 
        0.9054        -0.3100       108.7237      -999.2500       0.310303 
      349.2417         6.7558         6.7569        18.6483        34.7748 
       16.9439      4558.2002       0.234843      -999.2500      -999.2500
    3628.49160 
    36415.5625      -999.2500         2.0777       0.672137     -0.0718303 
        1.0250        -0.0203       111.2166      -999.2500       0.310630 
     -999.2500         6.5600         6.7675        19.2120        34.8773 
       17.1571      4705.9326       0.232203      -999.2500      -999.2500
    3628.64400 
    36806.6680      -999.2500         2.0794       0.672533     -0.0716327 
        1.0638         0.0990       108.6293      -999.2500       0.312060 
     -999.2500         6.7253         6.7894        18.9913        35.0171 
       17.1914      4735.5337       0.230343      -999.2500      -999.2500
    3628.79640 
    37652.1758      -999.2500         2.0905       0.657593     -0.0713775 
        1.1103        -0.2552       108.0222      -999.2500       0.313363 
     -999.2500         6.7778         6.7395        18.7476        35.3195 
       16.9154      4668.0679       0.229957      -999.2500      -999.2500
    3628.94880 
    37640.6367      -999.2500         2.0841       0.663883     -0.0719678 
        1.1500        -0.1727       107.8385      -999.2500       0.313873 
     -999.2500         6.7814         6.7783        18.3785        35.3154 
       16.9873      4529.9331       0.226580      -999.2500      -999.2500
    3629.10120 
    37252.2109      -999.2500         2.0627       0.665867     -0.0718820 
        1.0829         0.0825       107.1392      -999.2500       0.314813 
     -999.2500         6.6873         6.6234        19.2001        35.1764 
       17.0337      4633.7334       0.224863      -999.2500      -999.2500
    3629.25360 
    37494.9727      -999.2500         2.0679       0.657417     -0.0706167 
        1.1277         1.1216       108.0114      -999.2500       0.312083 
     -999.2500         6.7120         6.6292        18.8774        35.2632 
       17.3029      4778.1343       0.224800      -999.2500      -999.2500
    3629.40600 
    37677.6328      -999.2500         2.1092       0.654893     -0.0734980 
        1.1956         2.1563       110.3743      -999.2500       0.309000 
     -999.2500         6.6559         6.6128        19.1734        35.3286 
       17.2283      4718.1333       0.228480      -999.2500      -999.2500
    3629.55840 
    37468.7188      -999.2500         2.0867       0.669677     -0.0792505 
        1.2063         3.3101       108.3842      -999.2500       0.307683 
     -999.2500         6.5983         6.6775        18.9603        35.2538 
       17.2366      4676.7998       0.232360      -999.2500      -999.2500
    3629.71080 
    37277.3086      -999.2500         2.0594       0.657197     -0.0819628 
        1.2976         3.9937       110.0990      -999.2500       0.309100 
     -999.2500         6.4608         6.5863        18.8895        35.1854 
       17.1321      4626.5337       0.233897      -999.2500      -999.2500
    3629.86320 
    36920.6562      -999.2500         2.0656       0.658060     -0.0812854 
        1.3677         4.0443       111.8555      -999.2500       0.313010 
     -999.2500         6.4238         6.5486        18.8548        35.0579 
       17.0189      4803.0005       0.235907      -999.2500      -999.2500
    3630.01560 
    37558.8633      -999.2500         2.0253       0.666850     -0.0809003 
        1.4131         3.9420       106.8392      -999.2500       0.314253 
     -999.2500         6.6424         6.6687        18.6161        35.2862 
       17.0739      4883.1333       0.235813      -999.2500      -999.2500
    3630.16800 
    37444.4922      -999.2500         2.0587       0.676900     -0.0767715 
        1.3306         3.5110       107.0076      -999.2500       0.315070 
     -999.2500         6.6792         6.8488        19.0502        35.2452 
       17.0242      4782.8325       0.238837      -999.2500      -999.2500
    3630.32040 
    37782.1797      -999.2500         2.0768       0.666237     -0.0724770 
        1.3954         3.1479       108.2951      -999.2500       0.310010 
     -999.2500         6.7208         6.8817        18.7037        35.3660 
       17.0009      4705.8667       0.240557      -999.2500      -999.2500
    3630.47280 
    38170.6445      -999.2500         2.0715       0.658660     -0.0779846 
        1.3593         2.9430       109.7353      -999.2500       0.308707 
     -999.2500         6.7007         6.9381        18.5466        35.5051 
       17.0118      4825.5337       0.242040      -999.2500      -999.2500
    3630.62520 
    39399.0977      -999.2500         2.0434       0.665327     -0.0783226 
        1.2352         2.9939       110.5058      -999.2500       0.310327 
     -999.2500         6.5586         6.9104        19.0866        35.9454 
       17.0579      4839.6338       0.245457      -999.2500      -999.2500
    3630.77760 
    41341.5352      -999.2500         2.0686       0.665973     -0.0718459 
        1.2372         2.9387       111.7642      -999.2500       0.312997 
     -999.2500         6.5761         6.9118        18.8453        36.6428 
       17.2047      4768.9170       0.248870      -999.2500      -999.2500
    3630.93000 
    41429.8906      -999.2500         1.9931       0.671617     -0.0742550 
        1.1696         2.4253       109.9062      -999.2500       0.311357 
     -999.2500         6.3376         6.8777        18.9973        36.6743 
       17.1483      4747.9341       0.255523      -999.2500      -999.2500
    3631.08240 
    40874.2461      -999.2500         2.0899       0.678147     -0.0789093 
        1.1039         1.8445       108.6480      -999.2500       0.307633 
     -999.2500         6.6912         6.8728        18.9292        36.4747 
       17.2433      4859.8672       0.255990      -999.2500      -999.2500
    3631.23480 
    41408.8477      -999.2500         2.1255       0.678927     -0.0800127 
        1.1051         1.2588       109.3358      -999.2500       0.306213 
     -999.2500         6.8392         6.9717        19.1468        36.6668 
       17.3800      4921.6001       0.252653      -999.2500      -999.2500
    3631.38720 
    42031.2188      -999.2500         2.0689       0.669693     -0.0808580 
        1.0150         0.7165       106.4579      -999.2500       0.307703 
     -999.2500         6.9099         6.9409        19.4290        36.8905 
       17.3404      4799.2671       0.247337      -999.2500      -999.2500
