~Version Information Block
VERS .                 2.00:  CWLS LOG ASCII STANDARD - VERSION 2.00
WRAP .                   NO:  One line per depth step
~Well Information Block
#MNEM.UNIT        Data Type   Information
#---------- ----------------  -----------
STRT .M          3445.30680:  START DEPTH
STOP .M          3635.80680:  STOP DEPTH
STEP .M             0.15240:  STEP
NULL .              -999.25:  NULL VALUE
COMP .              Statoil:  COMPANY
WELL .          NO_15/9-F-5:  WELL
FLD  .                VOLVE:  FIELD
LOC  .            North Sea:  LOCATION
CTRY .                     :  COUNTRY
STAT .                     :  STATE
CNTY .                     :  COUNTY
SRVC .         Schlumberger:  SERVICE COMPANY
DATE .          16-Sep-2012:  DATE
API  .                     :  API NUMBER
UWI  .             15/9-F-5:  UNIQUE WELL ID
~Curve Information Block
#MNEM.UNIT         API CODE   Curve Description
#---------- ----------------  -----------------
DEPTH.M                    :  DEPTH (BOREHOLE)
CCLC .V                    :  CCL
CCLD .V                    :  CCL Discriminated Amplitude
CRRA .                     :  Near-Far Count Rate Ratio
CS   .F/MN                 :  Cable Speed
CVEL .M/MIN                 :  Cable Velocity
DEVI .DEG                  :  Hole Deviation
FBEF .UA                   :  RST Far Effective Beam Current
FCOR .                     :  RST Far Carbon/Oxygen Ratio
FERD .                     :  RST Far IC Mode Capture Optimization Resolution Degradation Factor
FIRD .                     :  RST Far Inelastic Optimization Resolution Degradation Factor
GR   .GAPI                 :  Gamma Ray
NCOR .                     :  RST Near Carbon/Oxygen Ratio
NERD .                     :  RST Near IC Mode Capture Optimization Resolution Degradation Factor
NIRD .                     :  RST Near Inelastic Optimization Resolution Degradation Factor
RB_PCMS.DEG                  :  Relative Bearing
TENS .LBF                  :  Cable Tension
WPRE .PSI                  :  Well Pressure
WTEP .DEGC                 :  Well Temperature
~Parameter Information Block
#MNEM.UNIT            Value   Description
#---------- ----------------  -----------
APD  .M           54.900002:  Elevation of Depth Reference (LMF) above Permanent Datum
RUN  .                Run 1:  RUN NUMBER
PROJECT.     SLEIPNER_OST@st-vlinapp01:  
SET  .        RSTD_0912_IC1:  
~Other Information Block
# 
~A       DEPTH           CCLC           CCLD           CRRA             CS           CVEL           DEVI           FBEF           FCOR           FERD           FIRD             GR           NCOR           NERD           NIRD        RB_PCMS           TENS           WPRE           WTEP 
# ...
    3582.31440        -0.0007         0.0000         2.9112         1.3510      -0.410800        54.5014       114.8486     0.09300000         4.5485         4.5485        35.9683      -0.024300         2.1432         2.1432         7.3626      2706.2517      5106.4209        83.4632
    3582.46680        -0.0005         0.0000         2.9185         1.3389      -0.406600        54.5038       115.2748    -0.15740000         4.5636         4.5636        36.8306      -0.007300         2.1674         2.1674         7.4890      2711.1836      5106.5713        83.4363
    3582.61920        -0.0020         0.0000         2.9156         1.3327      -0.404200        54.5051       114.9203    -0.16030000         4.5322         4.5322        37.8514       0.023200         2.1556         2.1556         7.5872      2706.6489      5106.6665        83.3993
    3582.77160        -0.0020         0.0000         2.9225         1.3501      -0.408400        54.5070       114.5054    -0.03460000         4.4470         4.4470        39.1533       0.049500         2.1385         2.1385         7.5822      2712.1726      5106.8237        83.3767
    3582.92400        -0.0014         0.0000         2.9183         1.3150      -0.403600        54.5081       115.1340    -0.02600000         4.4012         4.4012        40.7760       0.118900         2.1552         2.1552         7.6321      2713.6550      5106.9043        83.3559
    3583.07640         0.0002         0.0000         2.9388         1.3241      -0.404200        54.5089       114.7848    -0.01360000         4.4038         4.4038        42.8347      -0.091400         2.1919         2.1919         7.7082      2704.1030      5107.0273        83.3203
    3583.22880        -0.0004         0.0000         2.9402         1.3136      -0.397500        54.5094       115.2953    -0.00700000         4.4420         4.4420        45.2626      -0.012200         2.2583         2.2583         7.7590      2698.9622      5107.1465        83.2896
    3583.38120         0.0549         0.0000         2.9539         1.2930      -0.393500        54.5103       116.7263     0.10820000         4.4022         4.4022        46.7739      -0.002400         2.2570         2.2570         7.8563      2697.5862      5107.2637        83.2541
    3583.53360        -0.0372         0.0000         2.9612         1.2884      -0.393600        54.5099       116.6627    -0.08760000         4.4190         4.4190        47.6960       0.075700         2.2507         2.2507         7.9963      2699.9312      5107.3486        83.2237
    3583.68600        -0.0041         0.0000         2.9711         1.3159      -0.398100        54.5034       117.8685    -0.07470000         4.3796         4.3796        48.1126       0.016600         2.2772         2.2772         8.1073      2696.6250      5107.5156        83.2085
    3583.83840        -0.0029         0.0000         2.9914         1.2543      -0.391800        54.4943       116.8164    -0.02340000         4.3002         4.3002        47.3596      -0.018200         2.3191         2.3191         8.3287      2695.7266      5107.5845        83.1684
    3583.99080         0.0688         0.0000         2.9777         1.2759      -0.396400        54.4808       116.1136     0.04410000         4.5323         4.5323        47.5983      -0.028200         2.2889         2.2889         8.4758      2705.0522      5107.7129        83.1332
    3584.14320        -0.0045         0.0000         2.9709         1.3159      -0.402100        54.4739       115.0308     0.01870000         4.5391         4.5391        47.1517      -0.030100         2.3298         2.3298         8.4368      2700.9385      5107.8120        83.1218
    3584.29560        -0.0038         0.0000         2.9499         1.3199      -0.401400        54.4718       113.5101     0.05770000         4.5345         4.5345        47.4553      -0.036700         2.3149         2.3149         8.3766      2703.9736      5107.9233        83.0905
    3584.44800         0.0460         0.0000         2.9022         1.3392      -0.404100        54.4761       114.3468    -0.00650000         4.4392         4.4392        47.0221      -0.054500         2.3199         2.3199         8.3364      2713.7375      5108.0474        83.0496
    3584.60040        -0.0016         0.0000         2.9252         1.3258      -0.401500        54.4763       113.4757    -0.02950000         4.4645         4.4645        47.0150       0.035300         2.2935         2.2935         8.3686      2707.7703      5108.1680        83.0266
    3584.75280        -0.0007         0.0000         2.9384         1.3068      -0.402200        54.4933       112.3916     0.00840000         4.4660         4.4660        44.2280      -0.043800         2.2806         2.2806         8.2703      2715.2288      5108.2700        82.9883
    3584.90520         0.0019         0.0000         2.9303         1.2756      -0.392100        54.5085       111.4664    -0.01840000         4.3585         4.3585        42.2470      -0.070700         2.2530         2.2530         8.2024      2713.8335      5108.3945        82.9608
    3585.05760         0.0954         0.0000         2.9078         1.2835      -0.388900        54.5319       110.8706    -0.00840000         4.4272         4.4272        39.6317      -0.020900         2.3008         2.3008         8.0094      2701.3118      5108.5010        82.9130
    3585.21000         0.0046         0.0000         2.8961         1.2457      -0.383300        54.5524       112.8274     0.02420000         4.3531         4.3531        37.2046       0.050700         2.2850         2.2850         7.8237      2699.1570      5108.6074        82.8823
    3585.36240         0.0028         0.0000         2.8929         1.2500      -0.383300        54.5711       114.0444     0.01670000         4.4165         4.4165        35.0397      -0.093900         2.2394         2.2394         7.7456      2695.9775      5108.7358        82.8522
    3585.51480         0.0040         0.0000         2.9347         1.2375      -0.378900        54.5837       115.0798    -0.00990000         4.3904         4.3904        34.0041       0.034200         2.2608         2.2608         7.5876      2690.8040      5108.8223        82.8134
    3585.66720         0.0060         0.0000         2.9830         1.2497      -0.380500        54.6073       115.0960    -0.12270000         4.3206         4.3206        33.5290       0.007500         2.2319         2.2319         7.5150      2704.9443      5108.9644        82.7961
    3585.81960         0.0062         0.0000         3.0073         1.2884      -0.390000        54.6121       115.9052     0.08720000         4.1907         4.1907        34.4049      -0.028100         2.2252         2.2252         7.6006      2700.5369      5109.0728        82.7568
    3585.97200         0.0610         0.0000         3.0017         1.2539      -0.383300        54.6108       116.2561    -0.03110000         4.2690         4.2690        34.7169      -0.020900         2.2038         2.2038         7.6527      2703.1560      5109.1855        82.7119
    3586.12440         0.0284         0.0000         3.0073         1.2379      -0.378000        54.6050       116.2347    -0.03110000         4.3087         4.3087        34.2671      -0.032200         2.2638         2.2638         7.7839      2707.2817      5109.2793        82.6676
    3586.27680         0.0103         0.0000         3.0190         1.2844      -0.385600        54.5925       114.8736    -0.05310000         4.3504         4.3504        34.0056       0.072700         2.2712         2.2712         7.8480      2702.6489      5109.4648        82.6416
    3586.42920         0.0103         0.0000         2.9819         1.2539      -0.384300        54.5789       112.2830     0.12690000         4.3779         4.3779        33.3052      -0.059100         2.2874         2.2874         7.8803      2706.7500      5109.5391        82.5975
    3586.58160         0.0125         0.0000         2.9553         1.2749      -0.386700        54.5613       109.1494    -0.07530000         4.3831         4.3831        31.3392      -0.092200         2.2938         2.2938         7.8487      2707.0339      5109.6382        82.5690
