~Version Information Block
VERS .                 2.00:  CWLS LOG ASCII STANDARD - VERSION 2.00
WRAP .                   NO:  One line per depth step
~Well Information Block
#MNEM.UNIT        Data Type   Information
#---------- ----------------  -----------
STRT .M          3230.11800:  START DEPTH
STOP .M          3389.98560:  STOP DEPTH
STEP .M             0.15240:  STEP
NULL .              -999.25:  NULL VALUE
COMP .              Statoil:  COMPANY
WELL .          NO_15/9-F-4:  WELL
FLD  .                VOLVE:  FIELD
LOC  .            North Sea:  LOCATION
CTRY .                     :  COUNTRY
STAT .                     :  STATE
CNTY .                     :  COUNTY
SRVC .         Schlumberger:  SERVICE COMPANY
DATE .          13-Sep-2012:  DATE
API  .                     :  API NUMBER
UWI  .             15/9-F-4:  UNIQUE WELL ID
~Curve Information Block
#MNEM.UNIT         API CODE   Curve Description
#---------- ----------------  -----------------
DEPTH.M                    :  DEPTH (BOREHOLE)
CCLC .V                    :  CCL
CCLD .V                    :  CCL Discriminated Amplitude
CRRA .                     :  Near-Far Count Rate Ratio
CS   .F/MN                 :  Cable Speed
CVEL .M/MIN                 :  Cable Velocity
FBEF .UA                   :  RST Far Effective Beam Current
FCOR .                     :  RST Far Carbon/Oxygen Ratio
FERD .                     :  RST Far IC Mode Capture Optimization Resolution Degradation Factor
FIRD .                     :  RST Far Inelastic Optimization Resolution Degradation Factor
GR   .GAPI                 :  Gamma Ray
NCOR .                     :  RST Near Carbon/Oxygen Ratio
NERD .                     :  RST Near IC Mode Capture Optimization Resolution Degradation Factor
NIRD .                     :  RST Near Inelastic Optimization Resolution Degradation Factor
RB_PCMS.DEG                  :  Relative Bearing
TENS .LBF                  :  Cable Tension
WTEP .DEGC                 :  Well Temperature
WTPE .MS                   :  Well Temperature Period
~Parameter Information Block
#MNEM.UNIT            Value   Description
#---------- ----------------  -----------
APD  .M                  54:  Elevation of Depth Reference (LMF) above Permanent Datum
RUN  .                    1:  RUN NUMBER
PROJECT.     SLEIPNER_OST@st-vlinapp01:  
SET  .        RSTD_0912_IC3:  
~Other Information Block
# 
~A       DEPTH           CCLC           CCLD           CRRA             CS           CVEL           FBEF           FCOR           FERD           FIRD             GR           NCOR           NERD           NIRD        RB_PCMS           TENS           WTEP           WTPE 
# ...
    3344.41800        -0.0122         0.0000         2.9464         1.8484       -0.56340       113.0933        -0.0836         5.1030         5.1030        30.1594       0.011100         2.4129         2.4129       356.4128      2314.0615        84.8531         3.9256
    3344.57040        -0.0142         0.0000         2.8828         1.8507       -0.56410       111.6223        -0.1820         5.1085         5.1085        30.4336       0.102600         2.4458         2.4458       356.1949      2303.8972        84.8327         3.9254
    3344.72280        -0.0117         0.0000         2.8645         1.8363       -0.55970       112.4816         0.0714         5.1681         5.1681        31.3068       0.034400         2.4473         2.4473       356.0685      2325.8572        84.8170         3.9253
    3344.87520        -0.0056         0.0000         2.8874         1.8504       -0.56400       112.1882        -0.0729         5.1831         5.1831        31.4771      -0.034700         2.4669         2.4669       356.0168      2319.2964        84.8020         3.9252
    3345.02760        -0.0062         0.0000         2.8756         1.8248       -0.55620       112.7065         0.0213         5.2050         5.2050        31.4861      -0.013200         2.4143         2.4143       356.0042      2318.0244        84.7794         3.9250
    3345.18000        -0.0075         0.0000         2.8948         1.8379       -0.56020       111.2967        -0.2214         5.3091         5.3091        31.5845      -0.115400         2.3975         2.3975       356.1222      2309.8130        84.7465         3.9247
    3345.33240        -0.0080         0.0000         2.8641         1.8340       -0.55900       110.7907         0.0082         5.3237         5.3237        30.8831       0.060400         2.4181         2.4181       356.1329      2325.8770        84.7416         3.9246
    3345.48480        -0.0104         0.0000         2.8493         1.8350       -0.55930       111.7989         0.1154         5.3117         5.3117        29.8177       0.043400         2.3880         2.3880       356.1700      2319.1748        84.7042         3.9243
    3345.63720         0.3252         0.0000         2.8658         1.8186       -0.55430       111.7638         0.0923         5.3390         5.3390        29.9863       0.078400         2.3814         2.3814       356.2155      2319.2512        84.7039         3.9243
    3345.78960        -0.0089         0.0000         2.8802         1.9337       -0.58940       111.0025        -0.0007         5.2353         5.2353        30.5889       0.023400         2.3833         2.3833       356.1364      2314.7424        84.6880         3.9242
    3345.94200        -0.0102         0.0000         2.8516         1.9049       -0.58060       111.7105        -0.1912         5.2585         5.2585        30.5766      -0.016700         2.3894         2.3894       356.0223      2313.4600        84.6611         3.9239
    3346.09440         0.2209         0.0000         2.8652         1.9094       -0.58200       112.0651         0.0154         5.2916         5.2916        30.5869       0.027900         2.3869         2.3869       356.0303      2318.9658        84.6526         3.9238
    3346.24680        -0.0085         0.0000         2.8693         1.9108       -0.58240       111.3938         0.1455         5.2429         5.2429        30.8186      -0.059100         2.3916         2.3916       356.0035      2314.2668        84.6356         3.9237
    3346.39920        -0.0039         0.0000         2.8693         1.8976       -0.57840       111.8565        -0.0192         5.3999         5.3999        31.2054       0.052100         2.4698         2.4698       355.9419      2315.7805        84.6111         3.9235
    3346.55160        -0.0092         0.0000         2.8692         1.9147       -0.58360       111.5959        -0.0665         5.2832         5.2832        31.2650       0.044800         2.3778         2.3778       355.9230      2324.8979        84.6008         3.9234
    3346.70400        -0.0022         0.0000         2.8617         1.9032       -0.58010       111.5356         0.0619         5.3958         5.3958        30.8226      -0.057500         2.3524         2.3524       355.6616      2327.2756        84.5886         3.9233
    3346.85640        -0.0056         0.0000         2.8656         1.9108       -0.58240       111.1429         0.0064         5.3141         5.3141        29.8542      -0.068300         2.3291         2.3291       355.6255      2318.2627        84.5616         3.9230
    3347.00880         0.0969         0.0000         2.8643         1.9029       -0.58000       112.4790        -0.0608         5.3496         5.3496        29.5806      -0.047500         2.3522         2.3522       355.5591      2311.0845        84.5468         3.9229
    3347.16120         0.0177         0.0000         2.8870         1.9173       -0.58440       110.7653        -0.0109         5.2880         5.2880        28.2300      -0.038100         2.3797         2.3797       355.5423      2321.9146        84.5409         3.9229
    3347.31360        -0.0146         0.0000         2.8509         1.9108       -0.58240       111.1401         0.0708         5.1955         5.1955        28.0636       0.003700         2.3517         2.3517       355.5273      2317.7405        84.5187         3.9227
    3347.46600         0.1285         0.0000         2.8604         1.9150       -0.58370       112.2882        -0.0400         5.1992         5.1992        27.5846      -0.028900         2.3843         2.3843       355.5006      2317.6809        84.5049         3.9225
    3347.61840         0.1431         0.0000         2.8983         1.9150       -0.58370       110.7412        -0.1058         5.2732         5.2732        28.9831       0.073900         2.3681         2.3681       355.6164      2310.4297        84.4980         3.9225
    3347.77080        -0.0066         0.0000         2.8573         1.9272       -0.58740       111.9422         0.1598         5.2117         5.2117        28.5831      -0.029600         2.2932         2.2932       355.6320      2313.9700        84.4765         3.9223
    3347.92320        -0.0091         0.0000         2.8806         1.9288       -0.58790       110.9364         0.0207         5.3525         5.3525        29.6297      -0.014200         2.3215         2.3215       355.6278      2322.6826        84.4709         3.9222
    3348.07560        -0.0093         0.0000         2.8555         1.9432       -0.59230       111.1755        -0.1398         5.3474         5.3474        29.1825      -0.028300         2.3139         2.3139       355.5922      2315.8147        84.4598         3.9221
    3348.22800        -0.0057         0.0000         2.8528         1.9357       -0.59000       111.0823         0.0141         5.3802         5.3802        29.6817       0.110200         2.3297         2.3297       355.6755      2317.3406        84.4491         3.9220
    3348.38040        -0.0063         0.0000         2.8442         1.9226       -0.58600       110.6466        -0.0469         5.4126         5.4126        29.8049      -0.025200         2.3380         2.3380       355.7411      2310.6223        84.4268         3.9218
    3348.53280        -0.0032         0.0000         2.8387         1.9160       -0.58400       111.0781         0.0173         5.4285         5.4285        30.0019      -0.093400         2.3528         2.3528       355.7775      2313.9619        84.4197         3.9218
    3348.68520        -0.1280         0.0000         2.8422         1.9308       -0.58850       111.1887         0.1206         5.3848         5.3848        29.0527      -0.069300         2.3490         2.3490       355.6914      2303.5066        84.4068         3.9217
    3348.83760        -0.0077         0.0000         2.8401         1.9327       -0.58910       110.8266         0.1281         5.3992         5.3992        29.0613      -0.073100         2.3536         2.3536       355.7430      2312.3262        84.3956         3.9216
