~Version Information Block
VERS .                 2.00:  CWLS LOG ASCII STANDARD - VERSION 2.00
WRAP .                   NO:  One line per depth step
~Well Information Block
#MNEM.UNIT        Data Type   Information
#---------- ----------------  -----------
STRT .M          3445.30680:  START DEPTH
STOP .M          3639.15960:  STOP DEPTH
STEP .M             0.15240:  STEP
NULL .              -999.25:  NULL VALUE
COMP .              Statoil:  COMPANY
WELL .          NO_15/9-F-5:  WELL
FLD  .                VOLVE:  FIELD
LOC  .            North Sea:  LOCATION
CTRY .                     :  COUNTRY
STAT .                     :  STATE
CNTY .                     :  COUNTY
SRVC .         Schlumberger:  SERVICE COMPANY
DATE .          16-Sep-2012:  DATE
API  .                     :  API NUMBER
UWI  .             15/9-F-5:  UNIQUE WELL ID
~Curve Information Block
#MNEM.UNIT         API CODE   Curve Description
#---------- ----------------  -----------------
DEPTH.M                    :  DEPTH (BOREHOLE)
CCLC .V                    :  CCL
CRRA .                     :  Near-Far Count Rate Ratio
CVEL .M/MIN                 :  Cable Velocity
FBEF .UA                   :  RST Far Effective Beam Current
FCOR .                     :  RST Far Carbon/Oxygen Ratio
FERD .                     :  RST Far IC Mode Capture Optimization Resolution Degradation Factor
FIRD .                     :  RST Far Inelastic Optimization Resolution Degradation Factor
GR   .GAPI                 :  Gamma Ray
NCOR .                     :  RST Near Carbon/Oxygen Ratio
NERD .                     :  RST Near IC Mode Capture Optimization Resolution Degradation Factor
NIRD .                     :  RST Near Inelastic Optimization Resolution Degradation Factor
RB_PCMS.DEG                  :  Relative Bearing
TENS .LBF                  :  Cable Tension
~Parameter Information Block
#MNEM.UNIT            Value   Description
#---------- ----------------  -----------
APD  .M           54.900002:  Elevation of Depth Reference (LMF) above Permanent Datum
RUN  .                Run 1:  RUN NUMBER
PROJECT.     SLEIPNER_OST@st-vlinapp01:  
SET  .        RSTD_0912_IC3:  
~Other Information Block
# 
~A       DEPTH           CCLC           CRRA           CVEL           FBEF           FCOR           FERD           FIRD             GR           NCOR           NERD           NIRD        RB_PCMS           TENS 
# ...
    3522.57360        -0.0068         2.8452       -0.39450       112.5778     0.02630000         4.8543         4.8543        30.3834      -0.062000         2.4641         2.4641         7.4512      2825.4885
    3522.72600        -0.0078         2.8360       -0.39520       112.2030     0.05050000         4.9284         4.9284        30.0553       0.083400         2.4000         2.4000         7.4068      2815.2852
    3522.87840         0.0002         2.8228       -0.39570       112.7685    -0.13869999         4.9818         4.9818        29.6068       0.007900         2.4180         2.4180         7.4631      2813.5764
    3523.03080         0.0001         2.8381       -0.39600       112.6605    -0.00490000         5.1095         5.1095        29.2435       0.019500         2.5042         2.5042         7.6805      2815.8093
    3523.18320         0.0008         2.8465       -0.39960       112.6798    -0.12290000         5.0615         5.0615        29.3862      -0.032400         2.4503         2.4503         7.9284      2811.2566
    3523.33560         0.0025         2.8365       -0.39830       112.5527     0.11710000         5.0418         5.0418        29.7535      -0.016100         2.4168         2.4168         8.0139      2817.1831
    3523.48800        -0.0027         2.8284       -0.40510       113.1766     0.05250000         5.0669         5.0669        29.8891       0.050900         2.4053         2.4053         7.9758      2826.2302
    3523.64040        -0.0028         2.8453       -0.40540       112.5807    -0.00710000         5.2757         5.2757        29.9055      -0.094800         2.4922         2.4922         8.0122      2824.0474
    3523.79280        -0.0142         2.8121       -0.41130       113.9942    -0.01170000         5.1953         5.1953        29.9778       0.070100         2.5419         2.5419         8.0142      2821.4656
    3523.94520        -0.0056         2.8630       -0.41580       113.1277    -0.05320000         5.2247         5.2247        29.5588      -0.028500         2.5516         2.5516         8.1595      2811.9275
    3524.09760        -0.0085         2.8254       -0.41960       112.5077     0.02900000         5.3383         5.3383        29.5414      -0.016000         2.5695         2.5695         8.2540      2818.5000
    3524.25000        -0.0104         2.8466       -0.41710       112.9602     0.11930000         5.3903         5.3903        29.9312      -0.067100         2.5963         2.5963         8.1790      2826.4060
    3524.40240        -0.0071         2.8407       -0.41080       113.4048    -0.08980000         5.3233         5.3233        30.1356      -0.024600         2.6424         2.6424         8.1341      2814.7217
    3524.55480        -0.0114         2.8338       -0.42130       113.6533    -0.02000000         5.3445         5.3445        30.3580       0.038000         2.6620         2.6620         8.0766      2811.6174
    3524.70720         0.0448         2.8375       -0.40880       114.3288    -0.01330000         5.3076         5.3076        30.3867      -0.024500         2.6726         2.6726         8.0298      2812.9407
    3524.85960        -0.0070         2.8573       -0.41660       113.2525    -0.06560000         5.3127         5.3127        29.6990      -0.035300         2.6628         2.6628         8.0765      2817.5806
    3525.01200        -0.0109         2.8257       -0.40680       113.7807     0.00390000         5.3460         5.3460        29.3243       0.034600         2.6789         2.6789         8.2042      2820.2263
    3525.16440        -0.0040         2.8415       -0.40640       114.1162    -0.16910000         5.3074         5.3074        29.5005      -0.049200         2.7341         2.7341         8.1350      2823.9202
    3525.31680        -0.0039         2.8537       -0.40480       113.9202    -0.02120000         5.4309         5.4309        29.9930       0.040800         2.7416         2.7416         8.1396      2824.4043
    3525.46920        -0.0460         2.8710       -0.40820       113.3121    -0.03320000         5.3621         5.3621        30.3468       0.035200         2.8088         2.8088         8.0827      2814.3782
    3525.62160         0.1608         2.8494       -0.40790       113.4565    -0.05360000         5.3723         5.3723        30.7549      -0.050600         2.7754         2.7754         8.0081      2811.2678
    3525.77400         0.1633         2.8508       -0.40910       112.8499    -0.14760000         5.3387         5.3387        31.0079      -0.082500         2.7784         2.7784         8.1751      2816.5105
    3525.92640         0.0005         2.8627       -0.41250       113.4365     0.03660000         5.5541         5.5541        31.0639       0.001500         2.7704         2.7704         8.2393      2818.1863
    3526.07880        -0.1050         2.9049       -0.42200       114.2456     0.08970000         5.6115         5.6115        30.5316       0.002200         2.7823         2.7823         8.2243      2814.8093
    3526.23120         0.0567         2.9120       -0.42000       114.0268    -0.16900000         5.6033         5.6033        30.2594      -0.067000         2.7473         2.7473         8.1626      2818.7371
    3526.38360         0.0010         2.9007       -0.42290       113.8979    -0.11900000         5.5365         5.5365        30.6204      -0.025700         2.8023         2.8023         8.0795      2807.7263
    3526.53600         0.0040         2.8875       -0.41800       112.9963     0.05980000         5.5004         5.5004        30.6938       0.010900         2.8259         2.8259         8.0517      2811.8384
    3526.68840         0.0053         2.8457       -0.41620       112.6030     0.06660000         5.4293         5.4293        30.4867      -0.020400         2.7732         2.7732         8.0452      2821.1521
    3526.84080         0.0064         2.8459       -0.41720       112.1466     0.09700000         5.3464         5.3464        30.7933      -0.030900         2.7456         2.7456         7.9103      2823.2744
    3526.99320         0.0040         2.8388       -0.41980       112.6873    -0.21699999         5.4532         5.4532        30.5832       0.025400         2.7224         2.7224         8.0174      2821.2295
    3527.14560         0.0058         2.8611       -0.42200       113.1231    -0.03690000         5.4765         5.4765        30.3016      -0.016200         2.7421         2.7421         8.3071      2816.7786
    3527.29800         0.0062         2.8544       -0.42040       114.3800    -0.02290000         5.3691         5.3691        30.4473       0.018100         2.6999         2.6999         8.3180      2813.8284
    3527.45040         0.0072         2.9015       -0.41640       112.7827     0.01910000         5.3288         5.3288        30.0606       0.016100         2.6663         2.6663         8.3554      2817.1003
    3527.60280         0.0097         2.8658       -0.41860       113.3747     0.13300000         5.3748         5.3748        29.9912      -0.039100         2.6196         2.6196         8.4125      2820.6838
    3527.75520         0.0148         2.9049       -0.42650       116.0310    -0.00030000         5.3941         5.3941        30.3636       0.041900         2.5999         2.5999         8.4141      2814.7383
    3527.90760         0.0228         3.0485       -0.42490       117.4304    -0.05250000         5.4299         5.4299        30.6001       0.015900         2.5251         2.5251         8.2955      2817.6677
    3528.06000        -0.3920         3.1035       -0.42110       117.5735    -0.15560000         5.5060         5.5060        30.7098       0.019300         2.4922         2.4922         8.1125      2812.3589
    3528.21240         0.0364         3.0079       -0.42450       112.3386    -0.00290000         5.4474         5.4474        30.7691       0.003600         2.5260         2.5260         8.0877      2807.9971
    3528.36480        -0.0066         2.8533       -0.42070       111.1127    -0.04600000         5.3373         5.3373        31.3655       0.013500         2.4987         2.4987         8.0993      2822.1409
