~Version Information Block
VERS .                 2.00:  CWLS LOG ASCII STANDARD - VERSION 2.00
WRAP .                   NO:  One line per depth step
~Well Information Block
#MNEM.UNIT        Data Type   Information
#---------- ----------------  -----------
STRT .M          3457.23500:  START DEPTH
STOP .M          3635.08580:  STOP DEPTH
STEP .M             0.15240:  STEP
NULL .              -999.25:  NULL VALUE
COMP .                     :  COMPANY
WELL .          NO_15/9-F-5:  WELL
FLD  .                     :  FIELD
LOC  .                     :  LOCATION
CTRY .                     :  COUNTRY
STAT .                     :  STATE
CNTY .                     :  COUNTY
SRVC .                     :  SERVICE COMPANY
DATE .                     :  DATE
API  .                     :  API NUMBER
UWI  .                     :  UNIQUE WELL ID
~Curve Information Block
#MNEM.UNIT         API CODE   Curve Description
#---------- ----------------  -----------------
DEPTH.M                    :  
SAT201IC_BHOF.                     :  
SAT201IC_BVW.                     :  
SAT201IC_CRRA.                     :  Near-Far Count Rate Ratio
SAT201IC_FBEF.UA                   :  RST Far Effective Beam Current
SAT201IC_FCOR.                     :  
SAT201IC_GR.GAPI                 :  Gamma Ray
SAT201IC_NCOR.                     :  
SAT201IC_SO.                     :  
SAT201IC_SW.                     :  
SAT201IC_WPRE.PSI                  :  Well Pressure
SAT201IC_WTEP.DEGC                 :  Well Temperature
SAT201SI_BSAL.PPM                  :  Borehole Salinity
SAT201SI_GR.GAPI                 :  Gamma Ray
SAT201SI_IRAT.                     :  RST Inelastic Ratio
SAT201SI_RSCF.                     :  RST Far Detector Effective Unregulated Capture Count Rate
SAT201SI_RSCN.                     :  RST Near Detector Effective Unregulated Capture Count Rate
SAT201SI_SIGR.CU                   :  Formation Sigma (Neutron Capture Cross Section)
SAT201SI_TPHI.V/V                  :  Thermal Decay Porosity
~Parameter Information Block
#MNEM.UNIT            Value   Description
#---------- ----------------  -----------
CUR_INT_BOT.M           3635.2382:  
PROJECT.     SLEIPNER_OST@st-vlinapp01:  
SET  .            RSTD_0912:  
~Other Information Block
# 
~A       DEPTH  SAT201IC_BHOF   SAT201IC_BVW  SAT201IC_CRRA  SAT201IC_FBEF  SAT201IC_FCOR    SAT201IC_GR  SAT201IC_NCOR    SAT201IC_SO    SAT201IC_SW  SAT201IC_WPRE  SAT201IC_WTEP  SAT201SI_BSAL    SAT201SI_GR  SAT201SI_IRAT  SAT201SI_RSCF  SAT201SI_RSCN  SAT201SI_SIGR  SAT201SI_TPHI 
# ...
    3594.24260     -0.0083500       0.000000         2.7886       107.0741      0.0050400        48.0606      0.0240500       0.077700         0.0000      5114.4287        79.5025     38736.1992        29.8391       0.332600         9.7441         8.6308        15.7778       0.172400
    3594.39500     -0.0077000       0.005660         2.8125       108.8596      0.0121600        50.0028      0.0217000       0.097500         0.0481      5114.5503        79.3720     39741.6016        31.9568       0.332800         9.2923         8.5853        16.2210       0.183500
    3594.54740     -0.0064900       0.031250         2.8550       108.9872      0.0195200        51.2273      0.0218100       0.118300         0.2637      5114.6489        79.2569     40097.0977        33.9224       0.332200         8.5600         8.1311        16.4456       0.191000
    3594.69980     -0.0043900       0.049990         2.8420       110.1782      0.0167200        52.4810      0.0133300       0.108700         0.4121      5114.7920        79.1320     39620.6016        33.7449       0.332900         9.4084         8.7901        16.7781       0.193800
    3594.85220     -0.0020300       0.064360         2.8734       110.7551      0.0062400        53.1878      0.0117600       0.075500         0.4868      5114.9155        79.0012     40032.5000        33.9224       0.332900         9.2506         8.6713        16.8497       0.191600
    3595.00460     -0.0010800       0.059410         2.8893       109.8529      0.0074200        52.8574      0.0174200       0.077900         0.4347      5115.0498        78.8694     40325.6992        34.8989       0.330100         9.2407         8.7319        16.6566       0.187200
    3595.15700     -0.0008200       0.044410         2.8788       110.1632      0.0007200        51.4711      0.0198400       0.058700         0.3356      5115.1533        78.7495     40816.3984        32.8730       0.328100         9.9010         8.9711        16.4944       0.178400
    3595.30940     -0.0004400       0.018050         2.8879       108.9271     -0.0086500        50.2734      0.0242000       0.031800         0.1687      5115.2852        78.5674     40999.1016        30.5524       0.329400         9.9877         9.2737        15.9998       0.168800
    3595.46180     -0.0005700       0.001070         2.8643       106.8771      0.0109200        49.3137      0.0260500       0.108200         0.0103      5115.4058        78.4987     40434.3008        29.8422       0.338600        10.3946         9.0673        15.5896       0.162300
    3595.61420     -0.0016300       0.000000         2.8519       104.4004      0.0309600        48.4471      0.0244200       0.185800         0.0000      5115.4971        78.3406     41375.0977        28.7770       0.343700        10.3815         8.9042        15.0766       0.163400
    3595.76660     -0.0020300       0.000000         2.7687       104.4918      0.0344800        47.3230      0.0261900       0.200700         0.0000      5115.6260        78.2637     41814.3984        25.5306       0.349400        10.4246         9.2356        14.8678       0.171100
    3595.91900     -0.0024000       0.000000         2.7651       105.2989      0.0402800        46.7854      0.0246200       0.203500         0.0000      5115.7251        78.0664     41427.3984        24.8993       0.341800         9.9629         8.9947        15.0004       0.180300
    3596.07140     -0.0027400       0.000000         2.7770       106.6661      0.0437100        47.0533      0.0135000       0.188300         0.0000      5115.8940        77.9728     41145.6992        25.1973       0.335400         9.7947         9.0920        14.9811       0.187500
    3596.22380     -0.0024200       0.000000         2.7973       107.5463      0.0292100        47.9078      0.0118100       0.142000         0.0000      5115.9795        77.8225     41093.6016        24.6647       0.327400        10.2850         9.3471        15.1587       0.189000
    3596.37620     -0.0018600       0.000000         2.7952       107.9712      0.0344900        48.1296      0.0091100       0.156000         0.0000      5116.1025        77.6894     41390.2031        24.2208       0.326400         9.8907         9.1056        15.1124       0.184800
    3596.52860     -0.0033900       0.000000         2.8178       107.9714      0.0397500        48.2162      0.0048900       0.173400         0.0000      5116.2256        77.5458     40758.0000        26.8458       0.334300         9.8636         8.6721        15.2703       0.178500
    3596.68100     -0.0049500       0.000000         2.8158       107.4311      0.0297900        48.4626      0.0067200       0.154800         0.0000      5116.3506        77.4405     40744.0000        26.9287       0.339000         9.7825         8.6094        15.0283       0.174100
    3596.83340     -0.0062400       0.000000         2.8121       106.8398      0.0260300        46.8834      0.0107300       0.164000         0.0000      5116.4731        77.2519     40720.0000        26.3771       0.338600        10.4113         9.4426        15.0258       0.168000
    3596.98580     -0.0069600       0.000000         2.8101       105.9051      0.0259100        45.2016      0.0137200       0.168400         0.0000      5116.6040        77.0689     40242.5977        27.2648       0.336400        10.6068         9.1774        14.5511       0.163600
    3597.13820   -999.2500000    -999.250000         2.8148       105.2598      0.0231300        44.7211      0.0186100    -999.250000      -999.2500      5116.7412        76.9139     40092.3984        26.2883       0.337400        11.0165         9.1623        14.2576       0.151400
    3597.29060   -999.2500000    -999.250000         2.8146       104.5180      0.0308000        43.5109      0.0217100    -999.250000      -999.2500      5116.8525        76.7993     39439.0977        24.7792       0.342900        11.3795         9.7651        13.8496       0.144200
    3597.44300   -999.2500000    -999.250000         2.8126       103.8825      0.0443100        42.1449      0.0230000    -999.250000      -999.2500      5116.9731        76.6352     39405.3008        22.8263       0.345000        11.8385         9.1403        13.7512       0.134300
    3597.59540   -999.2500000    -999.250000         2.8302       103.0743      0.0468100        41.7876      0.0210800    -999.250000      -999.2500      5117.1157        76.5424     38860.1016        21.4472       0.345900        11.1824         9.2894        13.6782       0.135200
    3597.74780   -999.2500000    -999.250000         2.8251       102.0100      0.0500400        41.5115      0.0174700    -999.250000      -999.2500      5117.2373        76.3469     39242.1016        21.0034       0.345700        10.4873         8.8907        13.3377       0.136700
    3597.90020   -999.2500000    -999.250000         2.7761       102.4269      0.0419800        40.4932      0.0199200    -999.250000      -999.2500      5117.3618        76.1998     38239.6016        21.4472       0.346800        11.3276         9.1918        13.2600       0.140500
    3598.05260   -999.2500000    -999.250000         2.7455       103.7934      0.0222700        40.7362      0.0221300    -999.250000      -999.2500      5117.4976        76.0765     37951.0977        21.8911       0.334400        11.2584         9.3424        13.4043       0.145200
    3598.20500   -999.2500000    -999.250000         2.7504       106.2939      0.0081500        40.6204      0.0172400    -999.250000      -999.2500      5117.6191        75.9029     37838.9023        24.0247       0.331100        10.8909         9.3481        13.9067       0.151800
    3598.35740     -0.0138600       0.000000         2.7831       108.7124      0.0179600        40.8169      0.0186600       0.111000         0.0000      5117.7710        75.6978     37926.8984        25.3023       0.327300         9.9961         8.7173        14.2405       0.163100
    3598.50980     -0.0152100       0.043240         2.8078       110.5000      0.0144000        40.5850      0.0189000       0.098300         0.2514      5117.9009        75.5570     37754.1016        25.5686       0.332100        10.0911         9.0713        14.0978       0.170600
