~Version Information Block
VERS .                 2.00:  CWLS LOG ASCII STANDARD - VERSION 2.00
WRAP .                   NO:  One line per depth step
~Well Information Block
#MNEM.UNIT        Data Type   Information
#---------- ----------------  -----------
STRT .M          3457.23500:  START DEPTH
STOP .M          3635.08580:  STOP DEPTH
STEP .M             0.15240:  STEP
NULL .              -999.25:  NULL VALUE
COMP .                     :  COMPANY
WELL .          NO_15/9-F-5:  WELL
FLD  .                     :  FIELD
LOC  .                     :  LOCATION
CTRY .                     :  COUNTRY
STAT .                     :  STATE
CNTY .                     :  COUNTY
SRVC .                     :  SERVICE COMPANY
DATE .                     :  DATE
API  .                     :  API NUMBER
UWI  .                     :  UNIQUE WELL ID
~Curve Information Block
#MNEM.UNIT         API CODE   Curve Description
#---------- ----------------  -----------------
DEPTH.M                    :  
SAT201IC_BHOF.                     :  
SAT201IC_BVW.                     :  
SAT201IC_CRRA.                     :  Near-Far Count Rate Ratio
SAT201IC_FBEF.UA                   :  RST Far Effective Beam Current
SAT201IC_FCOR.                     :  
SAT201IC_GR.GAPI                 :  Gamma Ray
SAT201IC_NCOR.                     :  
SAT201IC_SO.                     :  
SAT201IC_SW.                     :  
SAT201IC_WPRE.PSI                  :  Well Pressure
SAT201IC_WTEP.DEGC                 :  Well Temperature
SAT201SI_BSAL.PPM                  :  Borehole Salinity
SAT201SI_GR.GAPI                 :  Gamma Ray
SAT201SI_IRAT.                     :  RST Inelastic Ratio
SAT201SI_RSCF.                     :  RST Far Detector Effective Unregulated Capture Count Rate
SAT201SI_RSCN.                     :  RST Near Detector Effective Unregulated Capture Count Rate
SAT201SI_SIGR.CU                   :  Formation Sigma (Neutron Capture Cross Section)
SAT201SI_TPHI.V/V                  :  Thermal Decay Porosity
~Parameter Information Block
#MNEM.UNIT            Value   Description
#---------- ----------------  -----------
CUR_INT_BOT.M           3635.2382:  
PROJECT.     SLEIPNER_OST@st-vlinapp01:  
SET  .            RSTD_0912:  
~Other Information Block
# 
~A       DEPTH  SAT201IC_BHOF   SAT201IC_BVW  SAT201IC_CRRA  SAT201IC_FBEF  SAT201IC_FCOR    SAT201IC_GR  SAT201IC_NCOR    SAT201IC_SO    SAT201IC_SW  SAT201IC_WPRE  SAT201IC_WTEP  SAT201SI_BSAL    SAT201SI_GR  SAT201SI_IRAT  SAT201SI_RSCF  SAT201SI_RSCN  SAT201SI_SIGR  SAT201SI_TPHI 
# ...
    3550.04660     -0.0013900       0.099100         2.9044       111.3324      0.0343600        47.1837     -0.0050300       0.138200         0.4643      5079.0942        88.4691     31167.6992        24.5545       0.318700        10.1190         9.7957        14.9412       0.167800
    3550.19900     -0.0013600       0.112990         2.9022       109.6163      0.0229500        46.5482     -0.0036400       0.109200         0.5176      5079.2036        88.4538     31285.6992        25.0527       0.318700        10.5163         9.6618        14.4013       0.162600
    3550.35140     -0.0019700       0.138020         2.8607       108.1285      0.0096900        45.7000     -0.0097800       0.075600         0.6334      5079.3506        88.4269     30817.4004        26.3814       0.320900        11.9541        10.5303        13.8920       0.157800
    3550.50380     -0.0026100       0.160460         2.8234       107.2673      0.0070500        45.1910     -0.0088300       0.069500         0.7599      5079.5083        88.4017     30957.7012        27.2948       0.324200        12.0330        10.7884        13.4588       0.157100
    3550.65620     -0.0028700       0.183770         2.7967       106.2789      0.0059600        43.4467     -0.0050700       0.067500         0.9094      5079.6357        88.3729     31448.6992        25.6158       0.326800        12.0955        10.4399        13.2795       0.156000
    3550.80860     -0.0026500       0.192170         2.7872       106.5799     -0.0120900        43.9558     -0.0025000       0.018400         0.9947      5079.7588        88.3606     31852.0000        25.5588       0.328600        11.8176        10.1441        13.3524       0.156300
    3550.96100     -0.0017400       0.192130         2.7906       107.2666     -0.0246000        45.6995     -0.0000500      -0.017800         1.0000      5079.8838        88.3245     32380.0996        26.8044       0.330500        12.2311        10.6505        13.5597       0.157300
    3551.11340      0.0000900       0.202100         2.7890       107.8258     -0.0360100        46.9788      0.0049700      -0.052000         1.0000      5080.0352        88.3002     32022.8008        27.7178       0.331200        11.5303        10.2044        14.0231       0.159700
    3551.26580      0.0019600       0.212440         2.8092       109.1203     -0.0471900        48.2689     -0.0007200      -0.086000         1.0000      5080.1553        88.2777     32021.9004        27.7178       0.330400        10.8959        10.0370        14.3031       0.163700
    3551.41820      0.0026700       0.223350         2.8207       110.6206     -0.0477000        48.6488     -0.0020500      -0.087100         1.0000      5080.2812        88.2506     31336.2012        29.7290       0.321800        10.8152         9.9783        14.5899       0.167800
    3551.57060      0.0027300       0.231040         2.9162       113.0114     -0.0365800        46.5566      0.0033800      -0.053700         1.0000      5080.4146        88.2307     31187.2012        28.8958       0.313800        10.8257        10.1313        14.7350       0.177400
    3551.72300      0.0029100       0.208530         3.0313       114.7582     -0.0194100        44.5693      0.0043900      -0.004900         0.9044      5080.5488        88.2107     31021.9004        26.3215       0.311000        10.1374         9.6604        14.8617       0.188800
    3551.87540      0.0023500       0.188990         3.0694       112.9952     -0.0139700        44.1963      0.0000500       0.010400         0.8274      5080.6772        88.1792     30808.5000        25.1534       0.318400         9.6561         9.5476        15.0241       0.200200
    3552.02780      0.0015700       0.170830         2.9571       109.9171     -0.0121800        42.9778      0.0020300       0.015700         0.7698      5080.8223        88.1717     30901.6992        24.1621       0.322100        10.1771         9.7649        15.1436       0.202000
    3552.18020      0.0010300       0.161680         2.8465       110.5140     -0.0159000        43.9246      0.0074600       0.005700         0.7462      5080.9331        88.1303     30741.0000        25.4077       0.329900         9.6938         9.3002        15.4916       0.197700
    3552.33260      0.0001500       0.161470         2.8489       110.7367     -0.0204600        45.1371      0.0076400      -0.006700         0.7487      5081.0669        88.1238     30548.7988        26.5731       0.330700         9.5144         9.2599        15.3287       0.193000
    3552.48500     -0.0016000       0.167660         2.8656       110.3633     -0.0165700        45.5604      0.0052600       0.004800         0.7759      5081.1978        88.0883     31170.2012        28.3170       0.332800        10.4958         9.7974        15.2287       0.189900
    3552.63740     -0.0035400       0.172990         2.8433       110.1822     -0.0143400        45.3003      0.0050300       0.011500         0.7822      5081.3408        88.0717     31475.9004        29.9833       0.329600        10.3376        10.0993        15.1632       0.189300
    3552.78980     -0.0058700       0.176670         2.8410       109.2711     -0.0045100        45.6653      0.0013300       0.038800         0.7812      5081.4546        88.0437     31707.7012        30.6425       0.328400        10.0650         9.6358        15.2521       0.188200
    3552.94220     -0.0078500       0.177140         2.8281       109.7160      0.0153500        44.1299     -0.0037200       0.091300         0.7834      5081.5820        88.0348     31796.8008        28.2706       0.328000        10.1483         9.5352        15.2404       0.189900
    3553.09460     -0.0093900       0.174610         2.8396       110.3795      0.0291900        43.4174     -0.0087400       0.127100         0.7910      5081.6904        88.0156     31751.5000        26.1115       0.324600        10.2053         9.8499        15.3862       0.188900
    3553.24700     -0.0103000       0.166660         2.8694       109.4484      0.0350100        43.8934     -0.0054900       0.142300         0.7692      5081.8203        87.9998     31277.5000        26.1945       0.324900         9.9696         9.7115        15.3991       0.191500
    3553.39940     -0.0106200       0.153920         2.8412       109.8551      0.0378800        44.0449      0.0018600       0.149400         0.7111      5081.9927        87.9745     30920.0000        24.7828       0.320500        10.2605         9.5878        15.6084       0.191700
    3553.55180     -0.0107500       0.145420         2.8505       110.3638      0.0330400        44.3427      0.0045000       0.137100         0.6592      5082.1372        87.9423     30856.5996        23.5981       0.322900        10.3716         9.7932        15.6789       0.197000
    3553.70420     -0.0108600       0.137300         2.8504       111.0549      0.0160700        44.6220      0.0064800       0.095000         0.6301      5082.2515        87.9355     30446.0996        24.0600       0.319700         9.6821         9.4996        15.9347       0.201100
    3553.85660     -0.0109500       0.135910         2.8685       111.2336      0.0120900        44.8362      0.0053800       0.085100         0.6294      5082.3813        87.8963     30478.5000        24.4960       0.325000         9.8105         9.8111        15.8507       0.205800
    3554.00900     -0.0107200       0.136680         2.8506       110.8794      0.0123100        43.0178     -0.0025300       0.085500         0.6296      5082.5210        87.8610     30128.9004        24.3299       0.325900         9.8830         9.4184        15.8090       0.204900
    3554.16140     -0.0107200       0.136920         2.8561       111.4638      0.0079700        41.9466     -0.0077600       0.074100         0.6275      5082.6421        87.8514     30386.2988        23.3334       0.326500         9.8899         9.6482        15.7447       0.203300
    3554.31380     -0.0102700       0.135300         2.8742       110.4614      0.0147900        40.5280     -0.0008400       0.091700         0.6230      5082.7529        87.8338     30133.0996        23.4386       0.326000        10.0783        10.2237        15.9876       0.201600
