~Version Information Block
VERS .                 2.00:  CWLS LOG ASCII STANDARD - VERSION 2.00
WRAP .                  YES:  Multiple lines per depth step
~Well Information Block
#MNEM.UNIT        Data Type   Information
#---------- ----------------  -----------
STRT .M          3174.64440:  START DEPTH
STOP .M          3422.90400:  STOP DEPTH
STEP .M             0.15240:  STEP
NULL .              -999.25:  NULL VALUE
COMP .         StatoilHydro:  COMPANY
WELL .          NO_15/9-F-4:  WELL
FLD  .                VOLVE:  FIELD
LOC  .            North Sea:  LOCATION
CTRY .                     :  COUNTRY
STAT .                     :  STATE
CNTY .                     :  COUNTY
SRVC .         Schlumberger:  SERVICE COMPANY
DATE .          13-Sep-2012:  DATE
API  .                     :  API NUMBER
UWI  .             15/9-F-4:  UNIQUE WELL ID
~Curve Information Block
#MNEM.UNIT         API CODE   Curve Description
#---------- ----------------  -----------------
DEPTH.M                    :  DEPTH (BOREHOLE)
BSAL .PPM                  :  Borehole Salinity
CCLC .V                    :  CCL
CCLD .V                    :  CCL Discriminated Amplitude
CIRF .                     :  RST Capture to Inelastic Ratio Far
CIRN .                     :  RST Capture to Inelastic Ratio Near
CVEL .M/MIN                 :  Cable Velocity
DEVI .DEG                  :  Hole Deviation
DSIG .CU                   :  Sigma Difference
FBEF .UA                   :  RST Far Effective Beam Current
GR   .GAPI                 :  Gamma Ray
IRAT .                     :  RST Inelastic Ratio
RB_PCMS.DEG                  :  Relative Bearing
RSCF .                     :  RST Far Detector Effective Unregulated Capture Count Rate
RSCN .                     :  RST Near Detector Effective Unregulated Capture Count Rate
SFFA .CU                   :  RST Sigma Formation Far Apparent
SIBF .CU                   :  RST Sigma Borehole Fluid
SIGM .CU                   :  Formation Sigma (Neutron Capture Cross Section)
TPHI .V/V                  :  Thermal Decay Porosity
WPRE .PSI                  :  Well Pressure
WTEP .DEGC                 :  Well Temperature
~Parameter Information Block
#MNEM.UNIT            Value   Description
#---------- ----------------  -----------
APD  .M                  54:  Elevation of Depth Reference (LMF) above Permanent Datum
BHS  .                 CASE:  Borehole Status (Open or Cased Hole)
BS   .IN                8.5:  Bit Size
BSAL .PPM       34972.17188:  Borehole Salinity
BSALOPT.              UNKNOWN:  Borehole Salinity Option
CSID .IN              6.184:  Casing Inner Diameter
CSIZ .IN                  7:  Current Casing Size
CWEI .LB/F               29:  Casing Weight
MATR .                 SAND:  Rock Matrix for Neutron Porosity Corrections
RUN  .                    4:  RUN NUMBER
PROJECT.     SLEIPNER_OST@st-vlinapp01:  
SET  .       RSTD_0912_SIG1:  
~Other Information Block
~Ascii Log Data
# ...
    3384.65160 
    27647.5996        -0.0205         0.0000         2.5997     0.80369997 
      -4.52560        55.7692        -0.4282        83.6475        24.8045 
    0.32769999       355.6345        10.7788        10.3120        14.3989 
       31.7612        12.8739     0.17800000      5017.8745        77.8511
    3384.80400 
    28130.5000        -0.0557         0.0000         2.5437     0.79640001 
      -4.52720        55.8775        -0.4250        81.8869        24.0571 
    0.32519999       355.7686        10.6629        10.1191        15.3351 
       31.9320        13.0995     0.18210000      5018.0957        77.8409
    3384.95640 
    28318.3008        -0.0847         0.0000         2.5829     0.75389999 
      -4.51120        55.6835        -0.5731        80.3861        25.3442 
    0.32300001       355.7409        10.8214         9.6039        15.3172 
       31.9984        13.4653     0.17800000      5018.3096        77.7544
    3385.10880 
    27944.5996        -0.4531         0.0000         2.5683     0.78479999 
      -4.52240        55.6943        -0.5876        82.7416        23.0052 
    0.32269999       355.7021        10.8676        10.1917        15.4889 
       31.8662        13.5568     0.17780000      5018.4189        77.6199
    3385.26120 
    28007.5000         0.4580         0.0000         2.5938     0.78079998 
      -4.52730        55.8908        -0.5035        82.6451        21.9075 
    0.32220000       355.6309        10.7448         9.8740        15.5988 
       31.8885        13.4886     0.17919999      5018.6577        77.6979
    3385.41360 
    27978.3008        -0.0650         0.0000         2.6199     0.78689998 
      -4.51000        55.7021        -0.4292        85.4301        21.8193 
    0.32170001       355.5238        10.5321         9.8863        15.0962 
       31.8781        13.4577     0.18680000      5018.8462        77.7171
    3385.56600 
    27389.6016        -0.1425         0.0000         2.4969     0.77179998 
      -4.51950        55.5507        -0.3500        84.3721        22.8988 
    0.32359999       355.4257        10.3126         9.9963        15.3688 
       31.6700        13.3673     0.19149999      5018.9741        77.6356
    3385.71840 
    26966.6992        -0.3487         0.0000         2.4067     0.78369999 
      -4.51310        55.7063        -0.0925        80.2355        21.7518 
    0.32650000       355.4602        10.0708         9.5345        15.3018 
       31.5206        13.5834     0.18880001      5019.2026        77.6072
    3385.87080 
    27312.0000         0.1778         0.0000         2.4647     0.75410002 
      -4.52560        55.4710        -0.0378        81.9451        22.2137 
    0.32550001       355.4883        10.5587         9.4749        15.7288 
       31.6426        13.5031     0.17910001      5019.4165        77.5801
    3386.02320 
    27227.9004        -0.0567         0.0000         2.5781     0.74449998 
      -4.55570        55.5901        -0.2601        84.1630        21.3833 
    0.32179999       355.4796        10.7824         9.7110        15.1121 
       31.6129        13.5651     0.16720000      5019.5366        77.4906
    3386.17560 
    26813.1992        -0.2630        -0.2630         2.5946     0.75110000 
      -4.52110        55.7422        -0.2537        80.7167        19.6446 
    0.31009999       355.4660        11.7251        10.3354        15.4753 
       31.4664        13.5732     0.16360000      5019.7388        77.4985
    3386.32800 
    26508.0000         0.3706         0.3706         2.6015     0.69319999 
      -4.52770        55.4792        -0.3653        87.7093        17.9526 
    0.30039999       355.3101        11.0057        10.0754        15.7608 
       31.3587        13.8826     0.17070000      5019.9556        77.3851
    3386.48040 
    26050.5000        -0.0471        -0.0471         2.2416     0.63090003 
      -4.51220        55.5333        -0.3516        82.6752        17.4544 
    0.29690000       355.3539        10.0675         9.3881        16.0398 
       31.1972        14.0649     0.18740000      5020.1567        77.3428
    3386.63280 
    26173.0000         1.1470         0.0000         2.1566     0.67540002 
      -4.50440        55.6633        -0.2391        81.4120        18.9855 
    0.30599999       355.3860         9.5386         9.2605        16.0097 
       31.2404        14.5003     0.20230000      5020.3091        77.3024
    3386.78520 
    25827.1016         0.0551         0.0000         2.3306     0.74479997 
      -4.51250        55.4693        -0.0999        83.7525        21.3106 
    0.31770000       355.4076         9.8075         9.7264        17.0554 
       31.1184        14.8267     0.20950000      5020.5049        77.2075
    3386.93760 
    25872.1016        -0.3268         0.0000         2.2923     0.76330000 
      -4.54840        55.3179        -0.1482        82.7897        22.4862 
    0.32300001       355.4153         9.5715         9.7004        17.0026 
       31.1343        15.3450     0.20800000      5020.7192        77.2409
    3387.09000 
    26010.4004        -0.0748         0.0000         2.3244     0.75370002 
      -4.48870        55.5638        -0.2555        82.4440        24.1782 
    0.32380000       355.2567         9.5028         9.2912        17.5517 
       31.1830        15.3083     0.20190001      5020.8691        77.0842
    3387.24240 
    25824.4004        -0.4798         0.0000         2.3219     0.73710001 
      -4.49750        55.3700        -0.3970        81.8135        25.4212 
    0.32010001       355.0864         9.8402         9.4715        16.9328 
       31.1174        15.1547     0.19400001      5021.0776        77.0460
    3387.39480 
    25802.0996         0.1366         0.0000         2.3841     0.71859998 
      -4.50520        55.4188        -0.6173        85.4763        25.5873 
    0.32280001       355.0729         9.9821         9.6571        16.5325 
       31.1096        14.6518     0.18510000      5021.2778        77.0704
    3387.54720 
    26142.7988        -0.0680         0.0000         2.3829     0.75569999 
      -4.51330        55.4823        -0.8076        83.0263        26.7499 
    0.32319999       355.1236        10.1002         9.5697        16.0222 
       31.2298        14.3548     0.17829999      5021.4458        76.9992
    3387.69960 
    26131.3984        -0.1494         0.0000         2.5139     0.74919999 
      -4.54990        55.4636        -0.8788        82.7286        28.5638 
    0.32810000       355.0426        10.6356         9.6392        15.9974 
       31.2257        14.5390     0.17240000      5021.6318        76.9161
    3387.85200 
    26331.6992        -0.0253         0.0000         2.4570     0.76220000 
      -4.56130        55.4068        -1.0518        79.5517        33.1311 
    0.32900000       355.0090        10.7472         9.8587        17.0208 
       31.2964        14.9721     0.17770000      5021.8638        76.7757
    3388.00440 
    26585.8008        -0.0932         0.0000         2.3370     0.75620002 
      -4.51460        55.4425        -0.7545        80.9515        41.0149 
    0.32990000       355.1102        10.2256         9.8595        17.2416 
       31.3861        15.9335     0.19310001      5022.0254        76.6922
    3388.15680 
    26623.5996        -0.0175         0.0000         2.0735     0.70330000 
      -4.54250        55.6289        -0.7160        80.4963        55.2981 
    0.32440001       355.1723         9.2816         9.6711        18.8277 
       31.3995        17.6443     0.22080000      5022.1719        76.6255
    3388.30920 
    26517.2988        -0.1368         0.0000         1.7845     0.64469999 
      -4.51500        55.4666        -0.3915        86.7506        73.7335 
    0.31690001       355.1134         7.2914         8.4302        22.1212 
       31.3619        20.2459     0.24660000      5022.3916        76.5000
    3388.46160 
    26313.2988        -0.2945         0.0000         1.5461     0.60689998 
      -4.49940        55.4095        -0.0636        85.3903        93.4793 
    0.31240001       355.1458         6.2871         7.9362        25.0458 
       31.2899        22.7850     0.26300001      5022.6035        76.4788
