~Version Information Block
VERS .                 2.00:  CWLS LOG ASCII STANDARD - VERSION 2.00
WRAP .                  YES:  Multiple lines per depth step
~Well Information Block
#MNEM.UNIT        Data Type   Information
#---------- ----------------  -----------
STRT .M          3437.38200:  START DEPTH
STOP .M          3636.11160:  STOP DEPTH
STEP .M             0.15240:  STEP
NULL .              -999.25:  NULL VALUE
COMP .                     :  COMPANY
WELL .          NO_15/9-F-5:  WELL
FLD  .                     :  FIELD
LOC  .                     :  LOCATION
CTRY .                     :  COUNTRY
STAT .                     :  STATE
CNTY .                     :  COUNTY
SRVC .                     :  SERVICE COMPANY
DATE .                     :  DATE
API  .                     :  API NUMBER
UWI  .                     :  UNIQUE WELL ID
~Curve Information Block
#MNEM.UNIT         API CODE   Curve Description
#---------- ----------------  -----------------
DEPTH.M                    :  
BSAL .PPM                  :  (RST-D)                 (6in)                   Borehole Salinity Depths
CCLC .V                    :  (PSTP-B)                (1in)                   CCL Computed Amplitude D
CIRF .                     :  (RST-D)                 (6in)                   Capture to Inelastic Rat
CIRN .                     :  (RST-D)                 (6in)                   Capture to Inelastic Rat
CVEL .M/SEC                 :  (WLWorkflow)            (1in)                   Cable Velocity Depthshif
DSIG .CU                   :  (RST-D)                 (6in)                   Sigma Difference Depthsh
DSIG21.                     :  SIGM_1 -RSTD_0912_OW.SAT201SI_SIGR_1
FBEF .UA                   :  (RST-D)                 (6in)                   Far Effective Beam Curre
GR   .GAPI                 :  (PSTP-B)                (6in)                   Gamma Ray Depthshifted
IRAT .                     :  (RST-D)                 (6in)                   Inelastic Ratio Depthshi
RB_PCMS.DEG                  :  (PCMS-A)                (6in)                   Relative Bearing Depthsh
RSCF .                     :  (RST-D)                 (6in)                   Far Detector Effective U
RSCN .                     :  (RST-D)                 (6in)                   Near Detector Effective
SFFA .CU                   :  (RST-D)                 (6in)                   Sigma Formation Far Appa
SIBF .CU                   :  (RST-D)                 (6in)                   Sigma Borehole Fluid Dep
SIGM .CU                   :  (RST-D)                 (6in)                   Formation Sigma (Neutron
TENS .LBF                  :  (WLWorkflow)            (1in)                   Cable Tension Depthshift
TPHI .V/V                  :  (RST-D)                 (6in)                   Thermal Decay Porosity D
WPRE .BAR                  :  (PSTP-B)                (6in)                   Well Pressure Depthshift
WTEP .DEGC                 :  (PSTP-B)                (6in)                   Well Temperature Depthsh
~Parameter Information Block
#MNEM.UNIT            Value   Description
#---------- ----------------  -----------
PROJECT.     SLEIPNER_OST@st-vlinapp01:  
SET  .     RSTD_1115_SIG1_DS:  
~Other Information Block
~Ascii Log Data
# ...
    3477.00600 
    36566.8906         0.0688         2.4886       0.766081     -0.0788771 
       -0.3525         0.4204       103.5422        21.7976       0.327525 
      354.3525         8.3848         7.7107        16.0495        34.9314 
       14.1330      3960.9094       0.183264       360.9206        83.8551
    3477.15840 
    36792.8047        -0.0050         2.5526       0.759116     -0.0784180 
       -0.2634         0.1433       105.7651        21.1052       0.327797 
      354.3221         8.3387         7.4996        15.8335        35.0121 
       13.9711      3946.2524       0.184384       360.9312        83.8598
    3477.31080 
    37220.9883         0.0256         2.4722       0.749968     -0.0784022 
       -0.1764         0.0423       103.2502        21.0086       0.329031 
      354.3052         8.0960         7.2725        15.4572        35.1652 
       13.8657      3949.7681       0.185347       360.9417        83.8617
    3477.46320 
    37776.3242        -0.0128         2.4432       0.744156     -0.0782434 
       -0.1848         0.1252       104.6067        20.2825       0.328297 
      354.3354         7.9390         7.2581        15.7226        35.3639 
       13.8470      3919.0745       0.188382       360.9510        83.8646
    3477.61560 
    38441.0039        -0.0509         2.4883       0.746449     -0.0789508 
       -0.1998         0.2483       105.2521        20.0990       0.324337 
      354.2438         8.3858         7.7051        15.7716        35.6019 
       13.9504      3901.0203       0.193708       360.9620        83.8687
    3477.76800 
    38496.8477        -0.0091         2.4010       0.723487     -0.0787426 
       -0.1714         0.2350       104.7710        20.6080       0.321434 
      354.1721         8.2912         7.7101        15.7450        35.6219 
       13.9908      3962.1582       0.198918       360.9721        83.8731
    3477.92040 
    38587.2227         0.0313         2.3174       0.709541     -0.0789167 
       -0.1301         0.0962       105.7318        19.9622       0.321118 
      354.0883         7.8201         7.3862        15.8287        35.6543 
       14.0028      3956.8733       0.203851       360.9817        83.8755
    3478.07280 
    39061.3398        -0.0113         2.3415       0.710890     -0.0789740 
       -0.0908         0.1283       103.7829        18.5565       0.322126 
      353.9416         8.0478         7.5283        15.7965        35.8242 
       14.0400      3943.0393       0.206081       360.9912        83.8764
    3478.22520 
    39058.5781        -0.0265         2.3790       0.743428     -0.0785312 
       -0.1249         0.0205       103.4350        18.1328       0.324079 
      353.8823         8.1717         7.8498        15.8402        35.8232 
       13.9586      3950.2615       0.209440       361.0022        83.8767
    3478.37760 
    39426.4219        -0.0351         2.4305       0.750955     -0.0786628 
       -0.0727         0.1231       104.4210        18.2413       0.325626 
      353.7910         8.2710         7.8444        15.5664        35.9550 
       13.8341      3935.5034       0.210023       361.0116        83.8774
    3478.53000 
    39268.3711        -0.0039         2.4251       0.753473     -0.0787396 
        0.0066         0.2012       105.5984        18.3307       0.324353 
      353.6154         8.0897         7.6624        15.4088        35.8984 
       13.7325      3929.6543       0.209592       361.0222        83.8788
    3478.68240 
    39101.9180         0.0921         2.4905       0.759808     -0.0790108 
        0.0080         0.4617       107.6825        19.3440       0.323548 
      353.6051         8.1362         7.7563        15.5306        35.8387 
       13.8083      3950.0569       0.205239       361.0329        83.8840
    3478.83480 
    39219.3633         0.0457         2.4924       0.750362     -0.0784108 
       -0.0429         0.5145       105.1913        19.9084       0.323183 
      353.6096         8.1571         7.5648        15.7946        35.8808 
       13.9202      3941.8149       0.199721       361.0417        83.8869
    3478.98720 
    38914.5195        -0.0207         2.4792       0.750586     -0.0784733 
       -0.0430         0.3455       105.4230        19.7328       0.326983 
      353.7246         8.0551         7.5768        15.7540        35.7715 
       13.7871      3966.4070       0.196706       361.0522        83.8853
    3479.13960 
    38426.0781        -0.0305         2.4642       0.758892     -0.0788424 
        0.1007         0.2817       104.2633        19.6373       0.329100 
      353.7840         8.1040         7.4047        15.1351        35.5965 
       13.5139      3927.9758       0.194729       361.0620        83.8879
    3479.29200 
    38035.5078        -0.0400         2.4901       0.762185     -0.0787959 
        0.2020         0.2212       104.1755        19.3412       0.330035 
      353.6145         8.3325         7.5058        14.9725        35.4567 
       13.2075      3899.9954       0.193079       361.0732        83.8889
    3479.44440 
    37655.3164         0.0070         2.5141       0.755963     -0.0793516 
        0.2410         0.1406       106.8711        18.0132       0.326801 
      353.5783         8.1768         7.4331        14.8457        35.3206 
       12.9590      3953.6216       0.190772       361.0827        83.8911
    3479.59680 
    37607.1328         0.0729         2.5793       0.753221     -0.0789996 
        0.3122        -0.0351       107.3118        16.9871       0.319564 
      353.6413         8.4824         7.7728        14.3975        35.3034 
       12.8353      3936.5103       0.187662       361.0924        83.8912
    3479.74920 
    37475.4883         0.0175         2.6249       0.742890     -0.0789220 
        0.2730         0.0652       107.4419        16.5229       0.309250 
      353.6159         8.6152         7.7980        14.6065        35.2563 
       12.9077      3955.7507       0.186600       361.1039        83.8886
    3479.90160 
    37600.1680         0.5263         2.5147       0.672208     -0.0785991 
        0.1894         0.1575       109.0218        15.8914       0.304433 
      353.5941         8.5270         7.6347        15.0842        35.3009 
       13.1351      3987.5637       0.189611       361.1129        83.8868
    3480.05400 
    37484.9219         1.2945         2.3348       0.665043     -0.0782342 
        0.0371         0.2527       106.0987        14.9538       0.309787 
      353.7485         8.1077         7.3181        15.0970        35.2596 
       13.2583      3949.7964       0.198451       361.1241        83.8884
    3480.20640 
    37275.0859         0.0131         2.3551       0.747372     -0.0783196 
       -0.0840         0.1288       102.1447        15.1604       0.322067 
      353.8292         8.1878         7.6940        14.9866        35.1846 
       13.1091      3962.0889       0.206467       361.1324        83.8908
    3480.35880 
    37177.3945        -0.0805         2.4886       0.791467     -0.0787255 
       -0.1341         0.1607       100.3653        15.6578       0.329326 
      353.8038         8.4890         7.7380        14.6405        35.1497 
       13.0259      3909.7578       0.206171       361.1463        83.8918
    3480.51120 
    36550.1250        -0.0253         2.5795       0.779445     -0.0790460 
       -0.2579         0.2158        99.9977        16.6883       0.329828 
      353.7926         8.9237         7.9037        14.8496        34.9254 
       12.9565      3904.1931       0.199055       361.1537        83.8946
    3480.66360 
    36473.2891         0.0202         2.6140       0.793570     -0.0783898 
       -0.3761         0.2290       101.7892        16.6154       0.326672 
      353.7264         9.0198         8.1370        14.7870        34.8979 
       12.8748      3968.0352       0.190302       361.1622        83.8940
    3480.81600 
    35994.1719        -0.0149         2.6709       0.788532     -0.0785243 
       -0.4397         0.2246       106.6837        17.2722       0.327761 
      353.6402         8.7813         8.0004        14.3978        34.7268 
       12.6894      3952.8892       0.184134       361.1752        83.8914
