~Version Information Block
VERS .                 2.00:  CWLS LOG ASCII STANDARD - VERSION 2.00
WRAP .                  YES:  Multiple lines per depth step
~Well Information Block
#MNEM.UNIT        Data Type   Information
#---------- ----------------  -----------
STRT .M          3437.38200:  START DEPTH
STOP .M          3636.11160:  STOP DEPTH
STEP .M             0.15240:  STEP
NULL .              -999.25:  NULL VALUE
COMP .                     :  COMPANY
WELL .          NO_15/9-F-5:  WELL
FLD  .                     :  FIELD
LOC  .                     :  LOCATION
CTRY .                     :  COUNTRY
STAT .                     :  STATE
CNTY .                     :  COUNTY
SRVC .                     :  SERVICE COMPANY
DATE .                     :  DATE
API  .                     :  API NUMBER
UWI  .                     :  UNIQUE WELL ID
~Curve Information Block
#MNEM.UNIT         API CODE   Curve Description
#---------- ----------------  -----------------
DEPTH.M                    :  
BSAL .PPM                  :  (RST-D)                 (6in)                   Borehole Salinity Depths
CCLC .V                    :  (PSTP-B)                (1in)                   CCL Computed Amplitude D
CIRF .                     :  (RST-D)                 (6in)                   Capture to Inelastic Rat
CIRN .                     :  (RST-D)                 (6in)                   Capture to Inelastic Rat
CVEL .M/SEC                 :  (WLWorkflow)            (1in)                   Cable Velocity Depthshif
DSIG .CU                   :  (RST-D)                 (6in)                   Sigma Difference Depthsh
DSIG21.                     :  SIGM_1 -RSTD_0912_OW.SAT201SI_SIGR_1
FBEF .UA                   :  (RST-D)                 (6in)                   Far Effective Beam Curre
GR   .GAPI                 :  (PSTP-B)                (6in)                   Gamma Ray Depthshifted
IRAT .                     :  (RST-D)                 (6in)                   Inelastic Ratio Depthshi
RB_PCMS.DEG                  :  (PCMS-A)                (6in)                   Relative Bearing Depthsh
RSCF .                     :  (RST-D)                 (6in)                   Far Detector Effective U
RSCN .                     :  (RST-D)                 (6in)                   Near Detector Effective
SFFA .CU                   :  (RST-D)                 (6in)                   Sigma Formation Far Appa
SIBF .CU                   :  (RST-D)                 (6in)                   Sigma Borehole Fluid Dep
SIGM .CU                   :  (RST-D)                 (6in)                   Formation Sigma (Neutron
TENS .LBF                  :  (WLWorkflow)            (1in)                   Cable Tension Depthshift
TPHI .V/V                  :  (RST-D)                 (6in)                   Thermal Decay Porosity D
WPRE .BAR                  :  (PSTP-B)                (6in)                   Well Pressure Depthshift
WTEP .DEGC                 :  (PSTP-B)                (6in)                   Well Temperature Depthsh
~Parameter Information Block
#MNEM.UNIT            Value   Description
#---------- ----------------  -----------
PROJECT.     SLEIPNER_OST@st-vlinapp01:  
SET  .     RSTD_1115_SIG1_DS:  
~Other Information Block
~Ascii Log Data
# ...
    3615.69000 
    35043.1484        -0.0210         2.7449       0.794031     -0.0752406 
       -0.4028         0.0334       106.0093        19.1741       0.320698 
      352.7531         9.0494         7.8471        13.7787        34.3874 
       11.8545      4222.1426       0.177940       369.6814        68.9145
    3615.84240 
    35275.9492        -0.0232         2.7578       0.803015     -0.0758299 
       -0.4138         0.0246       105.7424        18.6127       0.320215 
      352.5005         8.8768         7.8245        14.0195        34.4704 
       12.0889      4224.8223       0.181457       369.6989        68.9246
    3615.99480 
    35155.7148        -0.0064         2.7561       0.793709     -0.0761283 
       -0.4678         0.1656       107.1719        17.9949       0.320238 
      352.3619         9.0160         8.1250        14.1147        34.4275 
       12.2541      4190.3506       0.183186       369.7137        68.9275
    3616.14720 
    34855.8125        -0.0138         2.7001       0.793032     -0.0752099 
       -0.4507         0.3738       107.6743        17.6708       0.323032 
      352.3241         8.7736         7.9133        14.2495        34.3206 
       12.3241      4221.7324       0.182627       369.7153        68.9228
    3616.29960 
    34828.3359        -0.0123         2.6635       0.796199     -0.0752357 
       -0.3649         0.6426       108.3785        17.6376       0.327131 
      352.3047         8.4148         7.6096        14.2305        34.3108 
       12.3693      4192.9165       0.179447       369.7235        68.9258
    3616.45200 
    35096.8555        -0.0021         2.6498       0.782224     -0.0759668 
       -0.3397         0.8188       106.2555        17.2078       0.328433 
      352.2995         8.5673         7.6652        14.2514        34.4065 
       12.3163      4177.8306       0.175294       369.7424        68.9339
    3616.60440 
    35450.2695        -0.0021         2.6668       0.770568     -0.0760698 
       -0.3529         1.0293       104.8523        16.8605       0.328237 
      352.2682         8.8084         7.8011        14.1062        34.5326 
       12.2028      4209.3110       0.170532       369.7505        68.9296
    3616.75680 
    35759.3164        -0.0266         2.6774       0.774388     -0.0762069 
       -0.4423         1.0716       105.1777        16.8079       0.328860 
      351.9909         8.8826         7.8370        13.9034        34.6429 
       11.9482      4190.0728       0.166050       369.7531        68.9200
    3616.90920 
    35651.5664        -0.0471         2.7259       0.783620     -0.0758366 
       -0.5485         0.8811       104.2313        16.3574       0.331283 
      351.5618         9.2017         7.8753        13.5105        34.6045 
       11.5497      4193.5381       0.163366       369.7646        68.9231
    3617.06160 
    35712.0039        -0.0131         2.7625       0.789207     -0.0754309 
       -0.5777         0.5611       101.6297        16.3004       0.331144 
      351.3587         9.6680         8.0489        12.9333        34.6261 
       11.2088      4219.1914       0.163104       369.7816        68.9346
    3617.21400 
    35939.8398         0.0114         2.7735       0.787917     -0.0758326 
       -0.5926         0.2685       101.3966        16.5804       0.327009 
      351.3428         9.6875         8.1315        12.8830        34.7074 
       11.0528      4183.1001       0.165470       369.7863        68.9353
    3617.36640 
    36052.8750         0.0702         2.8020       0.783052     -0.0752284 
       -0.6466         0.2611       103.7212        16.6347       0.322894 
      351.3667         9.3837         7.9348        13.0721        34.7478 
       11.1599      4218.8936       0.168387       369.7876        68.9336
    3617.51880 
    36063.6250         0.1042         2.7982       0.786654     -0.0750216 
       -0.7058         0.2966       104.6949        16.4653       0.320392 
      351.3909         9.3261         7.9819        13.2778        34.7516 
       11.3451      4298.4629       0.170484       369.8077        68.9454
    3617.67120 
    35546.0703         0.0219         2.8199       0.797656     -0.0757376 
       -0.6730         0.2566       106.4873        16.2909       0.319863 
      351.3925         9.4276         8.2462        13.4602        34.5668 
       11.4405      4208.4312       0.171861       369.8193        68.9538
    3617.82360 
    35538.1680        -0.0530         2.8171       0.793964     -0.0757516 
       -0.6766         0.2089       106.5119        15.7623       0.320475 
      351.4432         9.2639         7.9816        13.3833        34.5640 
       11.4587      4152.4814       0.173356       369.8183        68.9561
    3617.97600 
    35951.8008        -0.0321         2.7909       0.793275     -0.0755002 
       -0.7483         0.1619       105.4372        14.7267       0.322372 
      351.5293         9.1068         7.8429        13.3389        34.7117 
       11.4631      4257.8418       0.175764       369.8309        68.9606
    3618.12840 
    35898.5273         0.0673         2.7754       0.807764     -0.0743776 
       -0.7526         0.3472       104.2171        13.5663       0.323093 
      351.5854         9.2544         8.1267        13.4705        34.6926 
       11.5130      4303.1514       0.177974       369.8484        68.9606
    3618.28080 
    35936.0039        -0.0309         2.7870       0.805704     -0.0745331 
       -0.6962         0.4362       105.7638        12.6922       0.323950 
      351.7047         9.4206         8.4608        13.5344        34.7060 
       11.5301      4218.9692       0.177851       369.8475        68.9565
    3618.43320 
    35927.8047        -0.0682         2.7612       0.796738     -0.0747563 
       -0.6682         0.4674       106.3804        12.5558       0.322548 
      352.0328         9.2634         8.2324        13.3697        34.7031 
       11.5270      4223.1641       0.175375       369.8592        68.9618
    3618.58560 
    35762.9258        -0.0303         2.7768       0.779301     -0.0746877 
       -0.6661         0.3648       107.1165        12.1260       0.321373 
      352.2672         9.1438         7.9461        13.4370        34.6442 
       11.4749      4274.5273       0.172195       369.8783        68.9621
    3618.73800 
    35802.3555         0.0124         2.7936       0.782694     -0.0751851 
       -0.6545         0.2167       105.0925        11.7306       0.319349 
      352.1671         9.2836         7.9308        13.3622        34.6583 
       11.4957      4224.9883       0.171224       369.8816        68.9510
    3618.89040 
    35960.6875         0.0202         2.7920       0.782474     -0.0749532 
       -0.6520         0.1382       106.3626        12.2528       0.318885 
      352.0678         9.2065         8.0107        13.4044        34.7148 
       11.5430      4208.7207       0.171693       369.8896        68.9525
    3619.04280 
    35972.4414        -0.0182         2.7821       0.788350     -0.0744231 
       -0.6108         0.2183       105.6923        12.5680       0.320546 
      351.9731         9.2594         8.0529        13.5630        34.7190 
       11.6545      4235.1519       0.173722       369.9012        68.9634
    3619.19520 
    36035.3945        -0.0035         2.7516       0.786243     -0.0739905 
       -0.5541         0.4850       107.6651        12.0779       0.322511 
      351.9361         9.0751         8.0618        13.6832        34.7415 
       11.8512      4232.4316       0.174131       369.9193        68.9722
    3619.34760 
    36272.6055        -0.0671         2.7469       0.801216     -0.0733901 
       -0.5920         0.5676       108.3924        12.4404       0.323869 
      351.8999         8.9959         8.0938        13.9878        34.8262 
       11.9834      4216.2212       0.174966       369.9188        68.9660
    3619.50000 
    36393.6562        -0.0883         2.7107       0.779024     -0.0748227 
       -0.5920         0.5678       103.7530        13.2442       0.323770 
      351.7166         9.1001         7.9148        13.9549        34.8695 
       12.0616      4230.9019       0.174066       369.9345        68.9622
