~Version Information Block
VERS .                 2.00:  CWLS LOG ASCII STANDARD - VERSION 2.00
WRAP .                   NO:  One line per depth step
~Well Information Block
#MNEM.UNIT        Data Type   Information
#---------- ----------------  -----------
STRT .M          3460.08960:  START DEPTH
STOP .M          3530.04120:  STOP DEPTH
STEP .M             0.15240:  STEP
NULL .              -999.25:  NULL VALUE
COMP .              Statoil:  COMPANY
WELL .          NO_15/9-F-5:  WELL
FLD  .                Volve:  FIELD
LOC  .                Volve:  LOCATION
CTRY .               Norway:  COUNTRY
STAT .                     :  STATE
CNTY .                     :  COUNTY
SRVC .         Schlumberger:  SERVICE COMPANY
DATE .           11/04/2015:  DATE
API  .                     :  API NUMBER
UWI  .             15/9-F-5:  UNIQUE WELL ID
LATI .     58° 26' 29.66" N:  LATITUDE
LONG .      1° 53' 14.99" E:  LONGITUDE
~Curve Information Block
#MNEM.UNIT         API CODE   Curve Description
#---------- ----------------  -----------------
DEPTH.M                    :  Depth Index
CCLC .V                    :  (PSTP-B)                (1in)                   CCL Computed Amplitude
CVEL .M/SEC                 :  (WLWorkflow)            (1in)                   Cable Velocity
FBEF .UA                   :  (RST-D)                 (6in)                   Far Effective Beam Curre
FCOR .                     :  (RST-D)                 (6in)                   Far Carbon/Oxygen Ratio
FERD .                     :  (RST-D)                 (6in)                   Far IC Mode Capture Opti
FIRD .                     :  (RST-D)                 (6in)                   Far Inelastic Optimizati
GR   .GAPI                 :  (PSTP-B)                (6in)                   Gamma Ray
NCOR .                     :  (RST-D)                 (6in)                   Near Carbon/Oxygen Ratio
NERD .                     :  (RST-D)                 (6in)                   Near IC Mode Capture Opt
NIRD .                     :  (RST-D)                 (6in)                   Near Inelastic Optimizat
RB_PCMS.DEG                  :  (PCMS-A)                (6in)                   Relative Bearing
TENS .LBF                  :  (WLWorkflow)            (1in)                   Cable Tension
WPRE .BAR                  :  (PSTP-B)                (6in)                   Well Pressure
WTEP .DEGC                 :  (PSTP-B)                (6in)                   Well Temperature
~Parameter Information Block
#MNEM.UNIT            Value   Description
#---------- ----------------  -----------
APD  .M                  54:  Elevation of Depth Reference (LMF) Above Permanent Datum
CLAB .              Country:  :County Label
ECF  .M             -999.25:  Elevation of Casing Flange above Permanent Datum
EDF  .M                  54:  Elevation of Drill Floor Above Permanent Datum
EGL  .M                 -91:  Elevation of Ground Level Above Permanent Datum
EKB  .M             -999.25:  Elevation of Kelly Bushing Above Permanent Datum
EPD  .M                   0:  Elevation of Permanent Datum (PDAT) above Mean Sea Level
FL1  .            North Sea:  Field Location Line 1
FL2  .     Norwegian Sector:  Field Location Line 2
LMF  .                   DF:  Logging Measured From
LUL  .                 NOBO:  Logging Unit Location
LUN  .          ONCC-A 3837:  Logging Unit Number
PDAT .                  MSL:  Local Permanent Datum
RIGN .      Maersk Inspirer:  Rig Name
RIGTYP.               Jackup:  Rig Type
SON  .           C2TQ-00038:  Service Order Number
TAPE_NAME.     RST_IC_Pass_4___04Nov15_021221.las:  
TOOL_STRING.              UNKNOWN:  
WN   .             15/9-F-5:  WELL NAME
PROJECT.     SLEIPNER_OST@st-vlinapp01:  
SET  .        RSTD_1115_IC4:  
~Other Information Block
# 
~A       DEPTH           CCLC           CVEL           FBEF           FCOR           FERD           FIRD             GR           NCOR           NERD           NIRD        RB_PCMS           TENS           WPRE           WTEP 
# ...
    3503.98080      -0.000540    -0.00927450       125.4885       0.136300         5.4225         5.4225       126.4080      -0.008290         4.1410         4.1410       352.9870      3911.0933       360.2369        83.3916
    3504.13320       0.032220    -0.00916933       124.0562       0.000900         5.4687         5.4687       121.9834       0.090470         4.2008         4.2008       352.8641      3873.9504       360.2459        83.3739
    3504.28560       0.012920    -0.00897900       124.7205       0.005660         5.4629         5.4629       120.8171       0.002240         4.2449         4.2449       352.8152      3826.6978       360.2575        83.3593
    3504.43800      -0.010800    -0.00874933       125.7272       0.152870         5.4428         5.4428       122.7288       0.060800         4.2666         4.2666       353.0138      3925.2451       360.2701        83.3594
    3504.59040       0.019050    -0.00860817       126.4412       0.059030         5.4675         5.4675       121.9066       0.072330         4.2715         4.2715       352.9721      3900.9771       360.2783        83.3359
    3504.74280       0.005950    -0.00851867       129.1826       0.117100         5.3705         5.3705       124.8813       0.032950         4.3008         4.3008       352.9602      3869.0002       360.2918        83.3264
    3504.89520      -0.058710    -0.00873567       129.8099       0.049690         5.4544         5.4544       128.5783       0.071480         4.3020         4.3020       352.9009      3971.8052       360.3005        83.3098
    3505.04760      -1.153430    -0.00889033       128.3269       0.158130         5.5108         5.5108       128.0143       0.088480         4.2289         4.2289       352.7834      4001.7385       360.3135        83.2973
    3505.20000      -0.003370    -0.00940450       122.9132       0.036590         5.3873         5.3873       123.9790      -0.069650         4.2024         4.2024       352.6467      4112.9292       360.3254        83.2830
    3505.35240      -0.004090    -0.00932517       123.8959       0.037250         5.4287         5.4287       124.8962       0.080080         4.2162         4.2162       352.5183      4149.7642       360.3377        83.2818
    3505.50480       0.015420    -0.00932417       123.9018      -0.028620         5.4447         5.4447       121.8831       0.032260         4.2035         4.2035       352.7219      4106.3423       360.3470        83.2655
    3505.65720       0.019360    -0.00935517       124.8519       0.191870         5.5376         5.5376       121.4744       0.109310         4.1809         4.1809       352.9389      4103.8042       360.3581        83.2497
    3505.80960       0.014670    -0.00935517       124.6774       0.136940         5.5318         5.5318       121.0704       0.085730         4.1362         4.1362       352.9571      4001.8284       360.3697        83.2341
    3505.96200       0.010210    -0.00928350       123.4243       0.135500         5.6257         5.6257       120.8128       0.107890         4.1447         4.1447       352.8975      3974.1658       360.3805        83.2232
    3506.11440      -0.004380    -0.00925333       124.1260       0.053370         5.6362         5.6362       120.6702       0.159010         4.1681         4.1681       352.7654      3967.2146       360.3922        83.2003
    3506.26680      -0.004350    -0.00913233       124.2100       0.135590         5.6938         5.6938       126.9906       0.042090         4.1838         4.1838       352.7043      3878.2375       360.4057        83.1818
    3506.41920       0.000100    -0.00905983       123.7998      -0.038060         5.7074         5.7074       128.0033       0.043870         4.1471         4.1471       352.9397      3930.5776       360.4184        83.1675
    3506.57160      -0.003390    -0.00894817       123.2526      -0.049370         5.6772         5.6772       130.1114       0.030410         4.1425         4.1425       353.1523      3889.5903       360.4268        83.1515
    3506.72400       0.021000    -0.00909717       125.4119      -0.245630         5.6405         5.6405       132.3746       0.076730         4.1859         4.1859       353.2201      3874.7439       360.4369        83.1433
    3506.87640       0.011850    -0.00892117       124.6808       0.062180         5.6574         5.6574       127.4830       0.087090         4.2230         4.2230       353.1235      3957.9526       360.4466        83.1178
    3507.02880      -0.002520    -0.00879983       125.1020       0.025640         5.6860         5.6860       123.3369       0.058320         4.2432         4.2432       352.9359      4012.3337       360.4607        83.1062
    3507.18120      -0.001540    -0.00922450       126.1180       0.085920         5.7604         5.7604       118.0577      -0.077720         4.2218         4.2218       352.9518      4042.4221       360.4716        83.0857
    3507.33360      -0.002210    -0.00906767       125.5964      -0.045400         5.7579         5.7579       116.9604       0.085400         4.2440         4.2440       352.9529      4105.2090       360.4855        83.0642
    3507.48600      -0.022860    -0.00933483       126.3914       0.016380         5.7741         5.7741       115.8205       0.010400         4.2543         4.2543       353.1276      4068.1494       360.4982        83.0522
    3507.63840       0.006120    -0.00945867       126.9516      -0.072910         5.7840         5.7840       118.5248       0.081100         4.2686         4.2686       353.1827      4000.6843       360.5046        83.0361
    3507.79080      -0.002790    -0.00950983       126.7356       0.014060         5.7714         5.7714       120.9022      -0.012950         4.2737         4.2737       353.0691      4050.5378       360.5180        83.0271
    3507.94320      -0.002170    -0.00954000       126.9955      -0.158540         5.8096         5.8096       123.8763      -0.099650         4.2451         4.2451       353.1314      3978.7900       360.5282        82.9985
    3508.09560       0.022170    -0.01022567       127.7775      -0.000170         5.9140         5.9140       119.0361      -0.017070         4.2594         4.2594       353.1869      3974.2827       360.5409        82.9660
    3508.24800      -0.006480    -0.01016050       127.1527      -0.044250         5.9686         5.9686       120.9083      -0.105370         4.2836         4.2836       353.1636      3905.7900       360.5539        82.9499
    3508.40040      -0.005620    -0.00981117       127.7618      -0.075690         5.9861         5.9861       123.8061       0.024220         4.2750         4.2750       353.0615      3915.0994       360.5641        82.9431
    3508.55280       0.008670    -0.00962567       127.7258      -0.055080         6.0052         6.0052       124.3701       0.083860         4.2760         4.2760       353.1659      3928.8960       360.5740        82.9285
    3508.70520      -0.001020    -0.00992700       128.2468       0.099220         6.0057         6.0057       124.9962       0.030690         4.2728         4.2728       353.0949      3891.7642       360.5871        82.9165
    3508.85760      -0.001270    -0.00959250       129.4232       0.137990         5.8581         5.8581       128.0990       0.095560         4.3341         4.3341       352.8826      3950.9475       360.5979        82.9115
    3509.01000      -0.006120    -0.00955900       128.9896       0.049610         5.9308         5.9308       125.7247       0.032880         4.3709         4.3709       352.7056      4063.6306       360.6097        82.8972
    3509.16240      -0.001010    -0.01005483       128.8108      -0.079390         5.8894         5.8894       123.8727      -0.007670         4.3818         4.3818       352.4907      3965.7781       360.6205        82.8826
    3509.31480      -0.000850    -0.01019467       128.5473       0.036070         5.8843         5.8843       122.5420       0.064300         4.4070         4.4070       352.5506      4109.8921       360.6333        82.8488
