~Version Information Block
VERS .                 2.00:  CWLS LOG ASCII STANDARD - VERSION 2.00
WRAP .                  YES:  Multiple lines per depth step
~Well Information Block
#MNEM.UNIT        Data Type   Information
#---------- ----------------  -----------
STRT .M          3450.03120:  START DEPTH
STOP .M          3948.83640:  STOP DEPTH
STEP .M             0.15240:  STEP
NULL .              -999.25:  NULL VALUE
COMP .              Statoil:  COMPANY
WELL .        NO_15/9-F-1_C:  WELL
FLD  .                Volve:  FIELD
LOC  .            North Sea:  LOCATION
CTRY .               Norway:  COUNTRY
STAT .                     :  STATE
CNTY .                     :  COUNTY
SRVC .         Schlumberger:  SERVICE COMPANY
DATE .          27-Nov-2014:  DATE
API  .                     :  API NUMBER
UWI  .           15/9-F-1 C:  UNIQUE WELL ID
LATI .     58° 26' 29.91" N:  LATITUDE
LONG .      1° 53' 14.71" E:  LONGITUDE
~Curve Information Block
#MNEM.UNIT         API CODE   Curve Description
#---------- ----------------  -----------------
DEPTH.M                    :  DEPTH (BOREHOLE)
BSAL .PPM                  :  Borehole Salinity
CCLC .V                    :  CCL
CIRF .                     :  RST Capture to Inelastic Ratio Far
CIRN .                     :  RST Capture to Inelastic Ratio Near
CVEL .M/SEC                 :  Cable Velocity
DFRB .DEG                  :  Calibrated Relative Bearing
DSIG .CU                   :  Sigma Difference
FBEF .UA                   :  RST Far Effective Beam Current
GR   .GAPI                 :  Gamma Ray
IRAT .                     :  RST Inelastic Ratio
PFC1 .IN                   :  PFCS CaliperX
PFC2 .IN                   :  PFCS CaliperY
RSCF .                     :  RST Far Detector Effective Unregulated
RSCN .                     :  RST Near Detector Effective
SFFA .CU                   :  RST Sigma Formation Far Apparent
SIBF .CU                   :  RST Sigma Borehole Fluid
SIGM .CU                   :  Formation Sigma (Neutron Capture Cross
TENS .LBF                  :  Cable Tension
TPHI .V/V                  :  Thermal Decay Porosity
~Parameter Information Block
#MNEM.UNIT            Value   Description
#---------- ----------------  -----------
APD  .M           54.900002:  Elevation of Depth Reference (LMF) above Permanent Datum
BHS  .                 CASE:  Borehole Status (Open or Cased Hole)
BS   .IN                8.5:  Bit Size
BSAL .PPM                 0:  Borehole Salinity
BSALOPT.              UNKNOWN:  Borehole Salinity Option
CSIZ .IN                  7:  Current Casing Size
CWEI .LB/F               29:  Casing Weight
EPD  .C3                  0:  Elevation of Permanent Datum above Mean Sea Level
LMF  .                   KB:  Logging Measured From (Name of Logging Elevation Reference)
MATR .                 SAND:  Rock Matrix for Neutron Porosity Corrections
PDAT .                  MSL:  Permanent Datum
RUN  .                Run 1:  RUN NUMBER
TAPE_NAME.     Statoil_Volve_15-9-F-1 C_PLT-RST_28Nov14_ConCu_R1L16Up_SigmaMain.las:  
TOOL_STRING.              UNKNOWN:  
WN   .           15/9-F-1 C:  WELL
PROJECT.     SLEIPNER_OST@st-vlinapp01:  
SET  .       RSTD_1114_SIG1:  
~Other Information Block
~Ascii Log Data
# ...
    3808.01880 
    83477.7969         0.0020         2.0837         0.5689      -0.162030 
      327.3520        -0.5547        88.0451        26.4540     0.32920000 
        6.1636         6.0510         8.4752         7.2738        18.9482 
       52.1667        17.0376      4777.0000     0.20270000
    3808.17120 
    83374.6016         0.0020         1.9509         0.5678      -0.161775 
      327.3520        -0.5620        82.7042        25.9024     0.33300000 
        6.1614         6.0533         8.5994         7.6253        18.1010 
       52.1278        17.3194      4913.7144     0.19880000
    3808.32360 
    82951.6953         0.0222         1.9771         0.5513      -0.162160 
      327.3520        -0.4803        79.1984        27.3734     0.33939999 
        6.1726         6.0510         8.6779         6.7852        19.1068 
       51.9682        17.2421      4774.5713     0.18830000
    3808.47600 
    81909.5000        -0.0611         2.0337         0.5487      -0.162460 
      327.3520        -0.3431        83.6366        29.2122     0.33890000 
        6.1591         6.0553         8.5198         6.6371        18.7261 
       51.5752        17.2232      4751.3335     0.18160000
    3808.62840 
    82054.2969        -0.0373         2.1169         0.5711      -0.162090 
      327.3520        -0.4803        84.7336        29.2367     0.33120000 
        6.1277         6.0510         8.7123         6.9218        18.0519 
       51.6298        17.0731      4679.5000     0.17850000
    3808.78080 
    82519.0938        -0.0185         2.0609         0.5601      -0.161093 
      327.3520        -0.7359        83.2962        30.2542     0.32789999 
        6.1277         6.0510         8.7573         7.0561        18.6634 
       51.8050        17.0380      4480.3569     0.18050000
    3808.93320 
    82731.6016        -0.0945         1.9456         0.5059      -0.161352 
      327.3520        -0.7518        84.3144        33.0123     0.32630000 
        6.1277         6.0510         8.3131         6.6477        18.6251 
       51.8851        16.9557      4518.7144     0.17810000
    3809.08560 
    82039.1016         0.0211         2.0211         0.5408      -0.162155 
      328.7630        -0.8869        81.9826        32.4607     0.33059999 
        6.1277         6.0510         8.6508         6.7454        17.8160 
       51.6240        17.0318      4601.2144     0.17739999
    3809.23800 
    81693.8047        -0.0277         2.0846         0.5912      -0.162593 
      328.7630        -0.8196        82.2772        32.4607     0.33390000 
        6.1277         6.0510         8.6099         7.1438        18.8978 
       51.4939        17.1318      4779.0713     0.17780000
    3809.39040 
    81962.0000        -0.0015         2.1810         0.5701      -0.162577 
      328.7630        -0.6979        83.0779        33.9317     0.33210000 
        6.1277         6.0510         8.9735         6.8870        18.9357 
       51.5950        17.5613      4838.5718     0.17620000
    3809.54280 
    82110.1953        -0.0067         2.1562         0.5815      -0.162213 
      328.7630        -0.9265        84.0583        34.5692     0.33570001 
        6.1277         6.0510         8.8893         7.0790        19.1054 
       51.6508        17.0672      4829.2856     0.17720000
    3809.69520 
    81131.0000        -0.0075         2.0149         0.5528      -0.161935 
      328.7630        -0.8998        78.4561        32.7917     0.33719999 
        6.1277         6.0510         9.2201         7.1520        17.4173 
       51.2820        16.9198      4749.7856     0.17110001
    3809.84760 
    80263.3984        -0.0078         2.1125         0.5710      -0.162168 
      328.7630        -0.8474        82.6464        35.1821     0.33759999 
        6.1524         6.0510         8.6715         6.6792        18.4931 
       50.9555        16.5496      4682.7334     0.17120001
    3810.00000 
    80679.6016         0.0833         2.1751         0.5590      -0.162222 
      328.7630        -1.0604        82.7801        36.1015     0.32839999 
        6.1905         6.0811         8.8827         6.4972        18.0101 
       51.1121        16.9251      4594.7144     0.16850001
    3810.15240 
    80485.3984        -0.0549         2.0466         0.5420      -0.162580 
      328.7630        -1.1852        84.5460        35.9176     0.32820001 
        6.1905         6.0834         8.6226         6.9586        18.5483 
       51.0390        16.8972      4548.5718     0.17340000
    3810.30480 
    80658.0000        -0.0654         2.0065         0.5490      -0.162407 
      328.7630        -0.8704        84.5923        35.1821     0.33039999 
        6.1926         6.0834         8.4832         6.9199        18.4154 
       51.1039        16.8110      4547.2144     0.17540000
    3810.45720 
    80519.3047        -0.0107         2.0794         0.5602      -0.161792 
      328.7630        -0.7845        82.0933        34.6672     0.33770001 
        6.1905         6.0834         8.7962         6.8551        17.7585 
       51.0517        16.5572      4680.9287     0.17580000
    3810.60960 
    79994.9062        -0.0020         2.0345         0.5640      -0.161605 
      328.7630        -0.8942        82.0195        33.5640     0.33620000 
        6.1928         6.0834         8.5722         6.8508        17.7930 
       50.8545        16.5448      4835.1431     0.17140000
    3810.76200 
    80374.5000         0.0031         2.1208         0.5516      -0.162510 
      328.7630        -0.9817        84.9854        30.9897     0.33950001 
        6.2017         6.0834         8.7348         6.8806        18.3808 
       50.9973        16.9119      4915.5713     0.16580001
    3810.91440 
    80221.8047        -0.0064         2.0559         0.5497      -0.162678 
      328.7630        -0.9737        79.5852        31.3574     0.34070000 
        6.2062         6.0649         8.8978         6.7268        18.8699 
       50.9399        17.1356      4835.7144     0.16580001
    3811.06680 
    79457.1953        -0.0070         2.0041         0.5607      -0.162132 
      328.7630        -1.1294        82.9400        30.2542     0.34070000 
        6.1905         6.0510         8.4157         6.8865        18.4746 
       50.6524        17.3557      4829.0000     0.17350000
    3811.21920 
    79468.5000        -0.0590         1.9594         0.5456      -0.162495 
      328.7630        -1.1561        79.8969        30.8916     0.34240001 
        6.1905         6.0510         9.0065         7.4382        19.0509 
       50.6567        17.4801      4703.5718     0.18420000
    3811.37160 
    78728.0000        -0.0796         1.9591         0.5814      -0.162177 
      328.7630        -1.0816        81.0289        30.4871     0.33919999 
        6.1926         6.0510         8.6190         7.3391        19.2466 
       50.3786        17.5841      4543.0000     0.19149999
    3811.52400 
    79130.6953         0.0097         1.9276         0.5511      -0.161967 
      328.7630        -0.8526        84.6362        31.0387     0.34540001 
        6.1950         6.0556         7.8938         6.5999        18.7920 
       50.5298        17.8177      4739.9287     0.19030000
    3811.67640 
    78547.6016         0.0049         1.8545         0.5502      -0.161783 
      328.7630        -0.7419        74.8162        32.1420     0.34140000 
        6.1905         6.0510         8.8090         6.9695        19.7444 
       50.3108        17.5885      4676.1426     0.18750000
    3811.82880 
    78365.0000        -0.0105         1.9827         0.5587      -0.161145 
      328.7630        -0.6419        84.4533        33.9808     0.33570001 
        6.1905         6.0510         8.4982         7.2249        18.5617 
       50.2423        18.2246      4868.9287     0.17960000
    3811.98120 
    78174.2031        -0.0013         2.0203         0.5387      -0.161320 
      330.1740        -0.7954        87.1633        33.6130     0.32589999 
        6.1950         6.0672         8.2688         6.7892        20.7035 
       50.1707        17.8748      4806.4287     0.17590000
