~Version Information Block
VERS .                 2.00:  CWLS LOG ASCII STANDARD - VERSION 2.00
WRAP .                   NO:  One line per depth step
~Well Information Block
#MNEM.UNIT        Data Type   Information
#---------- ----------------  -----------
STRT .M          3445.61160:  START DEPTH
STOP .M          3638.55000:  STOP DEPTH
STEP .M             0.15240:  STEP
NULL .              -999.25:  NULL VALUE
COMP .              Statoil:  COMPANY
WELL .          NO_15/9-F-5:  WELL
FLD  .                VOLVE:  FIELD
LOC  .            North Sea:  LOCATION
CTRY .                     :  COUNTRY
STAT .                     :  STATE
CNTY .                     :  COUNTY
SRVC .         Schlumberger:  SERVICE COMPANY
DATE .          16-Sep-2012:  DATE
API  .                     :  API NUMBER
UWI  .             15/9-F-5:  UNIQUE WELL ID
~Curve Information Block
#MNEM.UNIT         API CODE   Curve Description
#---------- ----------------  -----------------
DEPTH.M                    :  DEPTH (BOREHOLE)
CCLC .V                    :  CCL
CCLD .V                    :  CCL Discriminated Amplitude
CRRA .                     :  Near-Far Count Rate Ratio
CS   .F/MN                 :  Cable Speed
CVEL .M/MIN                 :  Cable Velocity
DEVI .DEG                  :  Hole Deviation
FBEF .UA                   :  RST Far Effective Beam Current
FCOR .                     :  RST Far Carbon/Oxygen Ratio
FERD .                     :  RST Far IC Mode Capture Optimization Resolution Degradation Factor
FIRD .                     :  RST Far Inelastic Optimization Resolution Degradation Factor
GR   .GAPI                 :  Gamma Ray
NCOR .                     :  RST Near Carbon/Oxygen Ratio
NERD .                     :  RST Near IC Mode Capture Optimization Resolution Degradation Factor
NIRD .                     :  RST Near Inelastic Optimization Resolution Degradation Factor
RB_PCMS.DEG                  :  Relative Bearing
TENS .LBF                  :  Cable Tension
WPRE .PSI                  :  Well Pressure
WTEP .DEGC                 :  Well Temperature
~Parameter Information Block
#MNEM.UNIT            Value   Description
#---------- ----------------  -----------
APD  .M           54.900002:  Elevation of Depth Reference (LMF) above Permanent Datum
RUN  .                Run 1:  RUN NUMBER
PROJECT.     SLEIPNER_OST@st-vlinapp01:  
SET  .        RSTD_0912_IC2:  
~Other Information Block
# 
~A       DEPTH           CCLC           CCLD           CRRA             CS           CVEL           DEVI           FBEF           FCOR           FERD           FIRD             GR           NCOR           NERD           NIRD        RB_PCMS           TENS           WPRE           WTEP 
# ...
    3609.13680        -0.0129         0.0000         2.8865         1.1795      -0.363700        54.5149       114.1990     0.02550000         4.4688         4.4688        27.0608    -0.01020000         2.0335         2.0335         8.1171      2787.1831      5128.8691        67.5125
    3609.28920        -0.0167         0.0000         2.8973         1.3681      -0.381700        54.5352       113.3832     0.02720000         4.3201         4.3201        27.1412    -0.03780000         1.9529         1.9529         8.0906      2794.6694      5129.0034        67.5608
    3609.44160        -0.0210         0.0000         2.8556         1.2503      -0.379200        54.5438       112.9739     0.08670000         4.3904         4.3904        27.0553     0.00190000         1.9714         1.9714         8.0928      2793.2549      5129.1343        67.5418
    3609.59400        -0.0219         0.0000         2.8420         1.2208      -0.372900        54.5466       114.7590    -0.01360000         4.3791         4.3791        26.9576     0.01190000         2.0469         2.0469         8.0616      2794.5217      5129.2568        67.5674
    3609.74640        -0.0208         0.0000         2.9228         1.2379      -0.379200        54.5601       116.0086     0.03150000         4.2808         4.2808        27.8579    -0.03610000         2.0685         2.0685         8.1046      2791.8071      5129.4175        67.5954
    3609.89880         0.0587         0.0000         2.9681         1.2585      -0.382000        54.5582       116.0066    -0.09890000         4.3083         4.3083        27.4891    -0.02960000         2.0313         2.0313         8.0698      2791.7822      5129.5269        67.6235
    3610.05120         0.0050         0.0000         2.9871         1.2585      -0.381400        54.5644       115.6925    -0.02530000         4.2891         4.2891        27.5097     0.00130000         1.9984         1.9984         8.0342      2789.6184      5129.6772        67.6432
    3610.20360        -0.0006         0.0000         2.9344         1.2287      -0.375900        54.5417       114.4995    -0.17180000         4.3377         4.3377        27.3810    -0.01460000         1.9708         1.9708         8.0786      2787.8413      5129.7925        67.6856
    3610.35600         0.0905         0.0000         2.9171         1.2372      -0.376900        54.5290       114.4745    -0.09200000         4.2575         4.2575        27.3714     0.02610000         2.0386         2.0386         8.1275      2774.2893      5129.8960        67.7016
    3610.50840        -0.0188         0.0000         2.9002         1.2497      -0.379700        54.5119       113.4849    -0.06960000         4.2579         4.2579        27.2309     0.03460000         2.0346         2.0346         8.1661      2771.1079      5130.0444        67.7154
    3610.66080         0.0001         0.0000         2.8715         1.2096      -0.376800        54.4963       112.6418     0.03460000         4.1497         4.1497        28.7033    -0.03440000         2.0727         2.0727         8.1251      2796.8296      5130.1572        67.6902
    3610.81320        -0.0189         0.0000         2.8489         1.2211      -0.372400        54.4682       113.3905    -0.02570000         4.1706         4.1706        28.4365    -0.05850000         2.0905         2.0905         7.9558      2795.0596      5130.2915        67.7473
    3610.96560        -0.0176         0.0000         2.8808         1.2454      -0.378600        54.4336       112.8947    -0.01890000         4.2684         4.2684        28.4533     0.04730000         2.0635         2.0635         7.7641      2796.2458      5130.4121        67.7784
    3611.11800        -0.0177         0.0000         2.8565         1.2500      -0.382100        54.4248       112.5367    -0.00390000         4.1115         4.1115        28.6452    -0.02060000         2.0904         2.0904         7.7599      2790.3818      5130.5757        67.8228
    3611.27040        -0.0460         0.0000         2.8475         1.2585      -0.384200        54.4070       112.8020     0.00360000         4.0419         4.0419        27.9902    -0.00050000         2.0639         2.0639         7.7106      2802.0759      5130.7427        67.8966
    3611.42280         0.0375         0.0000         2.8647         1.2454      -0.383500        54.4118       113.3590     0.00420000         4.0088         4.0088        26.8097    -0.04740000         2.1036         2.1036         7.6365      2799.6833      5130.8511        67.8826
    3611.57520        -0.0407        -0.0407         2.9005         1.2582      -0.386700        54.4063       115.2434     0.00660000         3.9135         3.9135        26.8442    -0.05430000         2.1144         2.1144         7.5399      2784.9917      5130.9551        67.9218
    3611.72760         0.0765         0.0765         3.0314         1.2887      -0.387900        54.4041       117.4912    -0.14940000         4.0759         4.0759        27.5304     0.07270000         2.1310         2.1310         7.4536      2786.1567      5131.0762        68.0048
    3611.88000         0.8896         0.8896         3.1046         1.2290      -0.379300        54.3938       117.0845    -0.09740000         3.8309         3.8309        26.6851     0.03890000         2.1350         2.1350         7.4375      2791.6133      5131.2363        68.0413
    3612.03240        -0.0068         0.0000         3.0106         1.2536      -0.382000        54.3878       113.8307    -0.08550000         3.8942         3.8942        27.1233    -0.00040000         2.1664         2.1664         7.5307      2793.9917      5131.3662        68.0536
    3612.18480         0.1098         0.0000         2.9004         1.2372      -0.377500        54.3915       112.2992     0.05560000         3.9264         3.9264        28.1105     0.04120000         2.2014         2.2014         7.7174      2788.3416      5131.5264        68.0581
    3612.33720         0.0134         0.0000         2.8446         1.2415      -0.377600        54.3017       111.5425    -0.01500000         4.0322         4.0322        28.0903    -0.00260000         2.1624         2.1624         7.7414      2794.9312      5131.6650        68.0533
    3612.48960        -0.0127         0.0000         2.8459         1.2323      -0.377300        54.3122       112.3872     0.03390000         3.9425         3.9425        27.4467     0.00370000         2.2279         2.2279         7.6863      2781.7383      5131.7729        68.1440
    3612.64200        -0.0706         0.0000         2.8632         1.2543      -0.381900        54.3198       112.3178    -0.00690000         3.9638         3.9638        27.3376    -0.03270000         2.2220         2.2220         7.6074      2788.6973      5131.9121        68.1580
    3612.79440         0.0649         0.0000         2.8576         1.2539      -0.381600        54.3188       111.9973    -0.03530000         4.0225         4.0225        27.3166     0.07200000         2.2553         2.2553         7.5757      2790.4902      5132.0249        68.1407
    3612.94680        -0.0117         0.0000         2.8419         1.2497      -0.380900        54.3239       111.7913    -0.04760000         4.0999         4.0999        26.7331    -0.02970000         2.2191         2.2191         7.5292      2800.1641      5132.1934        68.2168
    3613.09920        -0.0125         0.0000         2.8513         1.2671      -0.384100        54.3515       111.3124    -0.03120000         4.0985         4.0985        27.2504    -0.00050000         2.1907         2.1907         7.4850      2807.7339      5132.2891        68.2712
    3613.25160        -0.1001         0.0000         2.8391         1.2625      -0.382700        54.3690       111.8146     0.06690000         4.0388         4.0388        27.2755    -0.04120000         2.2014         2.2014         7.6679      2796.2234      5132.4297        68.3417
    3613.40400        -0.0133         0.0000         2.8493         1.2585      -0.385100        54.3793       111.3232     0.03050000         4.0054         4.0054        27.6134    -0.04830000         2.2443         2.2443         7.7476      2795.2046      5132.5645        68.3708
