~Version Information Block
VERS .                 2.00:  CWLS LOG ASCII STANDARD - VERSION 2.00
WRAP .                   NO:  One line per depth step
~Well Information Block
#MNEM.UNIT        Data Type   Information
#---------- ----------------  -----------
STRT .M          3445.30680:  START DEPTH
STOP .M          3635.80680:  STOP DEPTH
STEP .M             0.15240:  STEP
NULL .              -999.25:  NULL VALUE
COMP .              Statoil:  COMPANY
WELL .          NO_15/9-F-5:  WELL
FLD  .                VOLVE:  FIELD
LOC  .            North Sea:  LOCATION
CTRY .                     :  COUNTRY
STAT .                     :  STATE
CNTY .                     :  COUNTY
SRVC .         Schlumberger:  SERVICE COMPANY
DATE .          16-Sep-2012:  DATE
API  .                     :  API NUMBER
UWI  .             15/9-F-5:  UNIQUE WELL ID
~Curve Information Block
#MNEM.UNIT         API CODE   Curve Description
#---------- ----------------  -----------------
DEPTH.M                    :  DEPTH (BOREHOLE)
CCLC .V                    :  CCL
CCLD .V                    :  CCL Discriminated Amplitude
CRRA .                     :  Near-Far Count Rate Ratio
CS   .F/MN                 :  Cable Speed
CVEL .M/MIN                 :  Cable Velocity
DEVI .DEG                  :  Hole Deviation
FBEF .UA                   :  RST Far Effective Beam Current
FCOR .                     :  RST Far Carbon/Oxygen Ratio
FERD .                     :  RST Far IC Mode Capture Optimization Resolution Degradation Factor
FIRD .                     :  RST Far Inelastic Optimization Resolution Degradation Factor
GR   .GAPI                 :  Gamma Ray
NCOR .                     :  RST Near Carbon/Oxygen Ratio
NERD .                     :  RST Near IC Mode Capture Optimization Resolution Degradation Factor
NIRD .                     :  RST Near Inelastic Optimization Resolution Degradation Factor
RB_PCMS.DEG                  :  Relative Bearing
TENS .LBF                  :  Cable Tension
WPRE .PSI                  :  Well Pressure
WTEP .DEGC                 :  Well Temperature
~Parameter Information Block
#MNEM.UNIT            Value   Description
#---------- ----------------  -----------
APD  .M           54.900002:  Elevation of Depth Reference (LMF) above Permanent Datum
RUN  .                Run 1:  RUN NUMBER
PROJECT.     SLEIPNER_OST@st-vlinapp01:  
SET  .        RSTD_0912_IC1:  
~Other Information Block
# 
~A       DEPTH           CCLC           CCLD           CRRA             CS           CVEL           DEVI           FBEF           FCOR           FERD           FIRD             GR           NCOR           NERD           NIRD        RB_PCMS           TENS           WPRE           WTEP 
# ...
    3569.05560        -0.1135         0.0000         2.8584         1.3392      -0.407200        54.4526       111.0366     0.00650000         4.5906         4.5906        33.1621       0.042000         2.4234         2.4234         7.3858      2689.8257      5095.6997        85.3920
    3569.20800        -0.0064         0.0000         2.9033         1.3481      -0.408200        54.4536       111.6483    -0.04170000         4.5502         4.5502        33.7443      -0.050400         2.3487         2.3487         7.4170      2703.7939      5095.8096        85.3780
    3569.36040        -0.0111         0.0000         2.8991         1.3009      -0.399700        54.4488       111.8444    -0.17730001         4.5287         4.5287        34.7018      -0.003100         2.3508         2.3508         7.4449      2704.0789      5095.9375        85.3710
    3569.51280        -0.0131         0.0000         2.8911         1.3025      -0.397000        54.4532       113.0684    -0.01330000         4.7084         4.7084        35.3361       0.044000         2.3567         2.3567         7.4810      2700.8499      5096.0527        85.3514
    3569.66520        -0.0148         0.0000         2.9046         1.3481      -0.399100        54.4634       113.1493     0.03290000         4.7317         4.7317        36.4859       0.031400         2.3805         2.3805         7.6114      2704.6309      5096.2246        85.3362
    3569.81760        -0.0114         0.0000         2.9102         1.2664      -0.390600        54.4830       113.7093     0.02340000         4.6906         4.6906        37.7949      -0.066600         2.3784         2.3784         7.7704      2714.9092      5096.3418        85.3291
    3569.97000        -0.0134         0.0000         2.9173         1.3028      -0.395200        54.4846       113.0315     0.03720000         4.7846         4.7846        40.2220       0.009300         2.4027         2.4027         7.8485      2705.3381      5096.4312        85.3116
    3570.12240        -0.0136         0.0000         2.8898         1.2759      -0.394800        54.4860       113.5542     0.09990000         4.7612         4.7612        41.6487      -0.019000         2.3569         2.3569         7.7964      2702.3113      5096.5825        85.3030
    3570.27480        -0.0329         0.0000         2.8937         1.3048      -0.397700        54.4889       114.4538    -0.03300000         4.6329         4.6329        43.1754       0.057900         2.3685         2.3685         7.7123      2696.9189      5096.6909        85.2868
    3570.42720         0.1885         0.0000         2.9301         1.3209      -0.399500        54.4916       113.5687    -0.00420000         4.7086         4.7086        43.2119      -0.014500         2.4030         2.4030         7.4163      2705.6455      5096.8125        85.2704
    3570.57960         0.0883         0.0000         2.9064         1.2930      -0.392000        54.4999       113.5920    -0.04310000         4.7161         4.7161        42.5626      -0.014900         2.4070         2.4070         7.0010      2703.2981      5096.9312        85.2617
    3570.73200         0.0700         0.0000         2.9031         1.3028      -0.398300        54.5145       114.0358     0.03110000         4.7064         4.7064        41.8437      -0.010500         2.3777         2.3777         7.0275      2699.1479      5097.0542        85.2434
    3570.88440        -0.0083         0.0000         2.9142         1.2927      -0.393400        54.5213       114.1726     0.05710000         4.6816         4.6816        40.8287       0.021300         2.3528         2.3528         7.0770      2693.8132      5097.1763        85.2278
    3571.03680        -0.0078         0.0000         2.9309         1.3005      -0.402000        54.5262       112.9283    -0.00490000         4.6651         4.6651        40.1077       0.024000         2.3861         2.3861         7.1663      2693.6746      5097.3022        85.2095
    3571.18920        -0.0067         0.0000         2.8888         1.3199      -0.401700        54.5282       113.5357    -0.00590000         4.7881         4.7881        40.1398       0.008200         2.4130         2.4130         7.0943      2710.9824      5097.4741        85.1917
    3571.34160        -0.0079         0.0000         2.8991         1.3264      -0.408600        54.5177       113.4628    -0.04570000         4.7228         4.7228        40.5746      -0.004300         2.4263         2.4263         6.9899      2710.3127      5097.5640        85.1757
    3571.49400        -0.0094         0.0000         2.8972         1.3678      -0.412900        54.5250       113.9206    -0.16030000         4.8466         4.8466        40.0777       0.025400         2.4086         2.4086         6.9055      2700.2871      5097.6714        85.1548
    3571.64640        -0.0072         0.0000         2.9161         1.3930      -0.418700        54.5122       113.5458    -0.08420000         4.9541         4.9541        39.3069       0.017300         2.4670         2.4670         6.7328      2701.6230      5097.8115        85.1343
    3571.79880        -0.0071         0.0000         2.8968         1.3796      -0.417500        54.5245       113.3853    -0.08890000         4.9285         4.9285        38.2657      -0.011200         2.5037         2.5037         6.8140      2694.9089      5097.9385        85.1133
    3571.95120        -0.0077         0.0000         2.9055         1.3661      -0.413700        54.5457       114.1653     0.01370000         4.9312         4.9312        36.8845      -0.091900         2.4617         2.4617         7.0922      2693.5940      5098.0508        85.0973
    3572.10360        -0.0089         0.0000         2.9182         1.3100      -0.405000        54.5489       113.9810    -0.15220000         4.9644         4.9644        35.4657      -0.076900         2.3946         2.3946         7.3596      2694.4260      5098.1943        85.0682
    3572.25600        -0.0109         0.0000         2.9013         1.2753      -0.390100        54.5497       113.8575    -0.09060000         4.9537         4.9537        35.0606      -0.039300         2.3723         2.3723         7.3848      2696.3477      5098.3203        85.0566
    3572.40840         0.0960         0.0000         2.8994         1.2933      -0.392300        54.5446       114.1771    -0.02280000         5.0138         5.0138        35.2854       0.035600         2.3813         2.3813         7.3480      2690.2544      5098.4419        85.0387
    3572.56080        -0.0053         0.0000         2.9083         1.2782      -0.389300        54.5398       114.2132     0.01700000         4.9822         4.9822        36.7439       0.010900         2.3767         2.3767         7.3063      2700.9888      5098.5366        85.0179
    3572.71320        -0.0027         0.0000         2.8978         1.2972      -0.392300        54.5332       114.3719     0.13140000         4.9136         4.9136        37.9270      -0.014600         2.3615         2.3615         7.2738      2693.0515      5098.6665        85.0035
    3572.86560         0.0641         0.0000         2.9221         1.3120      -0.398500        54.5205       115.4387    -0.00610000         4.9960         4.9960        37.9626      -0.033600         2.3751         2.3751         7.2743      2703.9771      5098.7812        84.9858
    3573.01800        -0.0046         0.0000         2.9422         1.3015      -0.402600        54.5263       115.4705     0.03940000         4.9784         4.9784        37.5166       0.061600         2.3705         2.3705         7.3153      2706.0413      5098.9048        84.9522
    3573.17040        -0.0024         0.0000         2.9240         1.3389      -0.407600        54.5560       115.5383     0.10880000         4.9615         4.9615        36.9107      -0.018100         2.3743         2.3743         7.3599      2700.0950      5099.0845        84.9405
    3573.32280        -0.0048         0.0000         2.9295         1.3081      -0.398000        54.5699       115.6328     0.00240000         4.9925         4.9925        34.6797      -0.001700         2.3372         2.3372         7.4223      2698.7026      5099.1841        84.9169
