~Version Information Block
VERS .                 2.00:  CWLS LOG ASCII STANDARD - VERSION 2.00
WRAP .                   NO:  One line per depth step
~Well Information Block
#MNEM.UNIT        Data Type   Information
#---------- ----------------  -----------
STRT .M          3457.23500:  START DEPTH
STOP .M          3635.08580:  STOP DEPTH
STEP .M             0.15240:  STEP
NULL .              -999.25:  NULL VALUE
COMP .                     :  COMPANY
WELL .          NO_15/9-F-5:  WELL
FLD  .                     :  FIELD
LOC  .                     :  LOCATION
CTRY .                     :  COUNTRY
STAT .                     :  STATE
CNTY .                     :  COUNTY
SRVC .                     :  SERVICE COMPANY
DATE .                     :  DATE
API  .                     :  API NUMBER
UWI  .                     :  UNIQUE WELL ID
~Curve Information Block
#MNEM.UNIT         API CODE   Curve Description
#---------- ----------------  -----------------
DEPTH.M                    :  
SAT201IC_BHOF.                     :  
SAT201IC_BVW.                     :  
SAT201IC_CRRA.                     :  Near-Far Count Rate Ratio
SAT201IC_FBEF.UA                   :  RST Far Effective Beam Current
SAT201IC_FCOR.                     :  
SAT201IC_GR.GAPI                 :  Gamma Ray
SAT201IC_NCOR.                     :  
SAT201IC_SO.                     :  
SAT201IC_SW.                     :  
SAT201IC_WPRE.PSI                  :  Well Pressure
SAT201IC_WTEP.DEGC                 :  Well Temperature
SAT201SI_BSAL.PPM                  :  Borehole Salinity
SAT201SI_GR.GAPI                 :  Gamma Ray
SAT201SI_IRAT.                     :  RST Inelastic Ratio
SAT201SI_RSCF.                     :  RST Far Detector Effective Unregulated Capture Count Rate
SAT201SI_RSCN.                     :  RST Near Detector Effective Unregulated Capture Count Rate
SAT201SI_SIGR.CU                   :  Formation Sigma (Neutron Capture Cross Section)
SAT201SI_TPHI.V/V                  :  Thermal Decay Porosity
~Parameter Information Block
#MNEM.UNIT            Value   Description
#---------- ----------------  -----------
CUR_INT_BOT.M           3635.2382:  
PROJECT.     SLEIPNER_OST@st-vlinapp01:  
SET  .            RSTD_0912:  
~Other Information Block
# 
~A       DEPTH  SAT201IC_BHOF   SAT201IC_BVW  SAT201IC_CRRA  SAT201IC_FBEF  SAT201IC_FCOR    SAT201IC_GR  SAT201IC_NCOR    SAT201IC_SO    SAT201IC_SW  SAT201IC_WPRE  SAT201IC_WTEP  SAT201SI_BSAL    SAT201SI_GR  SAT201SI_IRAT  SAT201SI_RSCF  SAT201SI_RSCN  SAT201SI_SIGR  SAT201SI_TPHI 
# ...
    3527.94860      0.0054900       0.163200         3.0239       112.7121     -0.0026000        31.4452      0.0190400       0.038800         0.6334      5059.8643        92.0810     26654.8008        13.2763       0.324900        10.4867        10.6879        13.3102       0.199900
    3528.10100      0.0055300       0.173280         2.8975       110.2992     -0.0127900        31.5256      0.0154100       0.011900         0.6660      5060.0278        92.0675     26373.4004        14.4052       0.332200        11.7691        10.7718        13.2874       0.195500
    3528.25340      0.0053600       0.186980         2.8291       109.7212     -0.0081100        32.0860      0.0046300       0.024400         0.7237      5060.1401        92.0438     26347.0996        14.9034       0.330500        11.6859        11.1869        13.2367       0.190300
    3528.40580      0.0055700       0.200110         2.8156       109.9262      0.0032100        33.0369     -0.0048200       0.054000         0.7926      5060.2949        92.0175     25356.5996        14.2495       0.324700        11.5415        10.5170        13.3591       0.182700
    3528.55820      0.0054500       0.206280         2.8193       109.7178      0.0090400        32.7948     -0.0008600       0.069200         0.8280      5060.4141        91.9928     25335.6992        13.6682       0.325500        11.7136        10.7714        13.2758       0.182800
    3528.71060      0.0043200       0.203420         2.8210       109.4735      0.0095900        32.4519      0.0013300       0.070900         0.8160      5060.5513        91.9654     25418.6992        14.0004       0.327100        11.9023        11.1072        13.1715       0.183100
    3528.86300      0.0034000       0.199240         2.8387       108.3986      0.0160100        32.6268      0.0035400       0.087100         0.7897      5060.6714        91.9390     25916.7012        12.9545       0.329800        11.7543        11.0882        12.9201       0.185900
    3529.01540      0.0025200       0.196250         2.8048       109.5164      0.0175100        32.1495      0.0044600       0.091100         0.7745      5060.8335        91.9236     25809.2988        12.9649       0.325800        11.8347        10.6549        12.8948       0.187500
    3529.16780      0.0009000       0.195000         2.8097       110.2949      0.0119400        31.2572      0.0074800       0.077900         0.7793      5060.9453        91.8885     25955.0996        12.9649       0.327100        11.2927        10.7404        12.7752       0.192700
    3529.32020     -0.0006800       0.196880         2.8248       110.4627      0.0104200        30.5189      0.0058300       0.074800         0.7969      5061.0747        91.8633     26101.5000        12.9649       0.327100        11.4176        10.7738        12.9919       0.195900
    3529.47260     -0.0016100       0.199140         2.8335       110.6464      0.0173100        30.4923     -0.0013200       0.092400         0.8078      5061.2251        91.8442     26184.2988        11.4883       0.327100        11.7245        11.1749        13.0514       0.200600
    3529.62500     -0.0018400       0.199870         2.8358       111.5187      0.0108700        29.9823     -0.0059500       0.076100         0.7990      5061.3423        91.8288     26477.5996        11.3222       0.325600        11.5395        10.8455        13.2792       0.199100
    3529.77740     -0.0014700       0.188820         2.8548       111.9948      0.0030300        29.8864     -0.0018100       0.055900         0.7477      5061.4878        91.7975     25969.1016        10.7306       0.324900        11.3113        10.7348        13.4399       0.198300
    3529.92980     -0.0006100       0.177780         2.8613       111.5172      0.0133100        30.2373      0.0027700       0.081100         0.6817      5061.6211        91.7661     26002.8984        10.5645       0.326700        11.3721        10.8202        13.7016       0.198500
    3530.08220      0.0001500       0.164540         2.8467       111.3006      0.0260000        30.8212      0.0018200       0.111700         0.6213      5061.7808        91.7283     25990.5000        10.4892       0.326200        11.2584        11.6183        13.7592       0.202800
    3530.23460      0.0014500       0.152880         2.8583       112.3627      0.0269900        31.3556      0.0034000       0.114000         0.5871      5061.9092        91.7077     25682.9004        10.6372       0.325700        11.5181        11.3261        13.6389       0.206000
    3530.38700      0.0037800       0.159400         2.8651       112.0732      0.0266300        31.1823      0.0062500       0.112300         0.6085      5062.0186        91.6875     25328.3008        10.8032       0.322900        11.2596        10.5948        13.4081       0.206600
    3530.53940      0.0068000       0.171610         2.8728       111.6895      0.0217100        30.7921      0.0079100       0.099400         0.6526      5062.1562        91.6482     25220.8008        11.3015       0.319900        11.1215        10.7995        13.3307       0.205800
    3530.69180      0.0097900       0.185140         2.8439       112.8908      0.0211100        31.6863      0.0076800       0.096900         0.7007      5062.3174        91.6351     24505.6992        11.6337       0.323800        10.9141        10.6156        13.5208       0.201500
    3530.84420      0.0126300       0.196780         2.8833       112.1699      0.0112700        32.0903      0.0050100       0.071600         0.7381      5062.4316        91.6052     24139.2988        11.3119       0.327300        11.5433        11.0697        13.4575       0.196600
    3530.99660      0.0142400       0.203350         2.8610       111.3270     -0.0024800        32.2451      0.0073400       0.036100         0.7589      5062.5718        91.5837     24133.1992        12.1423       0.329900        12.2906        11.3122        13.2950       0.190600
    3531.14900      0.0144700       0.205780         2.8503       110.2485     -0.0065100        32.8267      0.0061200       0.025600         0.7712      5062.6992        91.5548     24890.3008        12.4745       0.328400        12.1622        11.3094        13.2045       0.187000
    3531.30140      0.0139100       0.203490         2.8497       109.2338     -0.0056200        33.6000     -0.0014300       0.028200         0.7792      5062.8364        91.5223     24979.2012        12.8897       0.328000        11.5383        10.6163        13.5601       0.183200
    3531.45380      0.0130800       0.209830         2.8068       109.4159     -0.0181200        32.8361     -0.0059600      -0.004800         0.8151      5062.9858        91.5093     24817.3008        12.5575       0.325900        11.4363        10.6953        13.7970       0.184700
    3531.60620      0.0119900       0.213940         2.8093       110.6161     -0.0230600        32.1811     -0.0008300      -0.018000         0.8758      5063.1099        91.4735     24612.4004        13.4424       0.324300        11.2550        10.5051        14.0008       0.187200
    3531.75860      0.0107200       0.220500         2.8436       111.3411     -0.0196700        31.5581      0.0019600      -0.008200         0.9402      5063.2437        91.4501     24402.0000        12.1137       0.326700        11.1431        10.8582        14.0116       0.193300
    3531.91100      0.0091100       0.226290         2.8520       110.9391     -0.0145000        31.1856      0.0077200       0.006500         0.9613      5063.3887        91.4226     24307.3008        11.4494       0.325900        10.4719        10.3219        14.1179       0.193400
    3532.06340      0.0077800       0.224020         2.8357       110.4449     -0.0139000        30.3753      0.0130800       0.008500         0.9450      5063.5171        91.3932     24559.6992        11.7816       0.326800        10.9870        10.7511        14.1497       0.190900
    3532.21580      0.0073400       0.217100         2.8339       111.2455     -0.0112100        30.6154      0.0183000       0.016000         0.9216      5063.6611        91.3631     24322.0996        12.3629       0.325900        11.1240        10.4110        14.0121       0.184800
