~Version Information Block
VERS .                 2.00:  CWLS LOG ASCII STANDARD - VERSION 2.00
WRAP .                   NO:  One line per depth step
~Well Information Block
#MNEM.UNIT        Data Type   Information
#---------- ----------------  -----------
STRT .M          3201.31440:  START DEPTH
STOP .M          3410.40720:  STOP DEPTH
STEP .M             0.15240:  STEP
NULL .              -999.25:  NULL VALUE
COMP .              Statoil:  COMPANY
WELL .          NO_15/9-F-4:  WELL
FLD  .                VOLVE:  FIELD
LOC  .            North Sea:  LOCATION
CTRY .                     :  COUNTRY
STAT .                     :  STATE
CNTY .                     :  COUNTY
SRVC .         Schlumberger:  SERVICE COMPANY
DATE .          13-Sep-2012:  DATE
API  .                     :  API NUMBER
UWI  .             15/9-F-4:  UNIQUE WELL ID
~Curve Information Block
#MNEM.UNIT         API CODE   Curve Description
#---------- ----------------  -----------------
DEPTH.M                    :  DEPTH (BOREHOLE)
CCLC .V                    :  CCL
CCLD .V                    :  CCL Discriminated Amplitude
CRRA .                     :  Near-Far Count Rate Ratio
CVEL .M/MIN                 :  Cable Velocity
DEVI .DEG                  :  Hole Deviation
FBEF .UA                   :  RST Far Effective Beam Current
FCOR .                     :  RST Far Carbon/Oxygen Ratio
FERD .                     :  RST Far IC Mode Capture Optimization Resolution Degradation Factor
FIRD .                     :  RST Far Inelastic Optimization Resolution Degradation Factor
GR   .GAPI                 :  Gamma Ray
NCOR .                     :  RST Near Carbon/Oxygen Ratio
NERD .                     :  RST Near IC Mode Capture Optimization Resolution Degradation Factor
NIRD .                     :  RST Near Inelastic Optimization Resolution Degradation Factor
RB_PCMS.DEG                  :  Relative Bearing
TENS .LBF                  :  Cable Tension
WPRE .PSI                  :  Well Pressure
WTEP .DEGC                 :  Well Temperature
WTPE .MS                   :  Well Temperature Period
~Parameter Information Block
#MNEM.UNIT            Value   Description
#---------- ----------------  -----------
APD  .M                  54:  Elevation of Depth Reference (LMF) above Permanent Datum
RUN  .                    1:  RUN NUMBER
PROJECT.     SLEIPNER_OST@st-vlinapp01:  
SET  .        RSTD_0912_IC2:  
~Other Information Block
# 
~A       DEPTH           CCLC           CCLD           CRRA           CVEL           DEVI           FBEF           FCOR           FERD           FIRD             GR           NCOR           NERD           NIRD        RB_PCMS           TENS           WPRE           WTEP           WTPE 
# ...
    3254.34960        0.00810        0.00000         2.7659       -0.56870        52.0367       106.5966         0.0070         5.5437         5.5437        29.7093    -0.02170000         2.6829         2.6829       356.5704      2285.4531      4908.6362        95.5559         4.0200
    3254.50200        0.00620        0.00000         2.7860       -0.52930        52.0366       107.3904         0.1573         5.6157         5.6157        29.5844     0.00460000         2.6849         2.6849       356.5897      2306.8508      4908.7817        95.5620         4.0201
    3254.65440       -0.02000        0.00000         2.7934       -0.34110        52.0289       106.5230         0.0431         5.6936         5.6936        30.1281    -0.04270000         2.6621         2.6621       356.4762      2302.6235      4908.8965        95.5753         4.0202
    3254.80680        0.01660        0.00000         2.7904       -0.34650        51.9926       106.8402        -0.0476         5.5402         5.5402        29.9675    -0.05760000         2.6354         2.6354       355.9066      2291.6851      4909.0415        95.5801         4.0202
    3254.95920       -0.03530        0.00000         2.7725       -0.36360        51.9471       106.2382         0.0004         5.7767         5.7767        28.4828     0.04170000         2.7087         2.7087       355.7203      2293.5493      4909.1729        95.5835         4.0203
    3255.11160        0.04980        0.00000         2.7680       -0.36630        51.9253       106.4708         0.0449         5.8691         5.8691        28.5928     0.08100000         2.6985         2.6985       355.5345      2298.6213      4909.3081        95.5912         4.0203
    3255.26400        0.05120        0.00000         2.7610       -0.36310        51.9154       107.0147         0.0530         5.8154         5.8154        28.4761     0.01700000         2.7238         2.7238       355.5201      2294.8591      4909.4175        95.6045         4.0205
    3255.41640        0.10770        0.10770         2.7845       -0.36290        51.8987       108.3441         0.0051         5.8997         5.8997        27.2655     0.00090000         2.7304         2.7304       355.6322      2298.5422      4909.5879        95.6054         4.0205
    3255.56880        0.02760        0.02760         2.8522       -0.36960        51.8986       111.1749        -0.1054         5.9033         5.9033        26.8841    -0.03110000         2.7389         2.7389       355.7506      2304.3513      4909.7061        95.6083         4.0205
    3255.72120        0.02250        0.00000         2.9802       -0.36320        51.9127       113.6048         0.0029         5.8440         5.8440        28.2233    -0.01790000         2.6840         2.6840       355.8512      2295.1719      4909.8262        95.6096         4.0205
    3255.87360       -0.01590        0.00000         3.0006       -0.36830        51.9071       111.3745        -0.1580         6.0044         6.0044        28.3857    -0.13689999         2.7090         2.7090       356.0573      2296.1855      4909.9849        95.6177         4.0206
    3256.02600       -0.02510        0.00000         2.8798       -0.36510        51.8612       110.4955         0.0262         5.9709         5.9709        28.7133     0.01710000         2.7436         2.7436       356.1910      2294.8032      4910.1069        95.6207         4.0206
    3256.17840        0.02900        0.00000         2.8264       -0.36250        51.8418       108.3794         0.0403         5.9301         5.9301        30.3646    -0.04250000         2.8048         2.8048       356.1161      2295.5793      4910.2412        95.6276         4.0207
    3256.33080       -0.00970        0.00000         2.8002       -0.36440        51.8440       106.9620         0.0729         5.9973         5.9973        32.2785    -0.00750000         2.7541         2.7541       356.0180      2303.2952      4910.3857        95.6368         4.0207
    3256.48320       -0.01460        0.00000         2.7929       -0.36070        51.8098       107.4189         0.0010         5.9292         5.9292        33.3069    -0.00100000         2.7586         2.7586       356.0569      2286.9343      4910.4966        95.6413         4.0208
    3256.63560       -0.00610        0.00000         2.7914       -0.36430        51.8059       107.7445         0.0020         5.7638         5.7638        34.6502     0.03590000         2.7929         2.7929       356.0804      2303.7261      4910.6182        95.6495         4.0209
    3256.78800       -0.00530        0.00000         2.8122       -0.36160        51.8080       107.9973         0.0062         5.8578         5.8578        35.3622     0.06810000         2.7370         2.7370       356.1193      2290.1350      4910.7783        95.6500         4.0209
    3256.94040       -0.00800        0.00000         2.8111       -0.36150        51.8216       108.2026        -0.1134         5.9454         5.9454        34.7408     0.08230000         2.7393         2.7393       356.1851      2291.6016      4910.9009        95.6505         4.0209
    3257.09280        0.00310        0.00000         2.8144       -0.36060        51.8218       107.9372         0.1064         5.9488         5.9488        33.7481    -0.00190000         2.7380         2.7380       356.2486      2299.9868      4911.0327        95.6653         4.0210
    3257.24520       -0.01100        0.00000         2.8144       -0.36080        51.8429       107.3931        -0.0779         5.9548         5.9548        32.7834     0.07270000         2.7084         2.7084       356.3630      2291.1584      4911.1655        95.6722         4.0211
    3257.39760       -0.08520        0.00000         2.7912       -0.36170        51.8595       108.2287         0.1032         5.8540         5.8540        31.6019     0.10170000         2.7539         2.7539       356.5092      2294.8760      4911.2812        95.6797         4.0211
    3257.55000       -0.01180        0.00000         2.8122       -0.36050        51.8679       107.5480         0.1624         5.8126         5.8126        30.6353    -0.01500000         2.7093         2.7093       356.4902      2296.3369      4911.4272        95.6846         4.0212
    3257.70240        0.06130        0.00000         2.8001       -0.36300        51.8861       107.3612         0.0105         5.7785         5.7785        30.2517     0.05260000         2.7079         2.7079       356.3008      2295.3723      4911.5664        95.6867         4.0212
    3257.85480        0.03210        0.00000         2.7886       -0.36630        51.8924       107.4793         0.1810         5.6990         5.6990        30.3545    -0.04380000         2.6701         2.6701       356.2103      2298.7188      4911.7148        95.6910         4.0212
    3258.00720       -0.01240        0.00000         2.7902       -0.36400        51.8840       107.2656         0.1120         5.7002         5.7002        30.1309     0.02010000         2.6739         2.6739       356.1805      2295.2354      4911.8311        95.6948         4.0213
    3258.15960       -0.01210        0.00000         2.7894       -0.36820        51.8820       108.0723         0.1244         5.6146         5.6146        29.8607     0.07280000         2.6187         2.6187       356.1875      2299.9919      4911.9609        95.7016         4.0213
    3258.31200       -0.01220        0.00000         2.7953       -0.36430        51.9034       108.6978         0.1132         5.4944         5.4944        29.2892     0.08760000         2.6223         2.6223       356.1572      2301.4761      4912.0889        95.7055         4.0214
    3258.46440       -0.01210        0.00000         2.7885       -0.36360        51.8994       109.4225        -0.0614         5.3917         5.3917        29.4713    -0.00360000         2.6274         2.6274       356.1676      2298.1301      4912.2261        95.7055         4.0214
    3258.61680       -0.01370        0.00000         2.8294       -0.36190        51.9380       109.6957        -0.0447         5.4552         5.4552        29.3216     0.12240000         2.5977         2.5977       356.1556      2298.7776      4912.3359        95.7098         4.0214
