~Version Information Block
VERS .                 2.00:  CWLS LOG ASCII STANDARD - VERSION 2.00
WRAP .                   NO:  One line per depth step
~Well Information Block
#MNEM.UNIT        Data Type   Information
#---------- ----------------  -----------
STRT .M          3445.30680:  START DEPTH
STOP .M          3639.15960:  STOP DEPTH
STEP .M             0.15240:  STEP
NULL .              -999.25:  NULL VALUE
COMP .              Statoil:  COMPANY
WELL .          NO_15/9-F-5:  WELL
FLD  .                VOLVE:  FIELD
LOC  .            North Sea:  LOCATION
CTRY .                     :  COUNTRY
STAT .                     :  STATE
CNTY .                     :  COUNTY
SRVC .         Schlumberger:  SERVICE COMPANY
DATE .          16-Sep-2012:  DATE
API  .                     :  API NUMBER
UWI  .             15/9-F-5:  UNIQUE WELL ID
~Curve Information Block
#MNEM.UNIT         API CODE   Curve Description
#---------- ----------------  -----------------
DEPTH.M                    :  DEPTH (BOREHOLE)
CCLC .V                    :  CCL
CRRA .                     :  Near-Far Count Rate Ratio
CVEL .M/MIN                 :  Cable Velocity
FBEF .UA                   :  RST Far Effective Beam Current
FCOR .                     :  RST Far Carbon/Oxygen Ratio
FERD .                     :  RST Far IC Mode Capture Optimization Resolution Degradation Factor
FIRD .                     :  RST Far Inelastic Optimization Resolution Degradation Factor
GR   .GAPI                 :  Gamma Ray
NCOR .                     :  RST Near Carbon/Oxygen Ratio
NERD .                     :  RST Near IC Mode Capture Optimization Resolution Degradation Factor
NIRD .                     :  RST Near Inelastic Optimization Resolution Degradation Factor
RB_PCMS.DEG                  :  Relative Bearing
TENS .LBF                  :  Cable Tension
~Parameter Information Block
#MNEM.UNIT            Value   Description
#---------- ----------------  -----------
APD  .M           54.900002:  Elevation of Depth Reference (LMF) above Permanent Datum
RUN  .                Run 1:  RUN NUMBER
PROJECT.     SLEIPNER_OST@st-vlinapp01:  
SET  .        RSTD_0912_IC3:  
~Other Information Block
# 
~A       DEPTH           CCLC           CRRA           CVEL           FBEF           FCOR           FERD           FIRD             GR           NCOR           NERD           NIRD        RB_PCMS           TENS 
# ...
    3611.72760        -0.0896         2.8925       -0.32070       115.5927    -0.04820000         4.0498         4.0498        29.9302      -0.019200         1.9212         1.9212         7.3181      2820.5271
    3611.88000         0.0199         3.0303       -0.31850       117.8231    -0.06850000         3.9416         3.9416        30.1418       0.047200         1.9587         1.9587         7.2828      2823.5903
    3612.03240        -0.0268         3.1041       -0.32100       116.2887     0.14030001         3.9920         3.9920        30.1906       0.045900         1.9625         1.9625         7.3764      2830.1382
    3612.18480        -0.0363         2.9579       -0.31980       113.2321    -0.12360000         3.9345         3.9345        30.7815      -0.063700         1.9547         1.9547         7.4204      2839.1448
    3612.33720         0.0356         2.8659       -0.31990       112.3370     0.00100000         4.0250         4.0250        31.5810       0.051400         2.0139         2.0139         7.4486      2821.1472
    3612.48960        -0.0177         2.8477       -0.31830       111.7997    -0.10860000         4.1685         4.1685        31.4079       0.066000         2.0048         2.0048         7.3393      2819.1941
    3612.64200        -0.0422         2.8400       -0.32210       111.9236    -0.00010000         4.1044         4.1044        31.3588      -0.008100         2.0276         2.0276         7.2331      2832.4661
    3612.79440        -0.0173         2.8276       -0.32400       112.2759    -0.01490000         4.1269         4.1269        31.5317       0.025800         2.0359         2.0359         7.0817      2835.1160
    3612.94680        -0.0316         2.8412       -0.32790       111.8830    -0.03580000         4.0767         4.0767        31.4060       0.012900         2.0369         2.0369         7.0461      2831.1125
    3613.09920         0.0752         2.8322       -0.31560       112.1336     0.01280000         4.1300         4.1300        31.0448       0.019700         2.0548         2.0548         7.0293      2841.8296
    3613.25160        -0.0157         2.8499       -0.31250       111.9865     0.00990000         4.1853         4.1853        31.0793      -0.033400         2.0766         2.0766         7.1226      2835.1255
    3613.40400        -0.0161         2.8422       -0.31830       112.0572    -0.00460000         4.1839         4.1839        31.1517       0.030400         2.1058         2.1058         7.2125      2841.8960
    3613.55640        -0.0142         2.8532       -0.32130       111.5001     0.07760000         4.1998         4.1998        30.7956      -0.010100         2.0995         2.0995         7.2626      2826.6980
    3613.70880        -0.0126         2.8352       -0.31690       112.2865    -0.09910000         4.1070         4.1070        31.1581      -0.020200         2.1053         2.1053         7.3348      2816.1135
    3613.86120        -0.0221         2.8643       -0.31990       112.0612     0.06110000         4.0435         4.0435        31.4009       0.067200         2.0784         2.0784         7.2789      2827.7080
    3614.01360        -0.0208         2.8502       -0.31260       112.3364     0.03020000         4.0409         4.0409        30.8831       0.033300         2.1202         2.1202         7.3101      2819.7993
    3614.16600        -0.0219         2.8536       -0.31350       112.0901     0.03400000         4.1525         4.1525        30.3192      -0.000200         2.1117         2.1117         7.2751      2821.4336
    3614.31840        -0.0685         2.8438       -0.31380       112.5431    -0.00040000         4.2047         4.2047        30.5163      -0.024900         2.0945         2.0945         7.2398      2825.6914
    3614.47080         0.0473         2.8534       -0.31270       111.9978    -0.03940000         4.1703         4.1703        29.9491      -0.027100         2.0247         2.0247         7.3121      2834.4338
    3614.62320        -0.0128         2.8555       -0.30990       111.8395    -0.01600000         4.2170         4.2170        29.8250      -0.034900         2.0836         2.0836         7.3830      2831.6675
    3614.77560        -0.0183         2.8433       -0.30410       111.9600     0.07920000         4.2643         4.2643        30.3930       0.016100         2.0960         2.0960         7.4362      2817.4158
    3614.92800         0.0634         2.8459       -0.30660       111.9270     0.00770000         4.3107         4.3107        31.0310      -0.016300         2.0564         2.0564         7.5174      2830.1340
    3615.08040        -0.0195         2.8425       -0.30900       111.7095     0.02830000         4.4668         4.4668        31.4595       0.040000         2.0236         2.0236         7.4731      2833.2393
    3615.23280         0.1074         2.8482       -0.30920       111.9903    -0.03700000         4.2664         4.2664        31.6832       0.001700         2.0306         2.0306         7.4829      2820.3184
    3615.38520         0.0730         2.8589       -0.30690       111.6446    -0.08030000         4.2635         4.2635        32.0138      -0.029400         2.0428         2.0428         7.4940      2820.7983
    3615.53760        -0.0137         2.8360       -0.30920       112.0342     0.09880000         4.4863         4.4863        32.1519       0.011700         2.1052         2.1052         7.5532      2815.4763
    3615.69000        -0.0130         2.8484       -0.30610       112.5409    -0.05740000         4.4834         4.4834        32.5301       0.015600         2.1072         2.1072         7.6122      2820.4219
    3615.84240        -0.0630         2.8574       -0.30870       112.0477    -0.09940000         4.4948         4.4948        32.0464       0.027400         2.1032         2.1032         7.5835      2840.9258
    3615.99480        -0.0162         2.8531       -0.31310       112.3659    -0.07840000         4.5332         4.5332        31.5959      -0.057200         2.0459         2.0459         7.4370      2836.0820
    3616.14720        -0.0171         2.8426       -0.30480       112.0027    -0.02350000         4.5858         4.5858        31.6305      -0.091900         2.0415         2.0415         7.3720      2851.2668
    3616.29960        -0.0222         2.8178       -0.30250       112.7203     0.07820000         4.6149         4.6149        32.7308      -0.051400         2.0296         2.0296         7.4366      2836.7705
    3616.45200        -0.0190         2.8578       -0.31140       113.3290    -0.03090000         4.6212         4.6212        33.0684      -0.043100         2.0468         2.0468         7.4853      2842.4775
    3616.60440        -0.0676         2.8823       -0.32520       112.1549     0.01150000         4.6529         4.6529        33.1349      -0.004900         2.0781         2.0781         7.4704      2834.2339
    3616.75680         0.2475         2.8665       -0.32270       111.5901    -0.05710000         4.8510         4.8510        32.9715       0.019900         2.0681         2.0681         7.3542      2828.2500
    3616.90920        -0.0169         2.8538       -0.32500       109.9170    -0.02700000         4.8583         4.8583        32.0761       0.055300         2.0310         2.0310         7.4001      2833.4492
    3617.06160         0.1274         2.8191       -0.32210       108.6464    -0.00570000         4.7446         4.7446        30.1975      -0.032300         2.0073         2.0073         7.5327      2831.1907
    3617.21400        -0.0477         2.7910       -0.32390       108.7555     0.01610000         4.6381         4.6381        29.2802       0.003100         2.0492         2.0492         7.6101      2830.9387
    3617.36640        -0.0294         2.7784       -0.32680       109.7825    -0.01370000         4.6275         4.6275        29.3931       0.009800         2.0592         2.0592         7.6216      2829.0452
    3617.51880        -0.0153         2.7945       -0.32240       111.4384     0.04250000         4.4972         4.4972        29.6865      -0.073700         2.0492         2.0492         7.5811      2829.6526
