~Version Information Block
VERS .                 2.00:  CWLS LOG ASCII STANDARD - VERSION 2.00
WRAP .                   NO:  One line per depth step
~Well Information Block
#MNEM.UNIT        Data Type   Information
#---------- ----------------  -----------
STRT .M          3461.15640:  START DEPTH
STOP .M          3535.07040:  STOP DEPTH
STEP .M             0.15240:  STEP
NULL .              -999.25:  NULL VALUE
COMP .              Statoil:  COMPANY
WELL .          NO_15/9-F-5:  WELL
FLD  .                Volve:  FIELD
LOC  .                Volve:  LOCATION
CTRY .               Norway:  COUNTRY
STAT .                     :  STATE
CNTY .                     :  COUNTY
SRVC .         Schlumberger:  SERVICE COMPANY
DATE .          03-Nov-2015:  DATE
API  .                     :  API NUMBER
UWI  .             15/9-F-5:  UNIQUE WELL ID
LATI .     58° 26' 29.66" N:  LATITUDE
LONG .      1° 53' 14.99" E:  LONGITUDE
~Curve Information Block
#MNEM.UNIT         API CODE   Curve Description
#---------- ----------------  -----------------
DEPTH.M                    :  DEPTH (BOREHOLE)
CRRA .                     :  Near/Far Count Rate Ratio
CVEL .M/SEC                 :  Cable Velocity
FBEF .UA                   :  Far Effective Beam Current
FCOR .                     :  Far Carbon/Oxygen Ratio
FIRD .                     :  Far Inelastic Optimization Resolution Degradation Factor
NCOR .                     :  Near Carbon/Oxygen Ratio
NIRD .                     :  Near Inelastic Optimization Resolution Degradation Factor
RB_PCMS.DEG                  :  Relative Bearing
WPRE .BAR                  :  Well Pressure
WTEP .DEGC                 :  Well Temperature
~Parameter Information Block
#MNEM.UNIT            Value   Description
#---------- ----------------  -----------
APD  .M                  54:  Elevation of Depth Reference (LMF) above Permanent Datum
EPD  .C3                  0:  Elevation of Permanent Datum above Mean Sea Level
LMF  .                   DF:  Logging Measured From (Name of Logging Elevation Reference)
PDAT .                  MSL:  Permanent Datum
RUN  .                Run 1:  RUN NUMBER
TAPE_NAME.     ConCu_R02_L004Up_RST_PCMS_PSTP.las:  
TOOL_STRING.              UNKNOWN:  
WN   .             15/9-F-5:  WELL
PROJECT.     SLEIPNER_OST@st-vlinapp01:  
SET  .        RSTD_1115_IC1:  
~Other Information Block
# 
~A       DEPTH           CRRA           CVEL           FBEF           FCOR           FIRD           NCOR           NIRD        RB_PCMS           WPRE           WTEP 
# ...
    3498.49440         2.9255     -0.0089650       132.4020     0.00530000         5.0608    -0.01130000         4.1578       353.9778       361.9289        83.1124
    3498.64680         2.9581     -0.0089950       134.6449    -0.10300000         5.1686     0.03640000         4.1606       353.9596       361.9406        83.1122
    3498.79920         3.0033     -0.0089300       136.6925     0.04090000         5.1127     0.10580000         4.1503       353.7707       361.9499        83.1004
    3498.95160         3.0396     -0.0089450       134.6495    -0.03440000         5.0912    -0.00430000         4.1271       353.4440       361.9627        83.0966
    3499.10400         2.9940     -0.0089250       135.3578     0.04290000         5.2924    -0.04700000         4.1199       353.3134       361.9738        83.0935
    3499.25640         3.0143     -0.0089500       135.0335     0.02520000         5.3083     0.06710000         4.0748       353.1204       361.9844        83.0903
    3499.40880         2.9906     -0.0089150       135.9305    -0.06360000         5.3792    -0.00920000         4.0776       353.1385       361.9969        83.0836
    3499.56120         3.0022     -0.0088567       136.3110    -0.06170000         5.3609     0.01030000         4.0551       353.2858       362.0106        83.0796
    3499.71360         3.0192     -0.0089550       135.1781     0.10040000         5.3346    -0.02160000         4.0772       353.6023       362.0209        83.0702
    3499.86600         3.0048     -0.0089867       134.5854     0.07580000         5.3078     0.02330000         4.0640       353.8477       362.0332        83.0701
    3500.01840         2.9832     -0.0089650       133.8295     0.09590000         5.3813     0.05410000         4.0308       353.8042       362.0432        83.0670
    3500.17080         2.9681     -0.0089950       133.0297     0.10760000         5.2263    -0.01560000         4.0250       353.4964       362.0543        83.0559
    3500.32320         2.9695     -0.0089450       129.8092     0.04840000         5.3369     0.04320000         4.0512       353.3889       362.0675        83.0512
    3500.47560         2.9503     -0.0089850       128.3976    -0.00600000         5.4611    -0.09140000         4.0189       353.7963       362.0792        83.0463
    3500.62800         2.9103     -0.0089150       125.3869     0.18070000         5.3128     0.04110000         3.9960       353.6127       362.0879        83.0381
    3500.78040         2.8002     -0.0089300       127.3315     0.05570000         5.3092     0.07530000         4.0210       353.6218       362.1017        83.0339
    3500.93280         2.8015     -0.0088900       128.2945    -0.00010000         5.2781     0.09010000         4.0223       353.6128       362.1116        83.0207
    3501.08520         2.8152     -0.0089100       130.0078     0.01200000         5.3199     0.01270000         4.0224       353.5327       362.1259        83.0179
    3501.23760         2.8675     -0.0090200       131.6694     0.05860000         5.3232     0.00240000         4.0442       353.5286       362.1350        83.0176
    3501.39000         2.8816     -0.0088900       130.5715     0.07390000         5.4714     0.04880000         4.0619       353.4485       362.1462        83.0067
    3501.54240         2.8559     -0.0089800       131.8040     0.04310000         5.4562     0.02920000         4.0658       353.2929       362.1602        82.9919
    3501.69480         2.8783     -0.0088700       131.9367    -0.11900000         5.6256     0.00890000         4.1166       353.2408       362.1706        82.9787
    3501.84720         2.8891     -0.0089450       131.6044     0.08930000         5.6344     0.03920000         4.1039       353.0535       362.1833        82.9644
    3501.99960         2.8900     -0.0089050       132.0130     0.10630000         5.6527     0.05910000         4.0953       353.1507       362.1927        82.9509
    3502.15200         2.9017     -0.0089500       131.4366     0.04670000         5.5951     0.04160000         4.1073       353.6248       362.2065        82.9424
    3502.30440         2.8794     -0.0089250       130.9121     0.16850001         5.5495     0.06310000         4.0520       353.7311       362.2144        82.9249
    3502.45680         2.9010     -0.0088133       132.1434     0.02180000         5.6008     0.07400000         4.0640       354.1806       362.2282        82.9164
    3502.60920         2.9079     -0.0087917       130.6013     0.08780000         5.6451    -0.07890000         4.0749       354.1445       362.2362        82.9021
    3502.76160         2.8992     -0.0088083       132.6223    -0.02960000         5.6614     0.12120000         4.0581       354.0281       362.2487        82.8925
    3502.91400         2.9382     -0.0088417       131.6678    -0.13420001         5.7316     0.02280000         4.0620       354.2250       362.2609        82.8867
    3503.06640         2.9384     -0.0088850       133.6338    -0.00190000         5.7206     0.06200000         4.1107       354.4126       362.2701        82.8731
    3503.21880         2.9699     -0.0088750       133.4135    -0.12150000         5.7764    -0.00540000         4.1039       354.3567       362.2852        82.8681
    3503.37120         2.9567     -0.0088750       133.2508    -0.10570000         5.8884     0.07950000         4.0669       354.3512       362.2939        82.8520
    3503.52360         2.9344     -0.0088417       131.6240    -0.01260000         5.7573     0.06720000         4.0611       354.2193       362.3067        82.8350
    3503.67600         2.9158     -0.0089200       132.3377    -0.00750000         5.6276     0.05710000         4.0559       354.0858       362.3171        82.8218
    3503.82840         2.8915     -0.0088800       132.3298     0.08370000         5.6082     0.09220000         4.0853       354.0411       362.3290        82.8104
    3503.98080         2.8990     -0.0088450       133.1861    -0.02880000         5.5808     0.10060000         4.1032       354.1224       362.3392        82.8070
    3504.13320         2.9206     -0.0088800       132.1742     0.15870000         5.6293    -0.01680000         4.1296       354.2491       362.3510        82.8046
    3504.28560         2.9011     -0.0088717       132.5237     0.04410000         5.6437    -0.00650000         4.1886       354.2661       362.3627        82.7896
    3504.43800         2.8955     -0.0089300       132.4081     0.06810000         5.6977     0.04950000         4.2560       354.2683       362.3737        82.7614
    3504.59040         2.8870     -0.0089150       131.9501     0.13150001         5.6454     0.00450000         4.2744       354.0977       362.3863        82.7414
    3504.74280         2.8714     -0.0088900       133.4291     0.03920000         5.7067     0.07290000         4.2581       353.9712       362.3969        82.7391
    3504.89520         2.9256     -0.0088467       135.5147     0.14460000         5.6820     0.03120000         4.2596       353.8318       362.4070        82.7293
    3505.04760         3.0604     -0.0088850       138.1712     0.13959999         5.6827     0.01770000         4.2211       353.7762       362.4190        82.7112
    3505.20000         3.1412     -0.0087850       138.3172     0.08360000         5.7296     0.04250000         4.2105       353.9679       362.4316        82.6960
    3505.35240         3.0885     -0.0088267       133.7774     0.04830000         5.6859    -0.04280000         4.1850       353.9493       362.4427        82.6902
    3505.50480         2.9475     -0.0087483       131.6857     0.15189999         5.8279     0.12819999         4.1829       353.7364       362.4535        82.6820
    3505.65720         2.8994     -0.0087650       130.5458     0.10060000         5.7836     0.08550000         4.1573       353.5137       362.4635        82.6738
    3505.80960         2.8606     -0.0087083       131.2610     0.10990000         5.7703     0.03100000         4.1725       353.5595       362.4763        82.6704
