~Version Information Block
VERS .                 2.00:  CWLS LOG ASCII STANDARD - VERSION 2.00
WRAP .                  YES:  Multiple lines per depth step
~Well Information Block
#MNEM.UNIT        Data Type   Information
#---------- ----------------  -----------
STRT .M          3437.38200:  START DEPTH
STOP .M          3636.11160:  STOP DEPTH
STEP .M             0.15240:  STEP
NULL .              -999.25:  NULL VALUE
COMP .                     :  COMPANY
WELL .          NO_15/9-F-5:  WELL
FLD  .                     :  FIELD
LOC  .                     :  LOCATION
CTRY .                     :  COUNTRY
STAT .                     :  STATE
CNTY .                     :  COUNTY
SRVC .                     :  SERVICE COMPANY
DATE .                     :  DATE
API  .                     :  API NUMBER
UWI  .                     :  UNIQUE WELL ID
~Curve Information Block
#MNEM.UNIT         API CODE   Curve Description
#---------- ----------------  -----------------
DEPTH.M                    :  
BSAL .PPM                  :  (RST-D)                 (6in)                   Borehole Salinity Depths
CCLC .V                    :  (PSTP-B)                (1in)                   CCL Computed Amplitude D
CIRF .                     :  (RST-D)                 (6in)                   Capture to Inelastic Rat
CIRN .                     :  (RST-D)                 (6in)                   Capture to Inelastic Rat
CVEL .M/SEC                 :  (WLWorkflow)            (1in)                   Cable Velocity Depthshif
DSIG .CU                   :  (RST-D)                 (6in)                   Sigma Difference Depthsh
DSIG21.                     :  SIGM_1 -RSTD_0912_OW.SAT201SI_SIGR_1
FBEF .UA                   :  (RST-D)                 (6in)                   Far Effective Beam Curre
GR   .GAPI                 :  (PSTP-B)                (6in)                   Gamma Ray Depthshifted
IRAT .                     :  (RST-D)                 (6in)                   Inelastic Ratio Depthshi
RB_PCMS.DEG                  :  (PCMS-A)                (6in)                   Relative Bearing Depthsh
RSCF .                     :  (RST-D)                 (6in)                   Far Detector Effective U
RSCN .                     :  (RST-D)                 (6in)                   Near Detector Effective
SFFA .CU                   :  (RST-D)                 (6in)                   Sigma Formation Far Appa
SIBF .CU                   :  (RST-D)                 (6in)                   Sigma Borehole Fluid Dep
SIGM .CU                   :  (RST-D)                 (6in)                   Formation Sigma (Neutron
TENS .LBF                  :  (WLWorkflow)            (1in)                   Cable Tension Depthshift
TPHI .V/V                  :  (RST-D)                 (6in)                   Thermal Decay Porosity D
WPRE .BAR                  :  (PSTP-B)                (6in)                   Well Pressure Depthshift
WTEP .DEGC                 :  (PSTP-B)                (6in)                   Well Temperature Depthsh
~Parameter Information Block
#MNEM.UNIT            Value   Description
#---------- ----------------  -----------
PROJECT.     SLEIPNER_OST@st-vlinapp01:  
SET  .     RSTD_1115_SIG1_DS:  
~Other Information Block
~Ascii Log Data
# ...
    3516.63000 
    39954.3789        -0.0079         2.1300       0.684578     -0.0761291 
        0.9458         0.0887       110.0780        27.4888       0.315337 
      353.6661         6.8248         6.9745        18.3696        36.1444 
       16.5276      3990.9702       0.221353       363.5147        81.6103
    3516.78240 
    39634.3516         0.0457         2.1935       0.671250     -0.0762347 
        0.7457         0.4609       108.9984        26.3227       0.313297 
      353.5701         7.1586         6.8663        17.9165        36.0296 
       15.9805      3964.7952       0.215888       363.5273        81.5915
    3516.93480 
    39196.2344         0.0660         2.3353       0.700807     -0.0765483 
        0.6717         0.5744       108.5966        26.8638       0.313632 
      353.5349         7.7081         7.2121        16.9053        35.8725 
       15.0005      3994.6411       0.206856       363.5340        81.5820
    3517.08720 
    38407.0273         0.0338         2.5430       0.754649     -0.0755808 
        0.6108         0.6235       107.3088        25.5521       0.317316 
      353.5194         8.3171         7.5115        15.4387        35.5897 
       14.1297      3973.5835       0.196709       363.5425        81.5726
    3517.23960 
    37633.9727        -0.0086         2.6353       0.772998     -0.0757537 
        0.5857         0.4263       106.0081        23.8462       0.319810 
      353.3874         8.5976         7.6263        15.3274        35.3130 
       13.5113      3923.8306       0.191234       363.5555        81.5670
    3517.39200 
    37054.4883        -0.0234         2.7281       0.791899     -0.0753102 
        0.5618         0.6150       106.4720        22.9746       0.318257 
      353.3307         8.8385         7.7650        15.0922        35.1057 
       13.2945      3955.2339       0.189539       363.5663        81.5621
    3517.54440 
    36329.2266         0.0046         2.7554       0.811305     -0.0758938 
        0.4211         0.7052       109.4373        21.7080       0.315197 
      353.5565         8.8357         8.1290        14.8117        34.8465 
       13.1365      3971.5828       0.192703       363.5736        81.5492
    3517.69680 
    35538.1953         0.0263         2.8140       0.824357     -0.0762014 
        0.2109         0.5350       112.3582        19.6574       0.313930 
      353.9161         8.7726         8.1881        14.8776        34.5640 
       12.9085      3988.2612       0.198354       363.5860        81.5421
    3517.84920 
    35067.4688         0.0354         2.8290       0.830966     -0.0756831 
       -0.0672         0.4021       110.7820        18.7657       0.316063 
      354.0213         8.8594         8.0777        14.4255        34.3961 
       12.8970      3980.3538       0.202673       363.5927        81.5339
    3518.00160 
    34463.8828        -0.0138         2.7173       0.841511     -0.0763147 
       -0.2199         0.1771       110.4067        17.4730       0.319817 
      353.9931         8.5958         8.3875        14.7892        34.1808 
       12.7930      3955.7107       0.207394       363.6004        81.5237
    3518.15400 
    34544.1133        -0.0627         2.7169       0.843212     -0.0759230 
       -0.3892         0.1691       105.2411        16.1163       0.319446 
      353.9924         9.0076         8.4801        14.5855        34.2094 
       12.7320      3987.5264       0.209335       363.6155        81.5130
    3518.30640 
    34353.9375        -0.0329         2.8203       0.834021     -0.0760521 
       -0.5242         0.1299       109.5202        15.0918       0.315931 
      354.0320         9.1624         8.4489        14.2480        34.1417 
       12.6292      4027.0957       0.210934       363.6234        81.5090
    3518.45880 
    33841.7305         0.1215         2.7725       0.827664     -0.0773523 
       -0.6654         0.1494       110.2761        15.1381       0.313731 
      353.9148         8.9955         8.4537        14.4862        33.9591 
       12.6971      3976.6616       0.213046       363.6314        81.5030
    3518.61120 
    33941.2383         0.0695         2.7407       0.841130     -0.0780086 
       -0.6971         0.1418       111.1355        14.3739       0.313961 
      353.8076         8.6229         8.2260        14.8022        33.9946 
       12.8336      3953.8525       0.216300       363.6418        81.4966
    3518.76360 
    33496.1797         0.0310         2.7211       0.838426     -0.0785196 
       -0.7404         0.0456       110.8609        14.2569       0.315688 
      353.7889         8.4585         8.2205        14.6627        33.8361 
       12.9379      3960.3486       0.220288       363.6508        81.4914
    3518.91600 
    32935.5508         0.0535         2.6788       0.835069     -0.0779463 
       -0.6480         0.0405       107.8873        14.9236       0.314193 
      353.8554         8.6724         8.4824        14.7946        33.6366 
       13.0523      3961.0828       0.221229       363.6605        81.4822
    3519.06840 
    32822.9297         0.0178         2.7448       0.846474     -0.0787448 
       -0.6190         0.0154       110.5595        16.3132       0.312832 
      353.8775         8.7435         8.5523        15.1459        33.5965 
       13.1591      3981.3762       0.220753       363.6694        81.4673
    3519.22080 
    32468.0684        -0.0055         2.7385       0.829727     -0.0784770 
       -0.6427         0.0111       110.2386        16.4758       0.311242 
      353.8826         8.9191         8.5458        14.9847        33.4703 
       13.1445      3951.0215       0.219327       363.6784        81.4592
    3519.37320 
    32095.2949        -0.0064         2.7324       0.835006     -0.0776943 
       -0.5821        -0.0191       111.3302        17.9660       0.312368 
      353.9670         8.7877         8.4852        14.7440        33.3377 
       13.0833      3966.8662       0.216943       363.6892        81.4554
    3519.52560 
    31700.8398         0.0129         2.7095       0.832795     -0.0784712 
       -0.4873        -0.0510       110.3896        18.7973       0.314982 
      354.0592         8.4587         8.0689        14.9622        33.1976 
       13.0599      3963.3157       0.211539       363.6973        81.4464
    3519.67800 
    31201.1328        -0.0104         2.7490       0.837638     -0.0782876 
       -0.4809        -0.1538       111.0652        19.5065       0.318350 
      354.1932         8.3633         7.9600        14.9255        33.0201 
       13.0181      3960.8406       0.205232       363.7088        81.4423
    3519.83040 
    30901.6836         0.0141         2.7571       0.837715     -0.0786424 
       -0.5151        -0.2827       110.8024        17.8563       0.319313 
      354.4331         8.4892         7.9239        14.6233        32.9138 
       12.9290      3975.7358       0.200319       363.7157        81.4425
    3519.98280 
    30550.8867        -0.0062         2.7551       0.831412     -0.0788616 
       -0.4460        -0.4109       108.5900        18.1468       0.315958 
      354.5777         8.8311         8.1522        14.7007        32.7893 
       12.8198      3981.6650       0.200276       363.7271        81.4317
    3520.13520 
    30378.8125        -0.1127         2.8146       0.826310     -0.0775033 
       -0.4036        -0.4815       112.3337        17.3187       0.312472 
      354.5408         8.9469         8.4352        14.6080        32.7283 
       12.7776      3990.9011       0.202553       363.7366        81.4160
    3520.28760 
    30401.7988        -0.0699         2.8405       0.855210     -0.0786067 
       -0.4318        -0.5906       112.1009        16.2099       0.312189 
      354.2456         8.6576         8.1783        14.5004        32.7365 
       12.7222      3987.9937       0.203711       363.7461        81.4110
    3520.44000 
    29922.5840        -0.0732         2.7713       0.844943     -0.0782981 
       -0.5146        -0.5875       109.1704        15.1336       0.317684 
      354.0768         8.5169         7.9633        14.5382        32.5665 
       12.8593      3914.2437       0.201647       363.7547        81.4073
