~Version Information Block
VERS .                 2.00:  CWLS LOG ASCII STANDARD - VERSION 2.00
WRAP .                  YES:  Multiple lines per depth step
~Well Information Block
#MNEM.UNIT        Data Type   Information
#---------- ----------------  -----------
STRT .M          3438.44880:  START DEPTH
STOP .M          3636.26400:  STOP DEPTH
STEP .M             0.15240:  STEP
NULL .              -999.25:  NULL VALUE
COMP .              Statoil:  COMPANY
WELL .          NO_15/9-F-5:  WELL
FLD  .                Volve:  FIELD
LOC  .                Volve:  LOCATION
CTRY .               Norway:  COUNTRY
STAT .                     :  STATE
CNTY .                     :  COUNTY
SRVC .         Schlumberger:  SERVICE COMPANY
DATE .           11/03/2015:  DATE
API  .                     :  API NUMBER
UWI  .             15/9-F-5:  UNIQUE WELL ID
LATI .     58° 26' 29.66" N:  LATITUDE
LONG .      1° 53' 14.99" E:  LONGITUDE
~Curve Information Block
#MNEM.UNIT         API CODE   Curve Description
#---------- ----------------  -----------------
DEPTH.M                    :  Depth Index
BSAL .PPM                  :  (RST-D)                 (6in)                   Borehole Salinity
CCLC .V                    :  (PSTP-B)                (1in)                   CCL Computed Amplitude
CIRF .                     :  (RST-D)                 (6in)                   Capture to Inelastic Rat
CIRN .                     :  (RST-D)                 (6in)                   Capture to Inelastic Rat
CVEL .M/SEC                 :  (WLWorkflow)            (1in)                   Cable Velocity
DSIG .CU                   :  (RST-D)                 (6in)                   Sigma Difference
FBEF .UA                   :  (RST-D)                 (6in)                   Far Effective Beam Curre
GR   .GAPI                 :  (PSTP-B)                (6in)                   Gamma Ray
IRAT .                     :  (RST-D)                 (6in)                   Inelastic Ratio
RB_PCMS.DEG                  :  (PCMS-A)                (6in)                   Relative Bearing
RSCF .                     :  (RST-D)                 (6in)                   Far Detector Effective U
RSCN .                     :  (RST-D)                 (6in)                   Near Detector Effective
SFFA .CU                   :  (RST-D)                 (6in)                   Sigma Formation Far Appa
SIBF .CU                   :  (RST-D)                 (6in)                   Sigma Borehole Fluid
SIGM .CU                   :  (RST-D)                 (6in)                   Formation Sigma (Neutron
TENS .LBF                  :  (WLWorkflow)            (1in)                   Cable Tension
TPHI .V/V                  :  (RST-D)                 (6in)                   Thermal Decay Porosity
WPRE .BAR                  :  (PSTP-B)                (6in)                   Well Pressure
WTEP .DEGC                 :  (PSTP-B)                (6in)                   Well Temperature
~Parameter Information Block
#MNEM.UNIT            Value   Description
#---------- ----------------  -----------
APD  .M                  54:  Elevation of Depth Reference (LMF) Above Permanent Datum
CLAB .              Country:  :County Label
ECF  .M             -999.25:  Elevation of Casing Flange above Permanent Datum
EDF  .M                  54:  Elevation of Drill Floor Above Permanent Datum
EGL  .M                 -91:  Elevation of Ground Level Above Permanent Datum
EKB  .M             -999.25:  Elevation of Kelly Bushing Above Permanent Datum
EPD  .M                   0:  Elevation of Permanent Datum (PDAT) above Mean Sea Level
FL1  .            North Sea:  Field Location Line 1
FL2  .     Norwegian Sector:  Field Location Line 2
LMF  .                   DF:  Logging Measured From
LUL  .                 NOBO:  Logging Unit Location
LUN  .          ONCC-A 3837:  Logging Unit Number
PDAT .                  MSL:  Local Permanent Datum
RIGN .      Maersk Inspirer:  Rig Name
RIGTYP.               Jackup:  Rig Type
SON  .           C2TQ-00038:  Service Order Number
TAPE_NAME.     RST_SIGMA__03Nov15_171237.las:  
TOOL_STRING.              UNKNOWN:  
WN   .             15/9-F-5:  WELL NAME
PROJECT.     SLEIPNER_OST@st-vlinapp01:  
SET  .       RSTD_1115_SIG1:  
~Other Information Block
~Ascii Log Data
# ...
    3615.38520 
    33759.8125        -0.0014         2.7444       0.791330     -0.0755682 
       -0.4608       101.1893        16.9739       0.323680       352.8147 
        9.5335         8.2624        13.5594        33.9300        11.5643 
     4196.6660       0.173140       369.6480        68.9035
    3615.53760 
    34447.1211         0.1535         2.7572       0.803080     -0.0754418 
       -0.5128       107.2249        17.1089       0.324780       352.8958 
        9.0778         8.1096        13.4337        34.1748        11.5575 
     4175.7993       0.172200       369.6553        68.9089
    3615.69000 
    34662.7383         0.0570         2.8252       0.791500     -0.0761962 
       -0.4503       106.5104        18.0405       0.322080       352.9567 
        9.5478         8.3840        13.3804        34.2517        11.5299 
     4181.5991       0.172760       369.6845        68.9185
    3615.84240 
    34637.1992        -0.0005         2.7678       0.783450     -0.0756995 
       -0.4371       106.6019        18.5443       0.320770       352.8777 
        9.2249         7.9358        13.4549        34.2426        11.7198 
     4173.0005       0.175760       369.6809        68.9114
    3615.99480 
    35311.2617        -0.0345         2.7299       0.801020     -0.0749375 
       -0.3802       105.6179        19.5901       0.320650       352.6709 
        8.9334         7.7886        13.9925        34.4830        11.9435 
     4254.5991       0.179380       369.6817        68.9166
    3616.14720 
    35251.2578        -0.0153         2.7774       0.804410     -0.0764540 
       -0.4373       105.8295        17.9293       0.319910       352.3814 
        8.8372         7.8496        14.0384        34.4616        12.1907 
     4203.9990       0.182910       369.7110        68.9303
    3616.29960 
    35085.0117         0.0002         2.7403       0.785790     -0.0758873 
       -0.4904       108.1653        18.0435       0.320480       352.3474 
        9.1483         8.3288        14.1711        34.4023        12.3010 
     4180.2505       0.183390       369.7156        68.9254
    3616.45200 
    34676.4180        -0.0248         2.6688       0.798700     -0.0746797 
       -0.4197       107.2899        17.3791       0.325030       352.3058 
        8.4803         7.5880        14.3109        34.2566        12.3422 
     4254.2012       0.182030       369.7151        68.9207
    3616.60440 
    34954.0586        -0.0019         2.6592       0.794130     -0.0756958 
       -0.3196       109.2794        17.8514       0.328870       352.3037 
        8.3606         7.6275        14.1639        34.3556        12.3917 
     4142.1992       0.177310       369.7304        68.9301
    3616.75680 
    35221.7617        -0.0022         2.6417       0.771810     -0.0762038 
       -0.3572       103.6103        16.6447       0.328050       352.2958 
        8.7482         7.6982        14.3279        34.4511        12.2503 
     4208.9990       0.173530       369.7529        68.9373
    3616.90920 
    35661.5000        -0.0020         2.6899       0.769420     -0.0759460 
       -0.3489       106.0004        17.0599       0.328410       352.2426 
        8.8640         7.8962        13.9014        34.6080        12.1588 
     4209.5991       0.167760       369.7482        68.9225
    3617.06160 
    35854.8594        -0.0505         2.6652       0.779240     -0.0764617 
       -0.5334       104.3742        16.5617       0.329300       351.7451 
        8.9007         7.7790        13.9054        34.6771        11.7425 
     4170.9995       0.164380       369.7578        68.9175
    3617.21400 
    35441.7500        -0.0435         2.7885       0.788140     -0.0751915 
       -0.5641       104.0838        16.1465       0.333330       351.3727 
        9.5124         7.9746        13.1029        34.5296        11.3506 
     4216.7998       0.162320       369.7715        68.9289
    3617.36640 
    36006.7305         0.0200         2.7341       0.790370     -0.0756920 
       -0.5927        98.9533        16.4683       0.328760       351.3435 
        9.8378         8.1300        12.7484        34.7313        11.0542 
     4221.7993       0.163960       369.7925        68.9408
    3617.51880 
    35862.7500         0.0015         2.8189       0.785090     -0.0759947 
       -0.5926       104.2125        16.7096       0.324990       351.3420 
        9.5143         8.1332        13.0382        34.6799        11.0511 
     4138.4990       0.167210       369.7792        68.9289
    3617.67120 
    36284.4883         0.1539         2.7815       0.780570     -0.0742950 
       -0.7124       103.1227        16.5435       0.320340       351.3968 
        9.2245         7.6930        13.1135        34.8305        11.2924 
     4316.8330       0.169820       369.7979        68.9393
    3617.82360 
    35779.1289         0.0402         2.8197       0.794490     -0.0759575 
       -0.6974       106.7201        16.3645       0.320460       351.3834 
        9.4570         8.3539        13.4895        34.6500        11.4130 
     4274.8003       0.171340       369.8204        68.9532
    3617.97600 
    35228.5195        -0.0029         2.8202       0.801970     -0.0754380 
       -0.6396       106.1700        16.1906       0.319050       351.4049 
        9.3875         8.0993        13.4203        34.4535        11.4781 
     4118.0010       0.172570       369.8179        68.9545
    3618.12840 
    35984.6680        -0.1252         2.8127       0.782420     -0.0762038 
       -0.7299       107.0050        15.1448       0.322530       351.4985 
        9.0857         7.8120        13.3301        34.7234        11.4308 
     4202.2007       0.174490       369.8188        68.9585
    3618.28080 
    35901.6133         0.1100         2.7577       0.809850     -0.0744258 
       -0.7766       103.0434        14.0882       0.322130       351.5764 
        9.1392         7.8902        13.3524        34.6937        11.5124 
     4342.8008       0.177710       369.8493        68.9638
    3618.43320 
    35893.5391        -0.0018         2.8041       0.804390     -0.0742997 
       -0.7139       106.1162        12.7218       0.324650       351.5999 
        9.4407         8.5093        13.6617        34.6909        11.5141 
     4238.9995       0.178400       369.8468        68.9553
    3618.58560 
    36008.8633        -0.0808         2.7578       0.807960     -0.0749337 
       -0.6658       105.1592        12.6414       0.322750       351.8846 
        9.3861         8.3775        13.3159        34.7320        11.5577 
     4184.6006       0.176910       369.8487        68.9586
    3618.73800 
    35780.1719        -0.0453         2.7673       0.776300     -0.0744332 
       -0.6727       108.6045        12.4000       0.322180       352.3028 
        9.0399         7.9682        13.4677        34.6504        11.4711 
     4293.4014       0.172580       369.8782        68.9675
    3618.89040 
    35729.5508        -0.0014         2.7953       0.785110     -0.0751802 
       -0.6533       104.2367        11.5956       0.319810       352.1984 
        9.3450         7.9034        13.3776        34.6323        11.4823 
     4237.9995       0.171450       369.8784        68.9516
    3619.04280 
    35952.2578         0.0406         2.7901       0.777720     -0.0751953 
       -0.6572       106.8545        12.0085       0.318400       352.1027 
        9.1572         7.9873        13.3305        34.7118        11.5233 
     4198.1992       0.170760       369.8882        68.9495
    3619.19520 
    35979.1797        -0.0246         2.7962       0.792900     -0.0744220 
       -0.6406       105.2835        12.7886       0.319950       351.9913 
        9.3145         8.0618        13.5665        34.7214        11.5862 
     4231.7988       0.173740       369.8927        68.9590
    3619.34760 
    35956.6680        -0.0033         2.7491       0.777700     -0.0744258 
       -0.5411       106.6491        12.0516       0.321940       351.9305 
        9.1303         8.0320        13.5548        34.7134        11.8144 
     4242.9990       0.173680       369.9211        68.9739
