~Version Information Block
VERS .                 2.00:  CWLS LOG ASCII STANDARD - VERSION 2.00
WRAP .                   NO:  One line per depth step
~Well Information Block
#MNEM.UNIT        Data Type   Information
#---------- ----------------  -----------
STRT .M          3201.31440:  START DEPTH
STOP .M          3410.40720:  STOP DEPTH
STEP .M             0.15240:  STEP
NULL .              -999.25:  NULL VALUE
COMP .              Statoil:  COMPANY
WELL .          NO_15/9-F-4:  WELL
FLD  .                VOLVE:  FIELD
LOC  .            North Sea:  LOCATION
CTRY .                     :  COUNTRY
STAT .                     :  STATE
CNTY .                     :  COUNTY
SRVC .         Schlumberger:  SERVICE COMPANY
DATE .          13-Sep-2012:  DATE
API  .                     :  API NUMBER
UWI  .             15/9-F-4:  UNIQUE WELL ID
~Curve Information Block
#MNEM.UNIT         API CODE   Curve Description
#---------- ----------------  -----------------
DEPTH.M                    :  DEPTH (BOREHOLE)
CCLC .V                    :  CCL
CCLD .V                    :  CCL Discriminated Amplitude
CRRA .                     :  Near-Far Count Rate Ratio
CVEL .M/MIN                 :  Cable Velocity
DEVI .DEG                  :  Hole Deviation
FBEF .UA                   :  RST Far Effective Beam Current
FCOR .                     :  RST Far Carbon/Oxygen Ratio
FERD .                     :  RST Far IC Mode Capture Optimization Resolution Degradation Factor
FIRD .                     :  RST Far Inelastic Optimization Resolution Degradation Factor
GR   .GAPI                 :  Gamma Ray
NCOR .                     :  RST Near Carbon/Oxygen Ratio
NERD .                     :  RST Near IC Mode Capture Optimization Resolution Degradation Factor
NIRD .                     :  RST Near Inelastic Optimization Resolution Degradation Factor
RB_PCMS.DEG                  :  Relative Bearing
TENS .LBF                  :  Cable Tension
WPRE .PSI                  :  Well Pressure
WTEP .DEGC                 :  Well Temperature
WTPE .MS                   :  Well Temperature Period
~Parameter Information Block
#MNEM.UNIT            Value   Description
#---------- ----------------  -----------
APD  .M                  54:  Elevation of Depth Reference (LMF) above Permanent Datum
RUN  .                    1:  RUN NUMBER
PROJECT.     SLEIPNER_OST@st-vlinapp01:  
SET  .        RSTD_0912_IC2:  
~Other Information Block
# 
~A       DEPTH           CCLC           CCLD           CRRA           CVEL           DEVI           FBEF           FCOR           FERD           FIRD             GR           NCOR           NERD           NIRD        RB_PCMS           TENS           WPRE           WTEP           WTPE 
# ...
    3241.09080        0.06570        0.00000         2.9004       -0.52040        50.9026       109.9543         0.0841         5.9077         5.9077        36.8382     0.04840000         2.8705         2.8705       355.8223      2294.9543      4896.7881        94.8838         4.0141
    3241.24320       -0.00020        0.00000         2.9126       -0.52280        50.9324       108.0414        -0.0194         5.7597         5.7597        36.8343    -0.00230000         2.8988         2.8988       355.8985      2292.5325      4896.9341        94.8886         4.0142
    3241.39560        0.00170        0.00000         2.8484       -0.51670        50.9672       107.7564         0.0718         5.6528         5.6528        38.3098    -0.05830000         2.8711         2.8711       356.0022      2296.2046      4897.0552        94.8955         4.0142
    3241.54800       -0.09290        0.00000         2.8198       -0.51890        51.0031       110.1247         0.0103         5.5324         5.5324        41.0856    -0.00170000         2.9144         2.9144       355.9189      2290.5569      4897.1968        94.9001         4.0143
    3241.70040        0.00710        0.00000         2.8613       -0.51920        51.0345       111.9967        -0.0786         5.4337         5.4337        45.4879     0.03620000         2.8844         2.8844       355.9344      2291.6113      4897.3438        94.9099         4.0143
    3241.85280        0.00780        0.00000         2.9104       -0.52440        51.0660       112.5326         0.0788         5.4635         5.4635        49.0559     0.06250000         2.8232         2.8232       356.0262      2297.2283      4897.4736        94.9147         4.0144
    3242.00520        0.00780        0.00000         2.9216       -0.51220        51.0680       113.0583        -0.1190         5.5470         5.5470        51.0826     0.00150000         2.7920         2.7920       356.2037      2278.1343      4897.6260        94.9219         4.0144
    3242.15760        0.00790        0.00000         2.9439       -0.64180        51.1003       113.9539         0.0743         5.5686         5.5686        51.1951    -0.01750000         2.7964         2.7964       356.2259      2259.3301      4897.7803        94.9240         4.0145
    3242.31000        0.00800        0.00000         2.9577       -1.45040        51.1106       112.0985         0.1572         5.6878         5.6878        49.8739     0.01380000         2.8259         2.8259       356.1670      2171.1008      4897.9067        94.9337         4.0146
    3242.46240        0.12570        0.00000         2.9263       -4.17630        51.1339       111.1307         0.1225         5.6550         5.6550        47.2896     0.02320000         2.8318         2.8318       356.0448      2343.3794      4898.0400        94.9377         4.0146
    3242.61480        0.01220        0.00000         2.9117       -0.60150        51.1031       110.3717        -0.0840         5.7227         5.7227        44.7946    -0.07100000         2.8742         2.8742       356.0815      2303.7886      4898.1704        94.9412         4.0146
    3242.76720        0.01530        0.00000         2.8930       -0.53680        51.0814       110.3176         0.0883         5.7261         5.7261        41.9763    -0.00200000         2.8837         2.8837       355.9475      2299.4646      4898.2939        94.9485         4.0147
    3242.91960        0.01700        0.00000         2.8678       -0.53340        51.0600       110.4473         0.0789         5.6210         5.6210        40.8524    -0.01720000         2.8984         2.8984       356.0607      2304.9182      4898.4478        94.9589         4.0148
    3243.07200        0.01950        0.00000         2.8660       -0.53990        51.0637       112.2094         0.0949         5.6986         5.6986        39.8943     0.12120000         2.9166         2.9166       356.1367      2296.0630      4898.5835        94.9607         4.0148
    3243.22440       -0.02710        0.00000         2.9126       -0.51860        51.0711       114.4752         0.1242         5.6678         5.6678        38.5263    -0.03720000         2.9388         2.9388       356.1382      2298.6555      4898.7134        94.9657         4.0148
    3243.37680       -0.03660       -0.03660         2.9787       -0.51520        51.0709       115.7873         0.0127         5.7203         5.7203        37.6420     0.08930000         2.9499         2.9499       356.1847      2303.6504      4898.8594        94.9709         4.0149
    3243.52920        0.02750        0.02750         3.0649       -0.51180        51.0866       116.1452         0.1309         5.7387         5.7387        38.0433    -0.06750000         2.9621         2.9621       356.2107      2295.0222      4899.0112        94.9788         4.0149
    3243.68160       -1.06210       -1.06210         3.1157       -0.51560        51.1079       117.0423         0.1803         5.7404         5.7404        37.8514     0.00170000         2.8967         2.8967       355.8600      2288.5601      4899.1353        94.9877         4.0150
    3243.83400        0.28310        0.00000         3.1129       -0.51470        51.0873       115.8473         0.0533         5.6704         5.6704        38.1227     0.04330000         2.8421         2.8421       355.6264      2307.6843      4899.2725        95.0029         4.0152
    3243.98640        0.12280        0.00000         3.0346       -0.51800        51.0619       110.7224        -0.1639         5.5551         5.5551        37.8789    -0.02130000         2.8452         2.8452       355.6723      2293.6250      4899.4175        95.0051         4.0152
    3244.13880       -0.00760        0.00000         2.8739       -0.51680        51.0518       110.2619        -0.1978         5.5401         5.5401        37.1615     0.06320000         2.8329         2.8329       355.6740      2300.3684      4899.5322        95.0152         4.0153
    3244.29120       -0.00780        0.00000         2.8639       -0.51470        51.0274       109.9492        -0.0416         5.5335         5.5335        36.6289    -0.02800000         2.8090         2.8090       355.8939      2303.1880      4899.6978        95.0175         4.0153
    3244.44360       -0.01100        0.00000         2.8755       -0.51170        51.0427       110.0244        -0.1687         5.6124         5.6124        35.8974     0.04910000         2.8167         2.8167       355.8910      2305.4031      4899.8076        95.0256         4.0154
    3244.59600        0.07320        0.00000         2.8669       -0.51190        51.0534       109.8985         0.0738         5.6707         5.6707        35.2620    -0.01680000         2.8501         2.8501       355.7777      2294.3733      4899.9517        95.0324         4.0154
    3244.74840       -0.07790        0.00000         2.8896       -0.51050        51.0493       109.1164        -0.0209         5.6247         5.6247        35.1556     0.13010000         2.8881         2.8881       356.0011      2299.8774      4900.0864        95.0431         4.0155
    3244.90080        0.06930        0.00000         2.8641       -0.51180        51.0795       108.6197        -0.0626         5.5721         5.5721        36.1145    -0.02310000         2.8760         2.8760       356.0185      2288.8469      4900.2271        95.0469         4.0155
    3245.05320       -0.00910        0.00000         2.8518       -0.51040        51.1011       108.8274        -0.0793         5.6921         5.6921        36.4657    -0.10230000         2.8408         2.8408       355.8518      2293.8477      4900.3647        95.0534         4.0156
    3245.20560       -0.00910        0.00000         2.8435       -0.51010        51.1164       108.8846        -0.0363         5.6110         5.6110        36.5682     0.04470000         2.8315         2.8315       355.8266      2300.4924      4900.5078        95.0548         4.0156
    3245.35800        0.03140        0.00000         2.8462       -0.50340        51.1423       109.3576         0.0440         5.7566         5.7566        36.1173    -0.05420000         2.8348         2.8348       355.8459      2297.8938      4900.6597        95.0643         4.0157
