~Version Information Block
VERS .                 2.00:  CWLS LOG ASCII STANDARD - VERSION 2.00
WRAP .                   NO:  One line per depth step
~Well Information Block
#MNEM.UNIT        Data Type   Information
#---------- ----------------  -----------
STRT .M          3445.30680:  START DEPTH
STOP .M          3635.80680:  STOP DEPTH
STEP .M             0.15240:  STEP
NULL .              -999.25:  NULL VALUE
COMP .              Statoil:  COMPANY
WELL .          NO_15/9-F-5:  WELL
FLD  .                VOLVE:  FIELD
LOC  .            North Sea:  LOCATION
CTRY .                     :  COUNTRY
STAT .                     :  STATE
CNTY .                     :  COUNTY
SRVC .         Schlumberger:  SERVICE COMPANY
DATE .          16-Sep-2012:  DATE
API  .                     :  API NUMBER
UWI  .             15/9-F-5:  UNIQUE WELL ID
~Curve Information Block
#MNEM.UNIT         API CODE   Curve Description
#---------- ----------------  -----------------
DEPTH.M                    :  DEPTH (BOREHOLE)
CCLC .V                    :  CCL
CCLD .V                    :  CCL Discriminated Amplitude
CRRA .                     :  Near-Far Count Rate Ratio
CS   .F/MN                 :  Cable Speed
CVEL .M/MIN                 :  Cable Velocity
DEVI .DEG                  :  Hole Deviation
FBEF .UA                   :  RST Far Effective Beam Current
FCOR .                     :  RST Far Carbon/Oxygen Ratio
FERD .                     :  RST Far IC Mode Capture Optimization Resolution Degradation Factor
FIRD .                     :  RST Far Inelastic Optimization Resolution Degradation Factor
GR   .GAPI                 :  Gamma Ray
NCOR .                     :  RST Near Carbon/Oxygen Ratio
NERD .                     :  RST Near IC Mode Capture Optimization Resolution Degradation Factor
NIRD .                     :  RST Near Inelastic Optimization Resolution Degradation Factor
RB_PCMS.DEG                  :  Relative Bearing
TENS .LBF                  :  Cable Tension
WPRE .PSI                  :  Well Pressure
WTEP .DEGC                 :  Well Temperature
~Parameter Information Block
#MNEM.UNIT            Value   Description
#---------- ----------------  -----------
APD  .M           54.900002:  Elevation of Depth Reference (LMF) above Permanent Datum
RUN  .                Run 1:  RUN NUMBER
PROJECT.     SLEIPNER_OST@st-vlinapp01:  
SET  .        RSTD_0912_IC1:  
~Other Information Block
# 
~A       DEPTH           CCLC           CCLD           CRRA             CS           CVEL           DEVI           FBEF           FCOR           FERD           FIRD             GR           NCOR           NERD           NIRD        RB_PCMS           TENS           WPRE           WTEP 
# ...
    3595.57320        -0.0114         0.0000         2.8183         1.2746      -0.386700        54.5452       104.1090     0.00050000         4.8124         4.8124        32.9173       0.034400         2.1223         2.1223         7.1536      2717.3079      5116.4326        78.5586
    3595.72560        -0.0751         0.0000         2.7567         1.2756      -0.390700        54.5491       104.9795    -0.03720000         4.8588         4.8588        32.1719      -0.037700         2.1198         2.1198         7.1026      2729.3855      5116.5610        78.3671
    3595.87800        -0.0735         0.0000         2.7711         1.2835      -0.390900        54.5395       105.9744     0.07290000         4.7044         4.7044        31.7125       0.012300         2.1300         2.1300         7.0662      2720.1658      5116.6914        78.2711
    3596.03040         0.0196         0.0000         2.7740         1.2799      -0.396600        54.5289       106.8811     0.00150000         4.6660         4.6660        31.9095       0.015800         2.1492         2.1492         7.0811      2728.9131      5116.8047        78.0906
    3596.18280         0.0963         0.0000         2.7913         1.2979      -0.393500        54.5216       107.3750    -0.05010000         4.7153         4.7153        32.0913       0.048300         2.1514         2.1514         7.0635      2715.4189      5116.9409        78.0004
    3596.33520         0.0975         0.0000         2.7984         1.3048      -0.399400        54.5102       108.1154     0.10660000         4.8455         4.8455        32.5204      -0.129300         2.1288         2.1288         7.0937      2711.7668      5117.0278        77.8940
    3596.48760        -0.0115         0.0000         2.8126         1.3130      -0.402300        54.5044       107.9962    -0.02760000         4.6710         4.6710        32.7093      -0.058000         2.1850         2.1850         7.0740      2722.2214      5117.1597        77.7500
    3596.64000        -0.0111         0.0000         2.8062         1.3294      -0.404500        54.5101       108.6362     0.03170000         4.7190         4.7190        32.0265      -0.062200         2.1444         2.1444         6.9921      2704.9558      5117.3032        77.6240
    3596.79240         0.0020         0.0000         2.8393         1.3396      -0.403300        54.5070       106.5218     0.10280000         4.6760         4.6760        31.1799      -0.013500         2.1503         2.1503         6.8781      2708.4307      5117.4048        77.5268
    3596.94480         0.1667         0.0000         2.8111         1.2841      -0.400100        54.5149       105.6872    -0.00890000         4.6217         4.6217        30.3315       0.019400         2.1690         2.1690         6.7690      2717.5769      5117.5195        77.3698
    3597.09720        -0.0118         0.0000         2.8053         1.3196      -0.402700        54.5406       105.4147     0.12729999         4.4516         4.4516        28.9668      -0.069800         2.1365         2.1365         6.7237      2712.0354      5117.6406        77.2536
    3597.24960        -0.0091         0.0000         2.8157         1.3445      -0.407900        54.5560       105.2216     0.00280000         4.4443         4.4443        28.0192       0.008900         2.1261         2.1261         6.7429      2733.5852      5117.7837        77.1338
    3597.40200        -0.0051         0.0000         2.8402         1.3524      -0.411500        54.5592       103.1782    -0.09150000         4.4309         4.4309        27.3899       0.018600         2.1302         2.1302         6.6942      2726.9731      5117.9028        76.9399
    3597.55440        -0.1043         0.0000         2.8282         1.3068      -0.403000        54.5821       104.0210     0.10850000         4.4271         4.4271        26.4714       0.064500         2.0781         2.0781         6.6500      2717.6277      5118.0415        76.8639
    3597.70680         0.1136         0.0000         2.8416         1.3163      -0.401000        54.5838       102.0416    -0.00330000         4.3223         4.3223        26.4319       0.048000         2.0891         2.0891         6.6626      2724.1138      5118.1597        76.6685
    3597.85920         0.0558         0.0000         2.7741         1.3307      -0.416500        54.5866       101.9239     0.01590000         4.2620         4.2620        26.4805       0.035200         2.0374         2.0374         6.6575      2722.3782      5118.2939        76.5631
    3598.01160         0.1342         0.0000         2.7309         1.3379      -0.406400        54.5811       105.0164     0.07740000         4.0782         4.0782        27.4242      -0.035300         2.0708         2.0708         6.6065      2714.3372      5118.4185        76.4275
    3598.16400         0.0564         0.0000         2.7724         1.3635      -0.410400        54.5720       106.6057     0.05540000         3.9519         3.9519        28.4067       0.039400         2.0556         2.0556         6.5463      2718.1018      5118.5459        76.2733
    3598.31640        -0.0034         0.0000         2.7856         1.3494      -0.407700        54.5540       109.8515    -0.11180000         3.9457         3.9457        29.2092       0.058200         2.0059         2.0059         6.5004      2711.2866      5118.7061        76.1029
    3598.46880        -0.0050         0.0000         2.8245         1.3146      -0.403300        54.5355       110.5565    -0.22070000         3.9209         3.9209        29.8743       0.033800         1.9740         1.9740         6.5264      2726.7500      5118.8408        75.9811
    3598.62120        -0.0036         0.0000         2.8256         1.3123      -0.399100        54.4957       112.2311     0.11530000         4.0523         4.0523        31.2682       0.060300         1.9507         1.9507         6.6810      2726.6426      5118.9683        75.8005
    3598.77360        -0.0014         0.0000         2.8611         1.3022      -0.400300        54.4387       112.5066     0.00920000         4.0722         4.0722        32.1770       0.041700         1.9843         1.9843         6.8071      2716.6270      5119.0977        75.5948
    3598.92600        -0.0399         0.0000         2.8749         1.3199      -0.401700        54.4118       112.1613     0.00910000         3.8954         3.8954        32.6947       0.038500         1.9744         1.9744         6.8100      2714.2856      5119.2764        75.4886
    3599.07840        -0.0286         0.0000         2.8651         1.2976      -0.401300        54.4021       111.7154     0.05580000         3.7525         3.7525        34.0117      -0.081500         1.9684         1.9684         6.8253      2710.3352      5119.4326        75.2836
    3599.23080        -0.0335         0.0000         2.8319         1.3406      -0.404500        54.4013       113.8274    -0.07620000         3.6093         3.6093        33.5995       0.004300         1.9830         1.9830         6.8891      2718.0825      5119.5747        75.1126
    3599.38320         0.0652         0.0000         2.8788         1.3215      -0.412700        54.3958       116.5964    -0.08890000         3.5900         3.5900        31.6156      -0.012100         2.0080         2.0080         6.9513      2726.8550      5119.7437        74.8926
    3599.53560         0.0958         0.0958         3.0208         1.3005      -0.399900        54.3897       119.7599    -0.09000000         3.7290         3.7290        29.5406      -0.023800         2.0000         2.0000         6.9173      2727.1306      5119.9277        74.7039
    3599.68800         0.0109         0.0109         3.1539         1.3114      -0.399500        54.4037       119.2115    -0.07890000         3.7617         3.7617        28.3202       0.009300         2.0136         2.0136         6.8293      2718.6716      5120.0923        74.4845
    3599.84040        -0.0123         0.0000         3.0635         1.2848      -0.397400        54.4080       114.9638    -0.04290000         3.7147         3.7147        26.9746      -0.014900         1.9748         1.9748         6.6482      2711.4045      5120.2876        74.3200
