~Version Information Block
VERS .                 2.00:  CWLS LOG ASCII STANDARD - VERSION 2.00
WRAP .                   NO:  One line per depth step
~Well Information Block
#MNEM.UNIT        Data Type   Information
#---------- ----------------  -----------
STRT .M          3201.31440:  START DEPTH
STOP .M          3410.40720:  STOP DEPTH
STEP .M             0.15240:  STEP
NULL .              -999.25:  NULL VALUE
COMP .              Statoil:  COMPANY
WELL .          NO_15/9-F-4:  WELL
FLD  .                VOLVE:  FIELD
LOC  .            North Sea:  LOCATION
CTRY .                     :  COUNTRY
STAT .                     :  STATE
CNTY .                     :  COUNTY
SRVC .         Schlumberger:  SERVICE COMPANY
DATE .          13-Sep-2012:  DATE
API  .                     :  API NUMBER
UWI  .             15/9-F-4:  UNIQUE WELL ID
~Curve Information Block
#MNEM.UNIT         API CODE   Curve Description
#---------- ----------------  -----------------
DEPTH.M                    :  DEPTH (BOREHOLE)
CCLC .V                    :  CCL
CCLD .V                    :  CCL Discriminated Amplitude
CRRA .                     :  Near-Far Count Rate Ratio
CVEL .M/MIN                 :  Cable Velocity
DEVI .DEG                  :  Hole Deviation
FBEF .UA                   :  RST Far Effective Beam Current
FCOR .                     :  RST Far Carbon/Oxygen Ratio
FERD .                     :  RST Far IC Mode Capture Optimization Resolution Degradation Factor
FIRD .                     :  RST Far Inelastic Optimization Resolution Degradation Factor
GR   .GAPI                 :  Gamma Ray
NCOR .                     :  RST Near Carbon/Oxygen Ratio
NERD .                     :  RST Near IC Mode Capture Optimization Resolution Degradation Factor
NIRD .                     :  RST Near Inelastic Optimization Resolution Degradation Factor
RB_PCMS.DEG                  :  Relative Bearing
TENS .LBF                  :  Cable Tension
WPRE .PSI                  :  Well Pressure
WTEP .DEGC                 :  Well Temperature
WTPE .MS                   :  Well Temperature Period
~Parameter Information Block
#MNEM.UNIT            Value   Description
#---------- ----------------  -----------
APD  .M                  54:  Elevation of Depth Reference (LMF) above Permanent Datum
RUN  .                    1:  RUN NUMBER
PROJECT.     SLEIPNER_OST@st-vlinapp01:  
SET  .        RSTD_0912_IC2:  
~Other Information Block
# 
~A       DEPTH           CCLC           CCLD           CRRA           CVEL           DEVI           FBEF           FCOR           FERD           FIRD             GR           NCOR           NERD           NIRD        RB_PCMS           TENS           WPRE           WTEP           WTPE 
    3201.31440       -0.00540        0.00000         3.1180       -0.36120        47.9092       120.0645        -0.0533         5.6200         5.6200        68.6064    -0.06360000         2.6989         2.6989       356.0505      2296.0999      4865.7144        93.8218         4.0047
    3201.46680       -0.00540        0.00000         3.1180       -0.36120        47.9092       120.0645        -0.0533         5.6200         5.6200        68.6064    -0.06360000         2.6989         2.6989       356.0505      2296.0999      4865.7144        93.8218         4.0047
    3201.61920       -0.00540        0.00000         3.1180       -0.36120        47.9092       120.0645        -0.0533         5.6200         5.6200        68.6064    -0.06360000         2.6989         2.6989       356.0505      2296.0999      4865.7144        93.8218         4.0047
    3201.77160       -0.00540        0.00000         3.1180       -0.36120        47.9092       120.0645        -0.0533         5.6200         5.6200        68.6064    -0.06360000         2.6989         2.6989       356.0505      2296.0999      4865.7144        93.8218         4.0047
    3201.92400       -0.00540        0.00000         3.1180       -0.36120        47.9092       120.0645        -0.0533         5.6200         5.6200        68.6064    -0.06360000         2.6989         2.6989       356.0505      2296.0999      4865.7144        93.8218         4.0047
    3202.07640       -0.00540        0.00000         3.1180       -0.36120        47.9092       120.0645        -0.0533         5.6200         5.6200        68.6064    -0.06360000         2.6989         2.6989       356.0505      2296.0999      4865.7144        93.8218         4.0047
    3202.22880       -0.00540        0.00000         3.1180       -0.36120        47.9092       120.0645        -0.0533         5.6200         5.6200        68.6064    -0.06360000         2.6989         2.6989       356.0505      2296.0999      4865.7144        93.8218         4.0047
    3202.38120       -0.00540        0.00000         3.1180       -0.36120        47.9092       120.0645        -0.0533         5.6200         5.6200        68.6064    -0.06360000         2.6989         2.6989       356.0505      2296.0999      4865.7144        93.8218         4.0047
    3202.53360       -0.00540        0.00000         3.1180       -0.36120        47.9092       120.0645        -0.0533         5.6200         5.6200        68.6064    -0.06360000         2.6989         2.6989       356.0505      2296.0999      4865.7144        93.8218         4.0047
    3202.68600       -0.00540        0.00000         3.1180       -0.36120        47.9092       120.0645        -0.0533         5.6200         5.6200        68.6064    -0.06360000         2.6989         2.6989       356.0505      2296.0999      4865.7144        93.8218         4.0047
    3202.83840       -0.00540        0.00000         3.1180       -0.36120        47.9092       120.0645        -0.0533         5.6200         5.6200        68.6064    -0.06360000         2.6989         2.6989       356.0505      2296.0999      4865.7144        93.8218         4.0047
    3202.99080       -0.00540        0.00000         3.1180       -0.36120        47.9092       120.0645        -0.0533         5.6200         5.6200        68.6064    -0.06360000         2.6989         2.6989       356.0505      2296.0999      4865.7144        93.8218         4.0047
    3203.14320       -0.00540        0.00000         3.1180       -0.36120        47.9092       120.0645        -0.0533         5.6200         5.6200        68.6064    -0.06360000         2.6989         2.6989       356.0505      2296.0999      4865.7144        93.8218         4.0047
    3203.29560       -0.00540        0.00000         3.1180       -0.36120        47.9092       120.0645        -0.0533         5.6200         5.6200        68.6064    -0.06360000         2.6989         2.6989       356.0505      2296.0999      4865.7144        93.8218         4.0047
    3203.44800       -0.00540        0.00000         3.1180       -0.36120        47.9092       120.0645        -0.0533         5.6200         5.6200        68.6064    -0.06360000         2.6989         2.6989       356.0505      2296.0999      4865.7144        93.8218         4.0047
    3203.60040       -0.00540        0.00000         3.1180       -0.36120        47.9092       120.0645        -0.0533         5.6200         5.6200        68.6064    -0.06360000         2.6989         2.6989       356.0505      2296.0999      4865.7144        93.8218         4.0047
    3203.75280       -0.00540        0.00000         3.1180       -0.36120        47.9092       120.0645        -0.0533         5.6200         5.6200        68.6064    -0.06360000         2.6989         2.6989       356.0505      2296.0999      4865.7144        93.8218         4.0047
    3203.90520       -0.00540        0.00000         3.1180       -0.36120        47.9092       120.0645        -0.0533         5.6200         5.6200        68.6064    -0.06360000         2.6989         2.6989       356.0505      2296.0999      4865.7144        93.8218         4.0047
    3204.05760       -0.00540        0.00000         3.1180       -0.36120        47.9092       120.0645        -0.0533         5.6200         5.6200        68.6064    -0.06360000         2.6989         2.6989       356.0505      2296.0999      4865.7144        93.8218         4.0047
    3204.21000       -0.00540        0.00000         3.1180       -0.36120        47.9092       120.0645        -0.0533         5.6200         5.6200        68.6064    -0.06360000         2.6989         2.6989       356.0505      2296.0999      4865.7144        93.8218         4.0047
    3204.36240       -0.00540        0.00000         3.1180       -0.36120        47.9092       120.0645        -0.0533         5.6200         5.6200        68.6064    -0.06360000         2.6989         2.6989       356.0505      2296.0999      4865.7144        93.8218         4.0047
    3204.51480       -0.00540        0.00000         3.1180       -0.36120        47.9092       120.0645        -0.0533         5.6200         5.6200        68.6064    -0.06360000         2.6989         2.6989       356.0505      2296.0999      4865.7144        93.8218         4.0047
    3204.66720       -0.00540        0.00000         3.1180       -0.36120        47.9092       120.0645        -0.0533         5.6200         5.6200        68.6064    -0.06360000         2.6989         2.6989       356.0505      2296.0999      4865.7144        93.8218         4.0047
    3204.81960       -0.00540        0.00000         3.1180       -0.36120        47.9092       120.0645        -0.0533         5.6200         5.6200        68.6064    -0.06360000         2.6989         2.6989       356.0505      2296.0999      4865.7144        93.8218         4.0047
    3204.97200       -0.00540        0.00000         3.1180       -0.36120        47.9092       120.0645        -0.0533         5.6200         5.6200        68.6064    -0.06360000         2.6989         2.6989       356.0505      2296.0999      4865.7144        93.8218         4.0047
    3205.12440       -0.00540        0.00000         3.1180       -0.36120        47.9092       120.0645        -0.0533         5.6200         5.6200        68.6064    -0.06360000         2.6989         2.6989       356.0505      2296.0999      4865.7144        93.8218         4.0047
    3205.27680       -0.00540        0.00000         3.1180       -0.36120        47.9092       120.0645        -0.0533         5.6200         5.6200        68.6064    -0.06360000         2.6989         2.6989       356.0505      2296.0999      4865.7144        93.8218         4.0047
    3205.42920       -0.00540        0.00000         3.1180       -0.36120        47.9092       120.0645        -0.0533         5.6200         5.6200        68.6064    -0.06360000         2.6989         2.6989       356.0505      2296.0999      4865.7144        93.8218         4.0047
    3205.58160       -0.00540        0.00000         3.1180       -0.36120        47.9092       120.0645        -0.0533         5.6200         5.6200        68.6064    -0.06360000         2.6989         2.6989       356.0505      2296.0999      4865.7144        93.8218         4.0047
