~Version Information Block
VERS .                 2.00:  CWLS LOG ASCII STANDARD - VERSION 2.00
WRAP .                   NO:  One line per depth step
~Well Information Block
#MNEM.UNIT        Data Type   Information
#---------- ----------------  -----------
STRT .M          3460.24200:  START DEPTH
STOP .M          3530.19360:  STOP DEPTH
STEP .M             0.15240:  STEP
NULL .              -999.25:  NULL VALUE
COMP .              Statoil:  COMPANY
WELL .          NO_15/9-F-5:  WELL
FLD  .                Volve:  FIELD
LOC  .                Volve:  LOCATION
CTRY .               Norway:  COUNTRY
STAT .                     :  STATE
CNTY .                     :  COUNTY
SRVC .         Schlumberger:  SERVICE COMPANY
DATE .           11/03/2015:  DATE
API  .                     :  API NUMBER
UWI  .             15/9-F-5:  UNIQUE WELL ID
LATI .     58° 26' 29.66" N:  LATITUDE
LONG .      1° 53' 14.99" E:  LONGITUDE
~Curve Information Block
#MNEM.UNIT         API CODE   Curve Description
#---------- ----------------  -----------------
DEPTH.M                    :  Depth Index
CCLC .V                    :  (PSTP-B)                (1in)                   CCL Computed Amplitude
CVEL .M/SEC                 :  (WLWorkflow)            (1in)                   Cable Velocity
FBEF .UA                   :  (RST-D)                 (6in)                   Far Effective Beam Curre
FCOR .                     :  (RST-D)                 (6in)                   Far Carbon/Oxygen Ratio
FERD .                     :  (RST-D)                 (6in)                   Far IC Mode Capture Opti
FIRD .                     :  (RST-D)                 (6in)                   Far Inelastic Optimizati
GR   .GAPI                 :  (PSTP-B)                (6in)                   Gamma Ray
NCOR .                     :  (RST-D)                 (6in)                   Near Carbon/Oxygen Ratio
NERD .                     :  (RST-D)                 (6in)                   Near IC Mode Capture Opt
NIRD .                     :  (RST-D)                 (6in)                   Near Inelastic Optimizat
RB_PCMS.DEG                  :  (PCMS-A)                (6in)                   Relative Bearing
TENS .LBF                  :  (WLWorkflow)            (1in)                   Cable Tension
WPRE .BAR                  :  (PSTP-B)                (6in)                   Well Pressure
WTEP .DEGC                 :  (PSTP-B)                (6in)                   Well Temperature
~Parameter Information Block
#MNEM.UNIT            Value   Description
#---------- ----------------  -----------
APD  .M                  54:  Elevation of Depth Reference (LMF) Above Permanent Datum
CLAB .              Country:  :County Label
ECF  .M             -999.25:  Elevation of Casing Flange above Permanent Datum
EDF  .M                  54:  Elevation of Drill Floor Above Permanent Datum
EGL  .M                 -91:  Elevation of Ground Level Above Permanent Datum
EKB  .M             -999.25:  Elevation of Kelly Bushing Above Permanent Datum
EPD  .M                   0:  Elevation of Permanent Datum (PDAT) above Mean Sea Level
FL1  .            North Sea:  Field Location Line 1
FL2  .     Norwegian Sector:  Field Location Line 2
LMF  .                   DF:  Logging Measured From
LUL  .                 NOBO:  Logging Unit Location
LUN  .          ONCC-A 3837:  Logging Unit Number
PDAT .                  MSL:  Local Permanent Datum
RIGN .      Maersk Inspirer:  Rig Name
RIGTYP.               Jackup:  Rig Type
SON  .           C2TQ-00038:  Service Order Number
TAPE_NAME.     RST_IC_Pass-2___03Nov15_214110.las:  
TOOL_STRING.              UNKNOWN:  
WN   .             15/9-F-5:  WELL NAME
PROJECT.     SLEIPNER_OST@st-vlinapp01:  
SET  .        RSTD_1115_IC2:  
~Other Information Block
# 
~A       DEPTH           CCLC           CVEL           FBEF           FCOR           FERD           FIRD             GR           NCOR           NERD           NIRD        RB_PCMS           TENS           WPRE           WTEP 
# ...
    3465.72840        0.02066   -999.2500000      -999.2500    -999.250000      -999.2500      -999.2500        51.8062    -999.250000      -999.2500      -999.2500       355.7318      -999.2500       358.7073        84.0916
    3465.88080       -0.00361   -999.2500000      -999.2500    -999.250000      -999.2500      -999.2500        64.5827    -999.250000      -999.2500      -999.2500       355.8207      -999.2500       358.7177        84.0991
    3466.03320        0.01032   -999.2500000       136.3607    -999.250000         6.0960         6.0960        75.2251    -999.250000      -999.2500      -999.2500       355.8618      -999.2500       358.7305        84.1129
    3466.18560        0.01529   -999.2500000       136.4769       0.065570         6.2377         6.2377        84.3105       0.035560         4.1081         4.1081       355.6688      -999.2500       358.7421        84.1197
    3466.33800        0.00063   -999.2500000       133.5244       0.147290         6.2242         6.2242        87.2626       0.067930         4.1123         4.1123       355.7361      -999.2500       358.7518        84.1216
    3466.49040       -0.00835   -999.2500000       133.0758      -0.056510         6.0894         6.0894        86.2476       0.040920         4.0905         4.0905       355.8319      -999.2500       358.7623        84.1332
    3466.64280       -0.00836   -999.2500000       134.5730      -0.091680         6.0859         6.0859        88.0507       0.022460         4.1274         4.1274       355.6952      -999.2500       358.7765        84.1362
    3466.79520       -0.00762   -999.2500000       138.4110       0.084530         6.1111         6.1111        89.8753       0.065580         4.1778         4.1778       355.6502      -999.2500       358.7887        84.1427
    3466.94760        0.01108   -999.2500000       138.1115       0.074820         6.0823         6.0823        91.6014       0.098600         4.1809         4.1809       355.6529      -999.2500       358.8011        84.1506
    3467.10000        0.01075   -999.2500000       141.0914       0.134960         6.0582         6.0582        94.7660      -0.022820         4.1655         4.1655       355.5333      -999.2500       358.8118        84.1666
    3467.25240        0.01511   -999.2500000       139.9296      -0.219310         6.0803         6.0803        96.5659      -0.010630         4.2309         4.2309       355.3887      -999.2500       358.8220        84.1729
    3467.40480       -0.03892   -999.2500000       140.1235      -0.034990         6.0324         6.0324        92.3413      -0.000920         4.2136         4.2136       355.3622      -999.2500       358.8370        84.1786
    3467.55720       -0.00976   -999.2500000       138.6678      -0.015990         5.9820         5.9820        93.2348      -0.014000         4.1986         4.1986       355.2882      -999.2500       358.8480        84.1840
    3467.70960        0.00011   -999.2500000       137.8258       0.034760         5.9166         5.9166        95.4437       0.029830         4.2094         4.2094       355.1834      -999.2500       358.8598        84.1905
    3467.86200       -0.01063   -999.2500000       139.5342      -0.091620         6.1653         6.1653        96.0702       0.085790         4.1784         4.1784       354.8958      -999.2500       358.8719        84.1974
    3468.01440       -0.01493   -999.2500000       140.4430      -0.084820         6.1547         6.1547        95.9646       0.023300         4.2227         4.2227       354.8120      -999.2500       358.8828        84.2026
    3468.16680       -0.00121   -999.2500000       139.4688       0.066120         6.2133         6.2133       100.3179      -0.044550         4.2135         4.2135       355.1501      -999.2500       358.8932        84.2087
    3468.31920       -0.01122   -999.2500000       139.0244       0.009660         6.3130         6.3130        99.8059      -0.033520         4.2372         4.2372       355.0480      -999.2500       358.9068        84.2114
    3468.47160        0.02148   -999.2500000       139.3071      -0.047070         6.2982         6.2982        98.6858       0.039040         4.2558         4.2558       354.8876      -999.2500       358.9177        84.2190
    3468.62400       -0.03303   -999.2500000       142.9001       0.180930         6.2873         6.2873       100.8832       0.031430         4.2334         4.2334       354.7968      -999.2500       358.9298        84.2234
    3468.77640       -0.05880   -999.2500000       148.3972      -0.034700         6.2912         6.2912       104.7298      -0.093940         4.2338         4.2338       354.9101      -999.2500       358.9403        84.2312
    3468.92880       -0.08057   -999.2500000       147.8262       0.086940         6.4645         6.4645       105.2057      -0.132200         4.2456         4.2456       354.8027      -999.2500       358.9529        84.2390
    3469.08120       -0.00811   -999.2500000       149.0646      -0.021050         6.4440         6.4440       107.4579      -0.042900         4.2642         4.2642       354.6855      -999.2500       358.9629        84.2609
    3469.23360       -0.02344   -999.2500000       145.8646      -0.000680         6.2830         6.2830       107.4009       0.001540         4.2668         4.2668       354.6122      -999.2500       358.9775        84.2611
    3469.38600       -0.00929   -999.2500000       145.4427      -0.113420         6.1915         6.1915       106.9035       0.018660         4.2582         4.2582       354.5432      -999.2500       358.9875        84.2630
    3469.53840        0.01976   -999.2500000       147.6777       0.077240         6.1673         6.1673       104.9269       0.026730         4.2419         4.2419       354.5910      -999.2500       359.0000        84.2698
    3469.69080        0.00006   -999.2500000       149.2510       0.138030         5.9859         5.9859       105.5286       0.038650         4.2519         4.2519       354.4307      -999.2500       359.0121        84.2797
    3469.84320        0.03991   -999.2500000       149.3011       0.070520         6.0548         6.0548       104.6602       0.013930         4.2346         4.2346       354.4942      -999.2500       359.0216        84.2879
    3469.99560       -0.00817     -0.0091323       148.3561       0.047820         6.2364         6.2364       105.3885       0.060730         4.2071         4.2071       354.4489      3961.8103       359.0348        84.2941
    3470.14800       -0.00928     -0.0094117       148.4371       0.075620         6.1555         6.1555       103.7658       0.044560         4.1756         4.1756       354.3930      4049.3328       359.0476        84.3095
    3470.30040       -0.02250     -0.0088602       147.6228       0.196900         6.4388         6.4388       102.3209       0.094090         4.1680         4.1680       354.3102      4079.6438       359.0583        84.3132
    3470.45280       -0.04230     -0.0088905       145.2311       0.163790         6.4216         6.4216        99.7889       0.015710         4.1343         4.1343       354.2188      4062.6594       359.0704        84.3177
    3470.60520        0.00014     -0.0090677       145.1566      -0.041330         6.4575         6.4575        98.9503      -0.005040         4.1674         4.1674       354.2753      3931.5576       359.0834        84.3203
    3470.75760        0.00629     -0.0089508       147.9372       0.053240         6.4671         6.4671        96.1946       0.115750         4.1610         4.1610       354.3759      4050.8818       359.0954        84.3285
    3470.91000       -0.00792     -0.0095417       150.1737       0.030840         6.4571         6.4571        94.2835       0.082540         4.1602         4.1602       354.5041      4046.8196       359.1070        84.3372
    3471.06240        0.04127     -0.0092397       150.2323       0.059290         6.1754         6.1754        93.8114       0.029180         4.1841         4.1841       354.5799      4000.4009       359.1177        84.3608
