~Version Information Block
VERS .                 2.00:  CWLS LOG ASCII STANDARD - VERSION 2.00
WRAP .                  YES:  Multiple lines per depth step
~Well Information Block
#MNEM.UNIT        Data Type   Information
#---------- ----------------  -----------
STRT .M          3174.64440:  START DEPTH
STOP .M          3422.90400:  STOP DEPTH
STEP .M             0.15240:  STEP
NULL .              -999.25:  NULL VALUE
COMP .         StatoilHydro:  COMPANY
WELL .          NO_15/9-F-4:  WELL
FLD  .                VOLVE:  FIELD
LOC  .            North Sea:  LOCATION
CTRY .                     :  COUNTRY
STAT .                     :  STATE
CNTY .                     :  COUNTY
SRVC .         Schlumberger:  SERVICE COMPANY
DATE .          13-Sep-2012:  DATE
API  .                     :  API NUMBER
UWI  .             15/9-F-4:  UNIQUE WELL ID
~Curve Information Block
#MNEM.UNIT         API CODE   Curve Description
#---------- ----------------  -----------------
DEPTH.M                    :  DEPTH (BOREHOLE)
BSAL .PPM                  :  Borehole Salinity
CCLC .V                    :  CCL
CCLD .V                    :  CCL Discriminated Amplitude
CIRF .                     :  RST Capture to Inelastic Ratio Far
CIRN .                     :  RST Capture to Inelastic Ratio Near
CVEL .M/MIN                 :  Cable Velocity
DEVI .DEG                  :  Hole Deviation
DSIG .CU                   :  Sigma Difference
FBEF .UA                   :  RST Far Effective Beam Current
GR   .GAPI                 :  Gamma Ray
IRAT .                     :  RST Inelastic Ratio
RB_PCMS.DEG                  :  Relative Bearing
RSCF .                     :  RST Far Detector Effective Unregulated Capture Count Rate
RSCN .                     :  RST Near Detector Effective Unregulated Capture Count Rate
SFFA .CU                   :  RST Sigma Formation Far Apparent
SIBF .CU                   :  RST Sigma Borehole Fluid
SIGM .CU                   :  Formation Sigma (Neutron Capture Cross Section)
TPHI .V/V                  :  Thermal Decay Porosity
WPRE .PSI                  :  Well Pressure
WTEP .DEGC                 :  Well Temperature
~Parameter Information Block
#MNEM.UNIT            Value   Description
#---------- ----------------  -----------
APD  .M                  54:  Elevation of Depth Reference (LMF) above Permanent Datum
BHS  .                 CASE:  Borehole Status (Open or Cased Hole)
BS   .IN                8.5:  Bit Size
BSAL .PPM       34972.17188:  Borehole Salinity
BSALOPT.              UNKNOWN:  Borehole Salinity Option
CSID .IN              6.184:  Casing Inner Diameter
CSIZ .IN                  7:  Current Casing Size
CWEI .LB/F               29:  Casing Weight
MATR .                 SAND:  Rock Matrix for Neutron Porosity Corrections
RUN  .                    4:  RUN NUMBER
PROJECT.     SLEIPNER_OST@st-vlinapp01:  
SET  .       RSTD_0912_SIG1:  
~Other Information Block
~Ascii Log Data
# ...
    3368.80200 
    22075.1992         0.1896         0.0000         2.8645     0.84100002 
      -4.58860        55.7567        -1.6011        84.6949        15.8416 
    0.32200000       356.1276        11.9749        11.0713        14.2758 
       29.7982        12.0283     0.17200001      5002.7871        81.6330
    3368.95440 
    22403.4004         0.2217         0.0000         2.8209     0.87480003 
      -4.56580        55.7196        -1.6287        80.8867        15.5704 
    0.31970000       356.1526        12.3475        11.4899        13.9720 
       29.9134        12.2561     0.17280000      5002.9961        81.6261
    3369.10680 
    22100.0996         0.0518         0.0000         2.8609     0.83450001 
      -4.54220        55.5090        -1.6544        86.5705        16.0908 
    0.32229999       356.1695        11.7844        10.9801        14.6176 
       29.8069        12.4315     0.17410000      5003.0996        81.5984
    3369.25920 
    22426.3984         0.2260         0.0000         2.7644     0.84020001 
      -4.54240        55.7582        -1.6592        85.8160        16.0908 
    0.32220000       356.2548        11.1701        10.5382        14.7436 
       29.9215        12.9737     0.17610000      5003.2090        81.5579
    3369.41160 
    22317.4004        -0.3263         0.0000         2.6751     0.83039999 
      -4.56120        55.6969        -1.4761        81.4469        16.2901 
    0.32319999       356.3518        11.5373        10.8525        15.5424 
       29.8832        13.2836     0.18300000      5003.3975        81.5141
    3369.56400 
    22670.0996         0.0294         0.0000         2.6322     0.83499998 
      -4.54130        55.5242        -1.3793        83.3774        18.4353 
    0.32069999       356.2569        11.0109        10.7176        15.4820 
       30.0071        13.8927     0.19360000      5003.5186        81.5081
    3369.71640 
    23474.5000         0.0006         0.0000         2.4767     0.77029997 
      -4.58360        55.6679        -1.2005        84.4031        21.2809 
    0.31850001       356.2110        10.6187        10.4304        16.4814 
       30.2899        14.3998     0.20020001      5003.5894        81.4720
    3369.86880 
    23720.3008        -0.2212         0.0000         2.4009     0.79409999 
      -4.52850        55.7193        -0.9947        82.4472        22.9971 
    0.31920001       356.1797        10.1096        10.0143        16.9830 
       30.3763        14.9519     0.20379999      5003.7939        81.4407
    3370.02120 
    23659.4004         0.3448         0.0000         2.4052     0.76969999 
      -4.55140        55.4340        -0.9889        82.6953        25.6572 
    0.32049999       356.1797        10.2331         9.9539        17.0598 
       30.3549        15.2030     0.20260000      5003.9243        81.4268
    3370.17360 
    23763.0000        -0.0494         0.0000         2.3664     0.75300002 
      -4.54520        55.6453        -0.9077        82.1656        29.6930 
    0.32200000       356.1359        10.0339         9.8520        17.1818 
       30.3913        15.4721     0.20000000      5004.0317        81.4040
    3370.32600 
    23654.1992        -0.4911         0.0000         2.2922     0.76260000 
      -4.52680        55.6901        -0.7700        82.9456        30.8944 
    0.32429999       356.0339         9.6431         9.7765        17.7371 
       30.3530        15.5650     0.19870000      5004.1670        81.3508
    3370.47840 
    23862.0000        -0.2230         0.0000         2.3397     0.75550002 
      -4.57390        55.5610        -0.6133        83.0841        32.2839 
    0.32530001       355.9797         9.6036         9.1425        17.3062 
       30.4261        15.6546     0.19920000      5004.3242        81.3180
    3370.63080 
    24590.2012        -0.1092         0.0000         2.3461     0.76040000 
      -4.57010        55.5863        -0.4972        83.8350        34.0001 
    0.32150000       355.9028         9.8151         9.5393        17.4163 
       30.6825        15.6212     0.20440000      5004.4497        81.2665
    3370.78320 
    25393.2988        -0.1621         0.0000         2.3413     0.76069999 
      -4.56950        55.7193        -0.3819        84.3599        33.8285 
    0.32049999       355.8448         9.4002         9.3338        17.6212 
       30.9655        15.5482     0.20909999      5004.5166        81.2182
    3370.93560 
    25213.5996        -0.0234         0.0000         2.3351     0.77060002 
      -4.51890        55.4757        -0.3793        84.7974        32.4528 
    0.31930000       355.7572         9.6161        10.0022        17.0710 
       30.9021        15.4217     0.21420000      5004.7358        81.2064
    3371.08800 
    25620.0996        -0.0593         0.0000         2.4032     0.77209997 
      -4.53150        55.5902        -0.5169        84.3039        32.9123 
    0.32269999       355.7159        10.0806        10.1201        17.0220 
       31.0454        15.2852     0.21780001      5004.8594        81.1798
    3371.24040 
    25639.7988         0.0620         0.0000         2.2849     0.77670002 
      -4.55730        55.7182        -0.3944        82.9017        32.1234 
    0.31930000       355.7318         9.7070        10.1200        17.2064 
       31.0523        15.3440     0.22040001      5004.9160        81.1448
    3371.39280 
    25810.3008         0.0376         0.0000         2.3699     0.77130002 
      -4.55740        55.6922        -0.3684        85.2618        31.0079 
    0.31670001       355.7808         9.8099        10.0075        17.2500 
       31.1125        15.5333     0.21969999      5005.1440        81.1415
    3371.54520 
    25753.7012        -0.0987         0.0000         2.3951     0.75459999 
      -4.53350        55.5002        -0.3787        84.2132        31.2321 
    0.31549999       356.0267         9.8866         9.7279        17.5889 
       31.0925        15.7740     0.21640000      5005.2910        81.1103
    3371.69760 
    25605.5996        -0.1202         0.0000         2.3196     0.76599997 
      -4.53060        55.6684        -0.3249        85.2560        30.9746 
    0.31920001       356.1449         9.6083        10.0919        17.9262 
       31.0403        16.0320     0.21390000      5005.3667        81.0696
    3371.85000 
    25793.0996        -0.3581         0.0000         2.2913     0.76450002 
      -4.53570        55.9053        -0.2988        83.5933        30.0612 
    0.32510000       356.1928         9.7847        10.1117        18.0217 
       31.1064        15.9538     0.21560000      5005.5190        81.0345
    3372.00240 
    26371.0996        -0.2657         0.0000         2.2603     0.77139997 
      -4.57450        55.5796        -0.2431        83.5131        29.1173 
    0.32359999       356.1252         9.4701         9.6748        17.3521 
       31.3103        15.7973     0.22040001      5005.6929        81.0113
    3372.15480 
    26867.5000         0.0061         0.0000         2.3462     0.76239997 
      -4.57010        55.8086        -0.2182        87.0849        28.9373 
    0.31970000       356.1537         9.2715         9.3634        17.4560 
       31.4856        15.7339     0.22540000      5005.7700        80.9572
    3372.30720 
    26967.1992        -0.1438         0.0000         2.3464     0.76740003 
      -4.56580        55.9968        -0.1634        86.2561        28.5415 
    0.31740001       356.2241         9.4170         9.7838        17.8326 
       31.5208        15.9382     0.22950000      5005.9170        80.8953
    3372.45960 
    26683.0996        -0.3694         0.0000         2.2122     0.76429999 
      -4.55620        55.6773        -0.1126        83.3794        27.6834 
    0.31590000       356.2128         9.2606         9.8598        17.9674 
       31.4205        15.8664     0.23340000      5006.1128        80.9003
    3372.61200 
    26942.6992        -0.6095         0.0000         2.3629     0.77590001 
      -4.54140        55.8157        -0.0463        84.4898        27.1021 
    0.31670001       356.0599         9.5419         9.5437        17.2433 
       31.5121        15.6472     0.23180000      5006.2158        80.8782
