~Version Information Block
VERS .                 2.00:  CWLS LOG ASCII STANDARD - VERSION 2.00
WRAP .                  YES:  Multiple lines per depth step
~Well Information Block
#MNEM.UNIT        Data Type   Information
#---------- ----------------  -----------
STRT .M          3174.64440:  START DEPTH
STOP .M          3422.90400:  STOP DEPTH
STEP .M             0.15240:  STEP
NULL .              -999.25:  NULL VALUE
COMP .         StatoilHydro:  COMPANY
WELL .          NO_15/9-F-4:  WELL
FLD  .                VOLVE:  FIELD
LOC  .            North Sea:  LOCATION
CTRY .                     :  COUNTRY
STAT .                     :  STATE
CNTY .                     :  COUNTY
SRVC .         Schlumberger:  SERVICE COMPANY
DATE .          13-Sep-2012:  DATE
API  .                     :  API NUMBER
UWI  .             15/9-F-4:  UNIQUE WELL ID
~Curve Information Block
#MNEM.UNIT         API CODE   Curve Description
#---------- ----------------  -----------------
DEPTH.M                    :  DEPTH (BOREHOLE)
BSAL .PPM                  :  Borehole Salinity
CCLC .V                    :  CCL
CCLD .V                    :  CCL Discriminated Amplitude
CIRF .                     :  RST Capture to Inelastic Ratio Far
CIRN .                     :  RST Capture to Inelastic Ratio Near
CVEL .M/MIN                 :  Cable Velocity
DEVI .DEG                  :  Hole Deviation
DSIG .CU                   :  Sigma Difference
FBEF .UA                   :  RST Far Effective Beam Current
GR   .GAPI                 :  Gamma Ray
IRAT .                     :  RST Inelastic Ratio
RB_PCMS.DEG                  :  Relative Bearing
RSCF .                     :  RST Far Detector Effective Unregulated Capture Count Rate
RSCN .                     :  RST Near Detector Effective Unregulated Capture Count Rate
SFFA .CU                   :  RST Sigma Formation Far Apparent
SIBF .CU                   :  RST Sigma Borehole Fluid
SIGM .CU                   :  Formation Sigma (Neutron Capture Cross Section)
TPHI .V/V                  :  Thermal Decay Porosity
WPRE .PSI                  :  Well Pressure
WTEP .DEGC                 :  Well Temperature
~Parameter Information Block
#MNEM.UNIT            Value   Description
#---------- ----------------  -----------
APD  .M                  54:  Elevation of Depth Reference (LMF) above Permanent Datum
BHS  .                 CASE:  Borehole Status (Open or Cased Hole)
BS   .IN                8.5:  Bit Size
BSAL .PPM       34972.17188:  Borehole Salinity
BSALOPT.              UNKNOWN:  Borehole Salinity Option
CSID .IN              6.184:  Casing Inner Diameter
CSIZ .IN                  7:  Current Casing Size
CWEI .LB/F               29:  Casing Weight
MATR .                 SAND:  Rock Matrix for Neutron Porosity Corrections
RUN  .                    4:  RUN NUMBER
PROJECT.     SLEIPNER_OST@st-vlinapp01:  
SET  .       RSTD_0912_SIG1:  
~Other Information Block
~Ascii Log Data
# ...
    3416.35080 
    30327.2988        -0.0527        -0.0527         2.3193     0.75760001 
      -4.41580        55.7026         0.6031        81.7029        37.8014 
    0.31990001       354.3561         9.8679         9.8200        15.7636 
       32.7100        14.2738     0.22300000      5042.4805        71.7330
    3416.50320 
    30133.4004        -0.0527        -0.0527         2.4180     0.77179998 
      -4.39510        55.7026         0.5244        81.1874        37.8014 
    0.31720001       354.3561        10.3956        10.2607        16.3010 
       32.6413        14.2718     0.22270000      5042.4805        71.7330
    3416.65560 
    30206.8008        -0.0527        -0.0527         2.5096     0.77539998 
      -4.38570        55.7026         0.3981        82.8397        37.8014 
    0.31590000       354.3561        10.8939        10.5870        16.1937 
       32.6673        14.3570     0.22210000      5042.4805        71.7330
    3416.80800 
    30877.4004        -0.0527        -0.0527         2.4181     0.77550000 
      -4.42880        55.7026         0.2730        85.6174        37.8014 
    0.31590000       354.3561        10.0882        10.4620        16.0188 
       32.9052        14.3198     0.22310001      5042.4805        71.7330
    3416.96040 
    30932.9004        -0.0527        -0.0527         2.4337     0.78619999 
      -4.36450        55.7026         0.1928        83.9520        37.8014 
    0.31659999       354.3561        10.0199        10.0324        16.1904 
       32.9249        14.2409     0.22679999      5042.4805        71.7330
    3417.11280 
    30787.5000        -0.0527        -0.0527         2.5087     0.78340000 
      -4.38490        55.7026         0.1880        84.7416        37.8014 
    0.31600001       354.3561        10.0403         9.8235        15.9596 
       32.8733        14.1126     0.22700000      5042.4805        71.7330
    3417.26520 
    29475.5000        -0.0527        -0.0527         2.4507     0.79839998 
      -4.41230        55.7026        -0.0180        84.5983        37.8014 
    0.31700000       354.3561        10.1227        10.3933        15.6407 
       32.4081        14.0788     0.22790000      5042.4805        71.7330
    3417.41760 
    29428.3008        -0.0527        -0.0527         2.4867     0.79629999 
      -4.38240        55.7026         0.1057        82.7613        37.8014 
    0.32280001       354.3561        10.3961         9.8800        16.0957 
       32.3914        14.2481     0.22319999      5042.4805        71.7330
    3417.57000 
    27925.4004        -0.0527        -0.0527         2.3811     0.80170000 
      -4.35110        55.7026         0.1381        83.3959        37.8014 
    0.32519999       354.3561        10.0797        10.1297        16.4756 
       31.8594        14.4027     0.22090000      5042.4805        71.7330
    3417.72240 
    27181.0000        -0.0527        -0.0527         2.4094     0.78270000 
      -4.36540        55.7026         0.1235        82.8728        37.8014 
    0.32490000       354.3561        10.1246         9.8224        16.1085 
       31.5963        14.3807     0.21830000      5042.4805        71.7330
    3417.87480 
    26383.9004        -0.0527        -0.0527         2.4009     0.77550000 
      -4.38220        55.7026         0.1369        81.6330        37.8014 
    0.31990001       354.3561        10.3769        10.1387        16.0340 
       31.3148        14.3309     0.21940000      5042.4805        71.7330
    3418.02720 
    25302.5000        -0.0527        -0.0527         2.4137     0.77969998 
      -4.37410        55.7026         0.1357        84.5630        37.8014 
    0.31639999       354.3561        10.2251        10.3912        16.3310 
       30.9334        14.3211     0.22430000      5042.4805        71.7330
    3418.17960 
    26133.5000        -0.0527        -0.0527         2.4235     0.77920002 
      -4.40540        55.7026         0.1937        84.5367        37.8014 
    0.31140000       354.3561        10.2733        10.6662        16.0785 
       31.2265        14.3880     0.22660001      5042.4805        71.7330
    3418.33200 
    27500.6992        -0.0527        -0.0527         2.4171     0.77850002 
      -4.41050        55.7026         0.3223        84.4273        37.8014 
    0.31220001       354.3561        10.1110        10.2790        16.2432 
       31.7093        14.3203     0.22820000      5042.4805        71.7330
    3418.48440 
    28286.1992        -0.0527        -0.0527         2.4282     0.76050001 
      -4.36300        55.7026         0.2230        82.5678        37.8014 
    0.31520000       354.3561        10.3073        10.0427        16.1339 
       31.9870        14.4550     0.22059999      5042.4805        71.7330
    3418.63680 
    27091.5000        -0.0527        -0.0527         2.4056     0.78380001 
      -4.37800        55.7026         0.2167        80.9861        37.8014 
    0.31900001       354.3561        10.0979         9.9663        16.4797 
       31.5647        14.3830     0.21799999      5042.4805        71.7330
    3418.78920 
    30808.5000        -0.0527        -0.0527         2.4131     0.77429998 
      -4.39220        55.7026         0.3790        83.1385        37.8014 
    0.32210001       354.3561        10.1234        10.1007        16.0166 
       32.8808        14.3955     0.20819999      5042.4805        71.7330
    3418.94160 
    22751.1992        -0.0527        -0.0527         2.4093     0.76639998 
      -4.39750        55.7026         0.4969        83.5396        37.8014 
    0.32249999       354.3561        10.0063         9.6929        16.1773 
       30.0356        14.3250     0.19509999      5042.4805        71.7330
    3419.09400 
 -3773528.5000        -0.0527        -0.0527     -3718.3096 -3713.84960938 
      -4.38790        55.7026     -3713.1182        83.5396        37.8014 
-3712.64501953       354.3561     -3738.9321     -3738.0813     -3755.6836 
    -3793.3025     -3750.6553 -3712.29907227      5042.4805        71.7330
    3419.24640 
     -999.2500        -0.0527        -0.0527      -999.2500  -999.25000000 
      -4.36500        55.7026      -999.2500        83.5396        37.8014 
 -999.25000000       354.3561      -999.2500      -999.2500      -999.2500 
     -999.2500      -999.2500  -999.25000000      5042.4805        71.7330
    3419.39880 
     -999.2500        -0.0527        -0.0527      -999.2500  -999.25000000 
      -4.37260        55.7026      -999.2500        83.5396        37.8014 
 -999.25000000       354.3561      -999.2500      -999.2500      -999.2500 
     -999.2500      -999.2500  -999.25000000      5042.4805        71.7330
    3419.55120 
     -999.2500        -0.0527        -0.0527      -999.2500  -999.25000000 
      -4.37330        55.7026      -999.2500        83.5396        37.8014 
 -999.25000000       354.3561      -999.2500      -999.2500      -999.2500 
     -999.2500      -999.2500  -999.25000000      5042.4805        71.7330
    3419.70360 
     -999.2500        -0.0527        -0.0527      -999.2500  -999.25000000 
      -4.40600        55.7026      -999.2500        83.5396        37.8014 
 -999.25000000       354.3561      -999.2500      -999.2500      -999.2500 
     -999.2500      -999.2500  -999.25000000      5042.4805        71.7330
    3419.85600 
     -999.2500        -0.0527        -0.0527      -999.2500  -999.25000000 
      -4.40410        55.7026      -999.2500        83.5396        37.8014 
 -999.25000000       354.3561      -999.2500      -999.2500      -999.2500 
     -999.2500      -999.2500  -999.25000000      5042.4805        71.7330
    3420.00840 
     -999.2500        -0.0527        -0.0527      -999.2500  -999.25000000 
      -4.39150        55.7026      -999.2500        83.5396        37.8014 
 -999.25000000       354.3561      -999.2500      -999.2500      -999.2500 
     -999.2500      -999.2500  -999.25000000      5042.4805        71.7330
    3420.16080 
     -999.2500        -0.0527        -0.0527      -999.2500  -999.25000000 
      -4.37790        55.7026      -999.2500        83.5396        37.8014 
 -999.25000000       354.3561      -999.2500      -999.2500      -999.2500 
     -999.2500      -999.2500  -999.25000000      5042.4805        71.7330
