~Version Information Block
VERS .                 2.00:  CWLS LOG ASCII STANDARD - VERSION 2.00
WRAP .                   NO:  One line per depth step
~Well Information Block
#MNEM.UNIT        Data Type   Information
#---------- ----------------  -----------
STRT .M          3460.08960:  START DEPTH
STOP .M          3530.04120:  STOP DEPTH
STEP .M             0.15240:  STEP
NULL .              -999.25:  NULL VALUE
COMP .              Statoil:  COMPANY
WELL .          NO_15/9-F-5:  WELL
FLD  .                Volve:  FIELD
LOC  .                Volve:  LOCATION
CTRY .               Norway:  COUNTRY
STAT .                     :  STATE
CNTY .                     :  COUNTY
SRVC .         Schlumberger:  SERVICE COMPANY
DATE .           11/04/2015:  DATE
API  .                     :  API NUMBER
UWI  .             15/9-F-5:  UNIQUE WELL ID
LATI .     58° 26' 29.66" N:  LATITUDE
LONG .      1° 53' 14.99" E:  LONGITUDE
~Curve Information Block
#MNEM.UNIT         API CODE   Curve Description
#---------- ----------------  -----------------
DEPTH.M                    :  Depth Index
CCLC .V                    :  (PSTP-B)                (1in)                   CCL Computed Amplitude
CVEL .M/SEC                 :  (WLWorkflow)            (1in)                   Cable Velocity
FBEF .UA                   :  (RST-D)                 (6in)                   Far Effective Beam Curre
FCOR .                     :  (RST-D)                 (6in)                   Far Carbon/Oxygen Ratio
FERD .                     :  (RST-D)                 (6in)                   Far IC Mode Capture Opti
FIRD .                     :  (RST-D)                 (6in)                   Far Inelastic Optimizati
GR   .GAPI                 :  (PSTP-B)                (6in)                   Gamma Ray
NCOR .                     :  (RST-D)                 (6in)                   Near Carbon/Oxygen Ratio
NERD .                     :  (RST-D)                 (6in)                   Near IC Mode Capture Opt
NIRD .                     :  (RST-D)                 (6in)                   Near Inelastic Optimizat
RB_PCMS.DEG                  :  (PCMS-A)                (6in)                   Relative Bearing
TENS .LBF                  :  (WLWorkflow)            (1in)                   Cable Tension
WPRE .BAR                  :  (PSTP-B)                (6in)                   Well Pressure
WTEP .DEGC                 :  (PSTP-B)                (6in)                   Well Temperature
~Parameter Information Block
#MNEM.UNIT            Value   Description
#---------- ----------------  -----------
APD  .M                  54:  Elevation of Depth Reference (LMF) Above Permanent Datum
CLAB .              Country:  :County Label
ECF  .M             -999.25:  Elevation of Casing Flange above Permanent Datum
EDF  .M                  54:  Elevation of Drill Floor Above Permanent Datum
EGL  .M                 -91:  Elevation of Ground Level Above Permanent Datum
EKB  .M             -999.25:  Elevation of Kelly Bushing Above Permanent Datum
EPD  .M                   0:  Elevation of Permanent Datum (PDAT) above Mean Sea Level
FL1  .            North Sea:  Field Location Line 1
FL2  .     Norwegian Sector:  Field Location Line 2
LMF  .                   DF:  Logging Measured From
LUL  .                 NOBO:  Logging Unit Location
LUN  .          ONCC-A 3837:  Logging Unit Number
PDAT .                  MSL:  Local Permanent Datum
RIGN .      Maersk Inspirer:  Rig Name
RIGTYP.               Jackup:  Rig Type
SON  .           C2TQ-00038:  Service Order Number
TAPE_NAME.     RST_IC_Pass_4___04Nov15_021221.las:  
TOOL_STRING.              UNKNOWN:  
WN   .             15/9-F-5:  WELL NAME
PROJECT.     SLEIPNER_OST@st-vlinapp01:  
SET  .        RSTD_1115_IC4:  
~Other Information Block
# 
~A       DEPTH           CCLC           CVEL           FBEF           FCOR           FERD           FIRD             GR           NCOR           NERD           NIRD        RB_PCMS           TENS           WPRE           WTEP 
# ...
    3476.54880      -0.005560    -0.00920033       120.3759       0.146180         5.9038         5.9038       110.9158       0.042500         4.3372         4.3372       352.8459      4037.0740       358.2218        85.0702
    3476.70120      -0.003930    -0.00941700       122.2620      -0.047620         5.9006         5.9006       111.0322       0.014090         4.3117         4.3117       352.8346      3942.0720       358.2374        85.0748
    3476.85360       0.004330    -0.00930217       123.6537       0.032640         6.0701         6.0701       109.8087       0.040690         4.3431         4.3431       352.8292      4019.5142       358.2461        85.0746
    3477.00600      -0.014320    -0.00935517       122.7076       0.064640         5.9296         5.9296       110.9799       0.023370         4.3036         4.3036       352.7938      3938.0728       358.2573        85.0795
    3477.15840       0.015660    -0.00916283       121.9147       0.044480         6.0280         6.0280       116.0283       0.000690         4.3024         4.3024       352.6633      4011.7134       358.2675        85.0871
    3477.31080       0.025460    -0.00926217       121.3369      -0.135370         6.1092         6.1092       119.7462      -0.032140         4.2821         4.2821       352.5538      4000.7561       358.2774        85.0893
    3477.46320      -0.052410    -0.00916267       121.9589      -0.033900         5.9707         5.9707       120.3586       0.076400         4.2442         4.2442       352.7298      3953.3821       358.2890        85.0954
    3477.61560      -0.004370    -0.00926233       122.1984       0.146710         5.9806         5.9806       120.7642      -0.005020         4.1914         4.1914       352.8703      3952.2917       358.3021        85.0961
    3477.76800      -0.015260    -0.00944400       122.7282      -0.012160         5.9382         5.9382       120.0704      -0.000110         4.2192         4.2192       352.8164      3954.5129       358.3120        85.0938
    3477.92040      -0.005190    -0.00916233       122.8444      -0.005340         5.9736         5.9736       120.9088       0.012590         4.1698         4.1698       352.8062      3908.4519       358.3218        85.0990
    3478.07280      -0.038770    -0.00919283       123.6319       0.153620         5.9729         5.9729       121.7345       0.049520         4.1760         4.1760       352.6891      3935.9280       358.3343        85.1025
    3478.22520      -0.005000    -0.00918583       123.4572       0.092850         6.0785         6.0785       120.4549       0.089860         4.1276         4.1276       352.9085      3965.7915       358.3466        85.1105
    3478.37760      -0.004350    -0.00910217       125.1319       0.140650         5.9291         5.9291       123.1619      -0.019700         4.1416         4.1416       353.0705      3995.4058       358.3581        85.1140
    3478.53000      -0.001510    -0.00907150       126.0094       0.041180         6.0420         6.0420       126.4745       0.011620         4.1568         4.1568       353.3148      4073.5471       358.3677        85.1158
    3478.68240       0.016990    -0.00933500       126.3523       0.013270         6.0443         6.0443       123.7898      -0.045810         4.1932         4.1932       353.1920      3927.0999       358.3795        85.1153
    3478.83480      -0.000780    -0.00932350       125.4136      -0.039410         5.9783         5.9783       121.0231      -0.036570         4.1749         4.1749       353.2376      3911.5610       358.3890        85.1195
    3478.98720       0.051510    -0.00913833       125.5752       0.027990         5.9150         5.9150       119.3805      -0.010090         4.1412         4.1412       353.3105      4030.4871       358.4004        85.1189
    3479.13960      -0.011090    -0.00933517       126.1089       0.002330         6.0160         6.0160       118.7453       0.047750         4.1575         4.1575       353.4839      3885.3010       358.4124        85.1191
    3479.29200      -0.045430    -0.00900333       125.8593       0.165190         6.0682         6.0682       114.9946       0.146440         4.1658         4.1658       353.4039      3969.7100       358.4221        85.1205
    3479.44440      -0.001920    -0.00929133       124.5824       0.232550         6.0726         6.0726       115.0454       0.027080         4.1797         4.1797       353.1628      4004.6050       358.4354        85.1245
    3479.59680       0.003120    -0.00916933       125.0312       0.144530         6.1446         6.1446       115.9041       0.004320         4.2230         4.2230       353.0604      4078.8772       358.4454        85.1249
    3479.74920       0.008370    -0.00947917       125.2455       0.043260         6.1526         6.1526       119.0734       0.092510         4.2288         4.2288       353.3863      4099.2920       358.4565        85.1219
    3479.90160       0.023440    -0.00925333       126.0833       0.057430         6.1160         6.1160       117.3999       0.050920         4.2369         4.2369       353.4110      4069.2375       358.4659        85.1275
    3480.05400       0.014690    -0.00920033       126.1004       0.220880         6.1068         6.1068       118.3164       0.054880         4.2280         4.2280       353.1249      3974.8289       358.4792        85.1293
    3480.20640       0.010700    -0.00921600       124.9962       0.084220         6.0044         6.0044       120.7071       0.007480         4.2396         4.2396       352.7012      4071.0247       358.4908        85.1304
    3480.35880       0.011690    -0.00938600       126.1232       0.016070         6.0031         6.0031       121.4696       0.081410         4.1445         4.1445       352.5476      3958.3909       358.4986        85.1301
    3480.51120      -0.021950    -0.00927167       129.4711       0.118890         5.9302         5.9302       124.1368       0.006520         4.1270         4.1270       352.4106      3946.7256       358.5129        85.1276
    3480.66360      -0.006510    -0.00919300       130.0870      -0.087410         5.9072         5.9072       126.7754       0.027830         4.1191         4.1191       352.3134      3992.9531       358.5220        85.1266
    3480.81600      -0.006640    -0.00934400       130.1062      -0.067840         5.8269         5.8269       126.2687       0.108860         4.0876         4.0876       352.2357      3974.5728       358.5355        85.1270
    3480.96840      -0.005010    -0.00919283       126.2391       0.127770         5.9046         5.9046       124.5457       0.088430         4.0476         4.0476       352.2014      4006.7607       358.5463        85.1286
    3481.12080      -0.004850    -0.00947917       124.2245      -0.015730         5.8491         5.8491       122.7576      -0.044740         4.0843         4.0843       352.2693      3883.8533       358.5566        85.1284
    3481.27320      -0.005250    -0.00932400       123.0329       0.065130         5.8357         5.8357       119.2218       0.008060         4.0652         4.0652       352.3406      3989.0234       358.5682        85.1275
    3481.42560      -0.006370    -0.00910217       124.0503       0.113440         5.9258         5.9258       117.2715       0.022740         4.0803         4.0803       352.3889      4078.1667       358.5779        85.1230
    3481.57800      -0.005850    -0.00921550       123.9036       0.068110         5.9454         5.9454       118.7797       0.079800         4.0367         4.0367       352.3076      4016.2319       358.5902        85.1202
    3481.73040      -0.005100    -0.00928367       123.2551      -0.013960         5.8847         5.8847       114.0770       0.109620         4.0230         4.0230       352.1230      3950.5000       358.6025        85.1217
    3481.88280      -0.009590    -0.00941683       124.0143       0.067470         5.9589         5.9589       114.4074       0.054700         4.0177         4.0177       352.1576      3970.0247       358.6111        85.1163
