~Version Information Block
VERS .                 2.00:  CWLS LOG ASCII STANDARD - VERSION 2.00
WRAP .                  YES:  Multiple lines per depth step
~Well Information Block
#MNEM.UNIT        Data Type   Information
#---------- ----------------  -----------
STRT .M          3450.03120:  START DEPTH
STOP .M          3948.83640:  STOP DEPTH
STEP .M             0.15240:  STEP
NULL .              -999.25:  NULL VALUE
COMP .              Statoil:  COMPANY
WELL .        NO_15/9-F-1_C:  WELL
FLD  .                Volve:  FIELD
LOC  .            North Sea:  LOCATION
CTRY .               Norway:  COUNTRY
STAT .                     :  STATE
CNTY .                     :  COUNTY
SRVC .         Schlumberger:  SERVICE COMPANY
DATE .          27-Nov-2014:  DATE
API  .                     :  API NUMBER
UWI  .           15/9-F-1 C:  UNIQUE WELL ID
LATI .     58° 26' 29.91" N:  LATITUDE
LONG .      1° 53' 14.71" E:  LONGITUDE
~Curve Information Block
#MNEM.UNIT         API CODE   Curve Description
#---------- ----------------  -----------------
DEPTH.M                    :  DEPTH (BOREHOLE)
BSAL .PPM                  :  Borehole Salinity
CCLC .V                    :  CCL
CIRF .                     :  RST Capture to Inelastic Ratio Far
CIRN .                     :  RST Capture to Inelastic Ratio Near
CVEL .M/SEC                 :  Cable Velocity
DFRB .DEG                  :  Calibrated Relative Bearing
DSIG .CU                   :  Sigma Difference
FBEF .UA                   :  RST Far Effective Beam Current
GR   .GAPI                 :  Gamma Ray
IRAT .                     :  RST Inelastic Ratio
PFC1 .IN                   :  PFCS CaliperX
PFC2 .IN                   :  PFCS CaliperY
RSCF .                     :  RST Far Detector Effective Unregulated
RSCN .                     :  RST Near Detector Effective
SFFA .CU                   :  RST Sigma Formation Far Apparent
SIBF .CU                   :  RST Sigma Borehole Fluid
SIGM .CU                   :  Formation Sigma (Neutron Capture Cross
TENS .LBF                  :  Cable Tension
TPHI .V/V                  :  Thermal Decay Porosity
~Parameter Information Block
#MNEM.UNIT            Value   Description
#---------- ----------------  -----------
APD  .M           54.900002:  Elevation of Depth Reference (LMF) above Permanent Datum
BHS  .                 CASE:  Borehole Status (Open or Cased Hole)
BS   .IN                8.5:  Bit Size
BSAL .PPM                 0:  Borehole Salinity
BSALOPT.              UNKNOWN:  Borehole Salinity Option
CSIZ .IN                  7:  Current Casing Size
CWEI .LB/F               29:  Casing Weight
EPD  .C3                  0:  Elevation of Permanent Datum above Mean Sea Level
LMF  .                   KB:  Logging Measured From (Name of Logging Elevation Reference)
MATR .                 SAND:  Rock Matrix for Neutron Porosity Corrections
PDAT .                  MSL:  Permanent Datum
RUN  .                Run 1:  RUN NUMBER
TAPE_NAME.     Statoil_Volve_15-9-F-1 C_PLT-RST_28Nov14_ConCu_R1L16Up_SigmaMain.las:  
TOOL_STRING.              UNKNOWN:  
WN   .           15/9-F-1 C:  WELL
PROJECT.     SLEIPNER_OST@st-vlinapp01:  
SET  .       RSTD_1114_SIG1:  
~Other Information Block
~Ascii Log Data
# ...
    3577.59000 
    26791.7988        -0.0090         1.6126         0.6692      -0.167215 
      356.9830         0.5275        78.4851        41.0191     0.35130000 
        6.2219         6.0510         7.2519         8.0752        25.7142 
       31.4589        22.5005      4377.7144     0.26730001
    3577.74240 
    26160.0000        -0.0053         1.6927         0.6934      -0.167473 
      356.9830         0.4994        84.6323        39.3642     0.34509999 
        6.2152         6.0487         7.1789         8.7314        23.1304 
       31.2358        21.7787      4328.1538     0.26199999
    3577.89480 
    25948.5000         0.0312         1.8876         0.7474      -0.167348 
      356.9830         0.5363        84.0801        37.8931     0.34189999 
        6.2197         6.0487         7.7799         8.7718        22.3899 
       31.1612        20.9690      4186.0000     0.25709999
    3578.04720 
    25799.4004        -0.0484         1.8839         0.7452      -0.167817 
      356.9830         0.3567        85.9406        36.6060     0.34180000 
        6.2219         6.0485         7.4958         8.6231        23.2705 
       31.1086        20.9221      4070.6428     0.25380000
    3578.19960 
    24859.6992        -0.0058         1.8846         0.7236      -0.168410 
      356.9830         0.1908        87.8673        37.6951     0.34160000 
        6.2219         6.0441         7.5960         8.9975        22.9234 
       30.7774        20.6555      4205.4614     0.25250000
    3578.35200 
    24701.5996        -0.0014         1.8495         0.7393      -0.168257 
      356.9830         0.1523        82.5085        38.0629     0.34200001 
        6.2219         6.0441         7.7435         8.7507        21.5362 
       30.7217        20.4984      4358.1426     0.25319999
    3578.50440 
    25081.5996        -0.0065         1.8176         0.7261      -0.167765 
      356.9830         0.3365        81.3501        36.7757     0.34509999 
        6.2219         6.0464         7.8225         8.8647        22.7738 
       30.8556        20.3946      4615.5386     0.25680000
    3578.65680 
    25785.6992        -0.0077         1.9726         0.7558      -0.167098 
      356.9830         0.2969        85.8727        38.5296     0.34840000 
        6.2197         6.0417         7.8875         8.9093        22.6142 
       31.1038        21.0597      4532.3574     0.25139999
    3578.80920 
    25844.2988         0.0161         1.7567         0.7695      -0.166097 
      356.9830        -0.1266        82.5373        37.0586     0.34430000 
        6.2219         6.0394         7.2759         9.2121        23.5190 
       31.1245        21.1652      4471.3574     0.25189999
    3578.96160 
    25757.6992         0.0347         1.9421         0.7368      -0.165283 
      356.9830        -0.3425        85.1983        35.4037     0.34950000 
        6.2152         6.0464         7.8584         8.7226        23.0425 
       31.0939        21.0909      4386.4614     0.24150001
    3579.11400 
    26033.3008         0.0199         1.8523         0.7484      -0.165107 
      356.9830        -0.6580        75.6293        36.1392     0.34660000 
        6.2050         6.0510         8.5388         8.9160        22.3501 
       31.1911        20.4206      4353.0000     0.23720001
    3579.26640 
    26360.3984        -0.0429         2.0859         0.7771      -0.165567 
      356.9830        -0.8681        81.9047        38.7135     0.35100001 
        6.2197         6.0533         8.9952         9.5435        21.4710 
       31.3065        19.3646      4261.9287     0.24420001
    3579.41880 
    26523.7012        -0.0200         1.9847         0.7821      -0.165663 
      356.9830        -1.1637        81.3236        39.3500     0.34540001 
        6.2219         6.0579         8.6490         9.6047        19.8521 
       31.3642        18.5849      4163.6431     0.25920001
    3579.57120 
    26062.2988        -0.0059         1.9461         0.8025      -0.166138 
      356.9830        -1.3583        79.5368        40.2694     0.35130000 
        6.2219         6.0510         8.7115         9.8002        20.0225 
       31.2014        18.2414      4102.2861     0.27280000
    3579.72360 
    26343.3984        -0.0170         1.9350         0.7865      -0.166270 
      356.9830        -1.2747        80.4065        39.4490     0.35420001 
        6.2219         6.0510         8.6662         9.9491        20.4414 
       31.3006        18.1618      4289.2856     0.27829999
    3579.87600 
    27546.1016         0.0360         2.0010         0.8212      -0.166650 
      355.5720        -1.0758        81.0500        37.9780     0.35940000 
        6.2219         6.0510         8.6067         9.8107        19.6295 
       31.7253        18.0798      4430.0771     0.28290001
    3580.02840 
    27727.3008        -0.0033         1.9513         0.8498      -0.166970 
      355.5720        -1.1422        77.9005        34.6682     0.35740000 
        6.2219         6.0510         8.6594         9.9751        19.7831 
       31.7894        18.1915      4457.4287     0.27530000
    3580.18080 
    27253.9004         0.0569         2.0074         0.8052      -0.166933 
      355.5720        -1.2670        75.1627        29.5196     0.36370000 
        6.2219         6.0510         9.5461        10.1435        20.7754 
       31.6221        18.0388      4424.6431     0.25209999
    3580.33320 
    27041.7988         0.0350         2.0684         0.7944      -0.165703 
      355.5720        -1.4222        73.2988        26.0259     0.35499999 
        6.2219         6.0510         9.8911         9.7786        19.1661 
       31.5472        17.0491      4333.9229     0.22340000
    3580.48560 
    26425.5996         0.0724         2.7212         0.8402      -0.164738 
      355.5720        -1.3642        78.6604        24.2720     0.35920000 
        6.2219         6.0510        12.1407        10.6123        16.7954 
       31.3296        15.2983      4281.6431     0.19890000
    3580.63800 
    27378.9004        -0.0169         2.6519         0.9387      -0.165197 
      355.5720        -1.3248        77.9332        22.9848     0.36219999 
        6.2331         6.0510        12.1801        11.6539        15.5105 
       31.6662        14.5243      4197.2856     0.18810000
    3580.79040 
    27488.0996        -0.0083         2.5183         0.9314      -0.166667 
      355.5720        -1.0218        78.6609        22.0937     0.37290001 
        6.2533         6.0510        10.8616        10.6020        16.8315 
       31.7048        14.6275      4102.7144     0.18130000
    3580.94280 
    28091.4004        -0.0046         2.5854         0.9193      -0.166498 
      356.9830        -0.9934        79.8358        22.0937     0.36680001 
        6.2533         6.0695        10.9278        10.4297        17.1100 
       31.9181        14.7141      4122.3569     0.18120000
    3581.09520 
    29305.5000         0.0702         2.6223         0.8726      -0.166113 
      355.5720        -0.9033        82.9320        23.7486     0.36690000 
        6.2533         6.0510        11.0702        10.3994        15.7664 
       32.3479        14.5885      4360.1543     0.17590000
    3581.24760 
    29620.3008        -0.0682         2.5184         0.8641      -0.165977 
      355.5720        -0.8600        75.7102        24.3003     0.36860001 
        6.2533         6.0510        11.6184        10.2529        16.4188 
       32.4594        14.4913      4518.5000     0.17209999
    3581.40000 
    30220.5000        -0.0196         2.5765         0.9179      -0.166443 
      355.5720        -1.0827        76.3885        23.5223     0.37009999 
        6.2533         6.0510        11.3120        10.2680        16.7971 
       32.6722        14.4422      4569.5000     0.17500000
    3581.55240 
    31718.7988        -0.0105         2.6310         0.8855      -0.166985 
      354.1610        -1.1670        80.4294        25.8844     0.36690000 
        6.2533         6.0510        11.2630        10.5456        15.6043 
       33.2039        14.5139      4494.4287     0.18200000
