~Version Information Block
VERS .                 2.00:  CWLS LOG ASCII STANDARD - VERSION 2.00
WRAP .                   NO:  One line per depth step
~Well Information Block
#MNEM.UNIT        Data Type   Information
#---------- ----------------  -----------
STRT .M          3461.15640:  START DEPTH
STOP .M          3535.07040:  STOP DEPTH
STEP .M             0.15240:  STEP
NULL .              -999.25:  NULL VALUE
COMP .              Statoil:  COMPANY
WELL .          NO_15/9-F-5:  WELL
FLD  .                Volve:  FIELD
LOC  .                Volve:  LOCATION
CTRY .               Norway:  COUNTRY
STAT .                     :  STATE
CNTY .                     :  COUNTY
SRVC .         Schlumberger:  SERVICE COMPANY
DATE .          03-Nov-2015:  DATE
API  .                     :  API NUMBER
UWI  .             15/9-F-5:  UNIQUE WELL ID
LATI .     58° 26' 29.66" N:  LATITUDE
LONG .      1° 53' 14.99" E:  LONGITUDE
~Curve Information Block
#MNEM.UNIT         API CODE   Curve Description
#---------- ----------------  -----------------
DEPTH.M                    :  DEPTH (BOREHOLE)
CRRA .                     :  Near/Far Count Rate Ratio
CVEL .M/SEC                 :  Cable Velocity
FBEF .UA                   :  Far Effective Beam Current
FCOR .                     :  Far Carbon/Oxygen Ratio
FIRD .                     :  Far Inelastic Optimization Resolution Degradation Factor
NCOR .                     :  Near Carbon/Oxygen Ratio
NIRD .                     :  Near Inelastic Optimization Resolution Degradation Factor
RB_PCMS.DEG                  :  Relative Bearing
WPRE .BAR                  :  Well Pressure
WTEP .DEGC                 :  Well Temperature
~Parameter Information Block
#MNEM.UNIT            Value   Description
#---------- ----------------  -----------
APD  .M                  54:  Elevation of Depth Reference (LMF) above Permanent Datum
EPD  .C3                  0:  Elevation of Permanent Datum above Mean Sea Level
LMF  .                   DF:  Logging Measured From (Name of Logging Elevation Reference)
PDAT .                  MSL:  Permanent Datum
RUN  .                Run 1:  RUN NUMBER
TAPE_NAME.     ConCu_R02_L004Up_RST_PCMS_PSTP.las:  
TOOL_STRING.              UNKNOWN:  
WN   .             15/9-F-5:  WELL
PROJECT.     SLEIPNER_OST@st-vlinapp01:  
SET  .        RSTD_1115_IC1:  
~Other Information Block
# 
~A       DEPTH           CRRA           CVEL           FBEF           FCOR           FIRD           NCOR           NIRD        RB_PCMS           WPRE           WTEP 
# ...
    3513.42960         3.1014     -0.0099517       138.3227     0.12500000         5.5646    -0.00470000         4.0906       353.0814       363.0487        82.0324
    3513.58200         3.0460     -0.0099717       138.8217     0.08850000         5.4823     0.03810000         4.1240       353.1806       363.0576        82.0211
    3513.73440         3.0537     -0.0100167       138.3753     0.02790000         5.6552     0.08120000         4.0998       353.1469       363.0716        82.0205
    3513.88680         3.0573     -0.0099750       137.1808     0.11080000         5.8295     0.02150000         4.1096       352.9657       363.0810        82.0090
    3514.03920         3.0335     -0.0099733       138.5305    -0.01560000         5.8858    -0.01170000         4.1408       353.2959       363.0927        81.9969
    3514.19160         3.0563     -0.0099733       138.3602     0.09920000         5.7329     0.01920000         4.1549       353.6432       363.1053        81.9928
    3514.34400         3.0586     -0.0099283       138.6696    -0.03710000         5.8013    -0.05390000         4.1344       353.9683       363.1179        81.9846
    3514.49640         3.0589     -0.0099517       139.2223    -0.11260000         5.6687    -0.02620000         4.1509       354.4711       363.1285        81.9766
    3514.64880         3.0766     -0.0099717       141.0445     0.05530000         5.8159    -0.03640000         4.0842       354.7702       363.1404        81.9692
    3514.80120         3.1562     -0.0099133       142.4346     0.02180000         5.7518    -0.01950000         4.0698       354.8490       363.1504        81.9665
    3514.95360         3.1655     -0.0099333       143.2089     0.07280000         5.7356     0.03980000         4.0022       354.8313       363.1631        81.9626
    3515.10600         3.1716     -0.0100167       143.7941    -0.04550000         5.7213     0.08850000         3.9888       354.7477       363.1732        81.9545
    3515.25840         3.1877     -0.0099967       144.6827     0.12520000         5.6133    -0.04560000         4.0342       354.6698       363.1855        81.9527
    3515.41080         3.1764     -0.0099400       143.8564     0.06140000         5.7238     0.08110000         4.0300       354.6054       363.1951        81.9472
    3515.56320         3.1777     -0.0099283       144.9421     0.00130000         5.7519     0.01640000         3.9965       354.6755       363.2087        81.9409
    3515.71560         3.1743     -0.0099883       143.7128     0.04170000         5.8257     0.05790000         4.0165       354.6353       363.2187        81.9328
    3515.86800         3.1586     -0.0100067       146.0253     0.07400000         5.9523    -0.03580000         3.9688       354.7671       363.2307        81.9238
    3516.02040         3.2009     -0.0099983       142.8595     0.09220000         5.9871     0.00320000         3.9577       354.6691       363.2423        81.9210
    3516.17280         3.1401     -0.0099450       138.8887     0.14049999         5.9503     0.06770000         3.9528       354.5086       363.2521        81.9093
    3516.32520         3.0523     -0.0099617       137.8256    -0.03200000         5.9381     0.06660000         3.9369       354.3382       363.2661        81.8992
    3516.47760         3.0195     -0.0098067       140.4730     0.13100000         5.9152     0.11970000         3.9242       354.0184       363.2777        81.8988
    3516.63000         3.1375     -0.0097783       143.8715    -0.17910001         5.8838     0.00050000         3.9499       353.9849       363.2885        81.8857
    3516.78240         3.2521     -0.0091600       144.6654    -0.01340000         5.8513     0.04300000         3.9514       354.1035       363.2998        81.8725
    3516.93480         3.2417     -0.0090117       141.1768    -0.05120000         5.7733     0.02810000         3.9850       354.1159       363.3098        81.8684
    3517.08720         3.0954     -0.0090767       135.7507     0.04110000         5.7419     0.12800001         3.9956       354.1801       363.3232        81.8505
    3517.23960         2.9655     -0.0092667       134.4099     0.03450000         5.8994     0.00320000         4.0381       354.1974       363.3348        81.8446
    3517.39200         2.9318     -0.0097600       135.0960     0.06710000         5.8837    -0.04260000         4.1139       354.4249       363.3434        81.8270
    3517.54440         2.9572     -0.0099083       135.5398     0.00470000         5.8818    -0.05950000         4.1348       354.4557       363.3575        81.8308
    3517.69680         2.9565     -0.0097950       136.5759     0.08980000         5.8501    -0.02040000         4.1655       354.2730       363.3660        81.7977
    3517.84920         2.9806     -0.0097700       137.1345     0.05500000         5.7630     0.08400000         4.1951       354.2907       363.3800        81.7826
    3518.00160         2.9962     -0.0097433       135.9009     0.12260000         5.6293    -0.02010000         4.1942       354.2848       363.3911        81.7795
    3518.15400         2.9639     -0.0097783       134.4628     0.04240000         5.7086     0.08940000         4.1919       354.2894       363.4008        81.7613
    3518.30640         2.9351     -0.0096983       134.0389    -0.06720000         5.6458    -0.11680000         4.2030       354.3170       363.4130        81.7589
    3518.45880         2.9302     -0.0095867       134.4258    -0.02810000         5.6974     0.07520000         4.2126       354.0857       363.4257        81.7521
    3518.61120         2.9328     -0.0093900       134.5421    -0.02920000         5.6509     0.02640000         4.2330       353.9985       363.4359        81.7356
    3518.76360         2.9295     -0.0086117       134.1133    -0.09020000         5.7218     0.09720000         4.1893       353.9548       363.4478        81.7231
    3518.91600         2.9095     -0.0082667       134.4944    -0.13470000         5.7255     0.07040000         4.2178       353.7794       363.4578        81.7189
    3519.06840         2.9056     -0.0081717       135.0615     0.10090000         5.5970    -0.01550000         4.1852       353.6270       363.4697        81.7115
    3519.22080         2.9283     -0.0090950       136.0740     0.06160000         5.4880     0.04480000         4.2422       353.7646       363.4818        81.7101
    3519.37320         2.9448     -0.0094233       135.0671    -0.17550001         5.4902    -0.08160000         4.2560       353.7355       363.4916        81.6890
    3519.52560         2.9315     -0.0093733       135.3390    -0.07360000         5.6642    -0.00080000         4.2640       353.8028       363.5044        81.6843
    3519.67800         2.9398     -0.0093633       136.4812    -0.06680000         5.6583    -0.07330000         4.3000       353.8699       363.5141        81.6710
    3519.83040         2.9600     -0.0092150       136.2624    -0.10570000         5.5305    -0.00960000         4.2844       353.8714       363.5271        81.6636
    3519.98280         2.9460     -0.0086250       136.4125     0.09460000         5.4840    -0.02520000         4.2687       353.9416       363.5362        81.6518
    3520.13520         2.9492     -0.0089967       136.2930    -0.12890001         5.3977     0.07410000         4.2932       353.9995       363.5513        81.6466
    3520.28760         2.9517     -0.0085367       135.8566    -0.12580000         5.4195    -0.02330000         4.2820       353.9977       363.5603        81.6341
    3520.44000         2.9425     -0.0080983       136.9214     0.04250000         5.4729     0.08550000         4.3081       354.1066       363.5724        81.6308
    3520.59240         2.9579     -0.0089950       136.0485     0.14250000         5.5208    -0.09140000         4.3110       354.2671       363.5831        81.6169
    3520.74480         2.9627     -0.0093600       135.8055    -0.10320000         5.4985     0.05120000         4.3022       354.3073       363.5939        81.6178
