~Version Information Block
VERS .                 2.00:  CWLS LOG ASCII STANDARD - VERSION 2.00
WRAP .                  YES:  Multiple lines per depth step
~Well Information Block
#MNEM.UNIT        Data Type   Information
#---------- ----------------  -----------
STRT .M          3513.58200:  START DEPTH
STOP .M          3649.06560:  STOP DEPTH
STEP .M             0.15240:  STEP
NULL .              -999.25:  NULL VALUE
COMP .              Statoil:  COMPANY
WELL .        NO_15/9-F-1_C:  WELL
FLD  .                Volve:  FIELD
LOC  .            North Sea:  LOCATION
CTRY .               Norway:  COUNTRY
STAT .                     :  STATE
CNTY .                     :  COUNTY
SRVC .         Schlumberger:  SERVICE COMPANY
DATE .          27-Nov-2014:  DATE
API  .                     :  API NUMBER
UWI  .           15/9-F-1 C:  UNIQUE WELL ID
LATI .     58° 26' 29.91" N:  LATITUDE
LONG .      1° 53' 14.71" E:  LONGITUDE
~Curve Information Block
#MNEM.UNIT         API CODE   Curve Description
#---------- ----------------  -----------------
DEPTH.M                    :  DEPTH (BOREHOLE)
BSAL .PPM                  :  Borehole Salinity
CCLC .V                    :  CCL
CIRF .                     :  RST Capture to Inelastic Ratio Far
CIRN .                     :  RST Capture to Inelastic Ratio Near
CVEL .M/SEC                 :  Cable Velocity
DFRB .DEG                  :  Calibrated Relative Bearing
DSIG .CU                   :  Sigma Difference
FBEF .UA                   :  RST Far Effective Beam Current
GR   .GAPI                 :  Gamma Ray
IRAT .                     :  RST Inelastic Ratio
PFC1 .IN                   :  PFCS CaliperX
PFC2 .IN                   :  PFCS CaliperY
RSCF .                     :  RST Far Detector Effective Unregulated
RSCN .                     :  RST Near Detector Effective
SFFA .CU                   :  RST Sigma Formation Far Apparent
SIBF .CU                   :  RST Sigma Borehole Fluid
SIGM .CU                   :  Formation Sigma (Neutron Capture Cross
TENS .LBF                  :  Cable Tension
TPHI .V/V                  :  Thermal Decay Porosity
~Parameter Information Block
#MNEM.UNIT            Value   Description
#---------- ----------------  -----------
APD  .M           54.900002:  Elevation of Depth Reference (LMF) above Permanent Datum
BHS  .                 CASE:  Borehole Status (Open or Cased Hole)
BS   .IN                8.5:  Bit Size
BSAL .PPM                 0:  Borehole Salinity
BSALOPT.              UNKNOWN:  Borehole Salinity Option
CSIZ .IN                  7:  Current Casing Size
CWEI .LB/F               29:  Casing Weight
EPD  .C3                  0:  Elevation of Permanent Datum above Mean Sea Level
LMF  .                   KB:  Logging Measured From (Name of Logging Elevation Reference)
MATR .                 SAND:  Rock Matrix for Neutron Porosity Corrections
PDAT .                  MSL:  Permanent Datum
RUN  .                Run 1:  RUN NUMBER
TAPE_NAME.     Statoil_Volve_15-9-F-1 C_PLT-RST_28Nov14_ConCu_R1L15Up_SigmaRepeat.las:  
TOOL_STRING.              UNKNOWN:  
WN   .           15/9-F-1 C:  WELL
PROJECT.     SLEIPNER_OST@st-vlinapp01:  
SET  .       RSTD_1114_SIG2:  
~Other Information Block
~Ascii Log Data
# ...
    3591.76320 
    71914.1016        -0.0135         1.8471       0.474500      -0.163317 
      354.1610         0.6815        88.4930        35.1085         0.3191 
        6.2129         6.1158         7.1333         5.6490        21.2208 
       47.8304        19.8084      4256.0005       0.131200
    3591.91560 
    71449.8984         0.0009         1.8560       0.463700      -0.164588 
      354.1610         0.3815        94.0266        35.8563         0.3145 
        6.2152         6.1158         6.8191         5.6455        22.2483 
       47.6575        19.5236      4410.0000       0.128100
    3592.06800 
    70934.7969         0.0010         1.8389       0.423500      -0.163973 
      354.1610         0.0650        88.8452        35.8563         0.3095 
        6.2152         6.1158         7.2080         5.2365        19.8842 
       47.4658        19.3692      4516.5005       0.129400
    3592.22040 
    70392.3047         0.0011         1.8507       0.455500      -0.162662 
      354.1610        -0.2587        90.8316        34.8634         0.3103 
        6.2085         6.1158         7.1373         5.6690        20.8055 
       47.2641        18.5304      4377.0005       0.154200
    3592.37280 
    70362.7031         0.0110         1.8160       0.500200      -0.162642 
      354.1610        -0.2452        89.5309        35.0595         0.3119 
        6.2177         6.1158         7.1415         6.2314        19.7551 
       47.2530        18.8166      4338.0000       0.180800
    3592.52520 
    69101.7969         0.1220         1.8370       0.534700      -0.162662 
      354.1610        -0.2747        90.7877        33.7724         0.3117 
        6.2219         6.1158         7.1468         6.7788        20.7319 
       46.7846        18.6670      4222.0000       0.206500
    3592.67760 
    68637.6016         0.1030         1.9269       0.538100      -0.161412 
      354.1610        -0.5411        94.2569        30.3400         0.3161 
        6.2197         6.1158         6.9212         6.2585        20.3504 
       46.6122        19.0125      4248.0005       0.209300
    3592.83000 
    68460.0000         0.0278         1.8325       0.555900      -0.162027 
      354.1610        -0.6806        87.4728        28.1334         0.3197 
        6.2174         6.1158         7.1136         6.6921        20.8046 
       46.5464        18.9439      4332.0005       0.206400
    3592.98240 
    67309.5000        -0.0024         1.8988       0.531800      -0.162642 
      354.1610        -1.1109        81.8004        27.1037         0.3280 
        6.2152         6.1158         8.0688         6.7145        20.5421 
       46.1198        18.9406      4635.3335       0.197900
    3593.13480 
    67236.5000        -0.0076         1.8977       0.590100      -0.163092 
      352.7500        -1.5833        83.6896        23.0584         0.3251 
        6.2197         6.1158         7.8077         7.2804        20.3410 
       46.0928        18.6915      4584.0000       0.200900
    3593.28720 
    65774.2031         0.0021         2.0002       0.578900      -0.163953 
      352.7500        -1.5031        84.1984        22.3351         0.3232 
        6.2174         6.1158         8.2098         7.0449        20.0426 
       45.5515        18.5804      4610.6670       0.199300
    3593.43960 
    65165.1016         0.0220         2.0438       0.592100      -0.163092 
      352.7500        -1.3211        89.3268        23.3648         0.3184 
        6.2177         6.1115         8.0721         7.4650        20.1919 
       45.3263        18.2516      4436.6670       0.200400
    3593.59200 
    64788.0039         0.0184         2.0723       0.570700      -0.162245 
      352.7500        -1.2640        88.1635        24.1249         0.3190 
        6.2107         6.0834         8.1197         7.0326        19.3380 
       45.1870        18.1549      4416.3335       0.193600
    3593.74440 
    65613.8984         0.0517         1.9920       0.566700      -0.162682 
      352.7500        -1.3165        86.4688        26.6992         0.3231 
        6.2152         6.0857         7.7360         6.5786        19.7044 
       45.4922        18.0246      4292.0000       0.190900
    3593.89680 
    65242.8984         0.0210         2.0065       0.590200      -0.162662 
      352.7500        -1.2556        87.8815        26.4295         0.3276 
        6.2107         6.0834         7.8647         7.0787        19.7800 
       45.3550        17.8651      4251.0000       0.188400
    3594.04920 
    65714.3047         0.0022         1.9814       0.563900      -0.162682 
      351.3390        -1.3926        86.1674        28.2560         0.3216 
        6.2174         6.0834         7.9533         6.8522        18.8376 
       45.5293        18.4372      4495.5000       0.180200
    3594.20160 
    64960.5039        -0.0027         2.1095       0.552100      -0.162702 
      352.7500        -1.4871        89.2152        30.1438         0.3181 
        6.2152         6.0834         8.2815         7.0422        21.4394 
       45.2507        18.8941      4515.5000       0.199200
    3594.35400 
    65559.0000        -0.0126         1.9808       0.549300      -0.162723 
      352.7500        -1.5397        89.4076        33.6130         0.3145 
        6.2017         6.0857         7.5631         6.6853        21.1591 
       45.4719        20.9569      4519.0000       0.209700
    3594.50640 
    65163.1016         0.0020         1.4424       0.530100      -0.162723 
      352.7500        -1.4097        84.1821        31.5903         0.3193 
        6.2152         6.0834         5.7787         6.3111        25.0862 
       45.3255        21.4754      4453.0000       0.239900
    3594.65880 
    64618.8984        -0.0204         1.4024       0.429700      -0.162702 
      352.7500        -0.9411        84.4848        34.1646         0.3201 
        6.1950         6.0834         5.6526         5.3112        23.0390 
       45.1245        22.8201      4361.5000       0.233100
    3594.81120 
    63725.3984        -0.0043         1.3507       0.450700      -0.163953 
      352.7500        -0.4933        82.0714        36.9228         0.3231 
        6.1905         6.0834         5.9577         6.2187        25.2595 
       44.7946        23.1487      4310.0000       0.232300
    3594.96360 
    63684.1016         0.0327         1.3119       0.419700      -0.163297 
      352.7500        -0.0887        87.1393        38.2958         0.3259 
        6.1905         6.0834         5.2106         5.1148        26.1066 
       44.7794        24.2066      4246.0000       0.217500
    3595.11600 
    64307.8984        -0.0017         1.3861       0.434100      -0.163297 
      354.1610         0.0960        86.4060        37.2293         0.3290 
        6.1905         6.0834         5.3905         5.0510        26.2344 
       45.0096        24.3577      4362.0000       0.207600
    3595.26840 
    64114.0000         0.0030         1.3069       0.435600      -0.162682 
      355.5720         0.0426        85.3277        40.3552         0.3271 
        6.1905         6.0834         5.1787         5.1790        25.7308 
       44.9380        23.6554      4502.0000       0.195700
    3595.42080 
    64507.6992        -0.0055         1.4619       0.432800      -0.161412 
      355.5720         0.1130        85.7848        38.9823         0.3263 
        6.1928         6.0834         5.9658         5.4793        24.0034 
       45.0834        22.6989      4512.0000       0.177300
    3595.57320 
    63828.8008         0.0039         1.4803       0.412000      -0.162662 
      355.5720         0.0312        85.3522        35.3047         0.3284 
        6.1905         6.0834         6.1016         5.1547        23.3480 
       44.8328        21.6080      4462.5000       0.161700
    3595.72560 
    63786.5977        -0.0196         1.4582       0.417000      -0.163092 
      355.5720        -0.1476        81.1630        33.3311         0.3318 
        6.1905         6.0834         6.2252         5.2097        22.4585 
       44.8172        21.4469      4424.3330       0.154800
