~Version Information Block
VERS .                 2.00:  CWLS LOG ASCII STANDARD - VERSION 2.00
WRAP .                   NO:  One line per depth step
~Well Information Block
#MNEM.UNIT        Data Type   Information
#---------- ----------------  -----------
STRT .M          3230.11800:  START DEPTH
STOP .M          3389.98560:  STOP DEPTH
STEP .M             0.15240:  STEP
NULL .              -999.25:  NULL VALUE
COMP .              Statoil:  COMPANY
WELL .          NO_15/9-F-4:  WELL
FLD  .                VOLVE:  FIELD
LOC  .            North Sea:  LOCATION
CTRY .                     :  COUNTRY
STAT .                     :  STATE
CNTY .                     :  COUNTY
SRVC .         Schlumberger:  SERVICE COMPANY
DATE .          13-Sep-2012:  DATE
API  .                     :  API NUMBER
UWI  .             15/9-F-4:  UNIQUE WELL ID
~Curve Information Block
#MNEM.UNIT         API CODE   Curve Description
#---------- ----------------  -----------------
DEPTH.M                    :  DEPTH (BOREHOLE)
CCLC .V                    :  CCL
CCLD .V                    :  CCL Discriminated Amplitude
CRRA .                     :  Near-Far Count Rate Ratio
CS   .F/MN                 :  Cable Speed
CVEL .M/MIN                 :  Cable Velocity
FBEF .UA                   :  RST Far Effective Beam Current
FCOR .                     :  RST Far Carbon/Oxygen Ratio
FERD .                     :  RST Far IC Mode Capture Optimization Resolution Degradation Factor
FIRD .                     :  RST Far Inelastic Optimization Resolution Degradation Factor
GR   .GAPI                 :  Gamma Ray
NCOR .                     :  RST Near Carbon/Oxygen Ratio
NERD .                     :  RST Near IC Mode Capture Optimization Resolution Degradation Factor
NIRD .                     :  RST Near Inelastic Optimization Resolution Degradation Factor
RB_PCMS.DEG                  :  Relative Bearing
TENS .LBF                  :  Cable Tension
WTEP .DEGC                 :  Well Temperature
WTPE .MS                   :  Well Temperature Period
~Parameter Information Block
#MNEM.UNIT            Value   Description
#---------- ----------------  -----------
APD  .M                  54:  Elevation of Depth Reference (LMF) above Permanent Datum
RUN  .                    1:  RUN NUMBER
PROJECT.     SLEIPNER_OST@st-vlinapp01:  
SET  .        RSTD_0912_IC3:  
~Other Information Block
# 
~A       DEPTH           CCLC           CCLD           CRRA             CS           CVEL           FBEF           FCOR           FERD           FIRD             GR           NCOR           NERD           NIRD        RB_PCMS           TENS           WTEP           WTPE 
# ...
    3271.26600        -0.0042         0.0000         2.8783         1.4039       -0.42790       110.5272         0.0047         5.2620         5.2620        51.1031      -0.032300         2.8615         2.8615       356.4700      2307.4673        96.2425         4.0261
    3271.41840        -0.0018         0.0000         2.8872         1.4058       -0.42850       110.4248        -0.0135         5.4414         5.4414        54.2067       0.114500         2.7786         2.7786       356.4870      2310.8660        96.2437         4.0261
    3271.57080         0.0015         0.0000         2.9137         1.3930       -0.42460       110.0761         0.0018         5.4572         5.4572        57.5504       0.132100         2.7390         2.7390       356.4652      2313.4597        96.2430         4.0261
    3271.72320        -0.0010         0.0000         2.9032         1.3740       -0.41880       109.8447         0.0591         5.3809         5.3809        59.7973      -0.014900         2.7124         2.7124       356.4883      2331.8350        96.2451         4.0261
    3271.87560        -0.0729         0.0000         2.8952         1.4219       -0.43340       109.9664         0.0758         5.2127         5.2127        59.6358       0.020500         2.7541         2.7541       356.5841      2310.1042        96.2463         4.0261
    3272.02800         0.0592         0.0000         2.8806         1.3707       -0.41780       108.6242        -0.0831         5.3921         5.3921        57.9108      -0.021000         2.7443         2.7443       356.6718      2317.4316        96.2463         4.0261
    3272.18040         0.0026         0.0000         2.8495         1.2900       -0.39320       108.7488         0.0655         5.2088         5.2088        55.6139       0.010100         2.7664         2.7664       356.5042      2327.5059        96.2470         4.0261
    3272.33280         0.0064         0.0000         2.8396         1.0915       -0.33270       109.3286         0.0438         5.1699         5.1699        52.3668      -0.022700         2.7129         2.7129       356.3931      2305.5457        96.2485         4.0261
    3272.48520         0.1647         0.0000         2.8440         2.1972       -0.66970       109.4663         0.0579         5.2964         5.2964        50.1707       0.021800         2.7024         2.7024       356.4049      2322.7708        96.2482         4.0261
    3272.63760         0.0036         0.0000         2.8474         2.1903       -0.66760       110.3407         0.0659         5.3131         5.3131        48.6597      -0.041400         2.6856         2.6856       356.4200      2309.1409        96.2489         4.0261
    3272.79000         0.0961         0.0000         2.8724         2.1759       -0.66320       110.4357         0.1305         5.2074         5.2074        47.8951      -0.061400         2.6416         2.6416       356.4412      2310.0486        96.2487         4.0261
    3272.94240         0.0018         0.0000         2.8747         2.1621       -0.65900       110.3143        -0.1960         5.3374         5.3374        46.3325      -0.066700         2.5915         2.5915       356.5766      2313.6682        96.2491         4.0261
    3273.09480        -0.0073         0.0000         2.8659         2.1391       -0.65200       110.2169        -0.2007         5.4286         5.4286        45.9296      -0.025500         2.6258         2.6258       356.4239      2295.3286        96.2511         4.0262
    3273.24720        -0.0502         0.0000         2.8708         2.0663       -0.62980       109.6301        -0.0498         5.3943         5.3943        45.3764      -0.002000         2.6483         2.6483       356.3848      2322.9124        96.2513         4.0262
    3273.39960        -0.0041         0.0000         2.8468         2.0394       -0.62160       110.0298         0.1488         5.5624         5.5624        45.0577      -0.017900         2.6531         2.6531       356.5009      2316.2534        96.2525         4.0262
    3273.55200        -0.0106         0.0000         2.8528         1.8668       -0.56900       111.1003        -0.0188         5.5057         5.5057        44.2821      -0.023300         2.6526         2.6526       356.6170      2317.2834        96.2533         4.0262
    3273.70440        -0.0025         0.0000         2.8823         1.8619       -0.56750       110.3421        -0.1210         5.6153         5.6153        45.3905       0.008900         2.6163         2.6163       356.7324      2317.5393        96.2534         4.0262
    3273.85680        -0.0062         0.0000         2.8586         1.8711       -0.57030       109.9963         0.0536         5.4383         5.4383        45.3981       0.048600         2.5924         2.5924       356.9601      2328.6970        96.2536         4.0262
    3274.00920        -0.0074         0.0000         2.8540         1.8540       -0.56510       110.4244        -0.0405         5.4410         5.4410        44.9018       0.008900         2.6158         2.6158       356.9186      2310.0205        96.2569         4.0262
    3274.16160        -0.2623         0.0000         2.8552         1.8212       -0.55510       111.0586        -0.0607         5.4524         5.4524        44.2151       0.019700         2.6158         2.6158       356.9212      2309.9309        96.2568         4.0262
    3274.31400        -0.0122         0.0000         2.8624         1.8068       -0.55070       110.4830        -0.0902         5.5891         5.5891        43.2748       0.035800         2.6457         2.6457       356.8170      2308.3201        96.2592         4.0262
    3274.46640        -0.0157         0.0000         2.8734         1.7946       -0.54700       109.0142         0.0373         5.6216         5.6216        42.6440       0.080200         2.6588         2.6588       357.2618      2306.0361        96.2602         4.0262
    3274.61880        -0.0172         0.0000         2.8249         1.7986       -0.54820       109.8566        -0.0361         5.7233         5.7233        43.1915       0.023000         2.5921         2.5921       357.4194      2311.4719        96.2616         4.0263
    3274.77120        -0.0047         0.0000         2.8489         1.8025       -0.54940       109.7066         0.0744         5.6561         5.6561        43.0092       0.002400         2.6104         2.6104       357.5261      2303.1199        96.2627         4.0263
    3274.92360        -0.0200         0.0000         2.8615         1.8130       -0.55260       110.0373        -0.1855         5.6144         5.6144        42.7613       0.011300         2.6390         2.6390       357.4739      2309.3025        96.2631         4.0263
    3275.07600        -0.0079         0.0000         2.8517         1.7956       -0.54730       109.9209        -0.0374         5.4574         5.4574        43.3892       0.015100         2.6767         2.6767       357.3981      2317.7439        96.2634         4.0263
    3275.22840         0.1628         0.0000         2.8713         1.7956       -0.54730       109.7871         0.0324         5.5926         5.5926        43.7989       0.010100         2.6365         2.6365       357.2959      2304.2432        96.2630         4.0263
    3275.38080        -0.0054         0.0000         2.8642         1.7648       -0.53790       109.6000         0.0299         5.6386         5.6386        43.3558      -0.000400         2.6299         2.6299       357.4293      2314.4080        96.2653         4.0263
    3275.53320        -0.0052         0.0000         2.8607         1.7546       -0.53480       108.8363        -0.0709         5.4385         5.4385        43.5246       0.015100         2.6731         2.6731       357.3751      2307.5391        96.2645         4.0263
    3275.68560        -0.0051         0.0000         2.8543         1.7516       -0.53390       110.1230         0.1045         5.3913         5.3913        43.9755      -0.067100         2.6583         2.6583       357.2461      2305.3503        96.2682         4.0263
