~Version Information Block
VERS .                 2.00:  CWLS LOG ASCII STANDARD - VERSION 2.00
WRAP .                   NO:  One line per depth step
~Well Information Block
#MNEM.UNIT        Data Type   Information
#---------- ----------------  -----------
STRT .M          3201.31440:  START DEPTH
STOP .M          3410.40720:  STOP DEPTH
STEP .M             0.15240:  STEP
NULL .              -999.25:  NULL VALUE
COMP .              Statoil:  COMPANY
WELL .          NO_15/9-F-4:  WELL
FLD  .                VOLVE:  FIELD
LOC  .            North Sea:  LOCATION
CTRY .                     :  COUNTRY
STAT .                     :  STATE
CNTY .                     :  COUNTY
SRVC .         Schlumberger:  SERVICE COMPANY
DATE .          13-Sep-2012:  DATE
API  .                     :  API NUMBER
UWI  .             15/9-F-4:  UNIQUE WELL ID
~Curve Information Block
#MNEM.UNIT         API CODE   Curve Description
#---------- ----------------  -----------------
DEPTH.M                    :  DEPTH (BOREHOLE)
CCLC .V                    :  CCL
CCLD .V                    :  CCL Discriminated Amplitude
CRRA .                     :  Near-Far Count Rate Ratio
CVEL .M/MIN                 :  Cable Velocity
DEVI .DEG                  :  Hole Deviation
FBEF .UA                   :  RST Far Effective Beam Current
FCOR .                     :  RST Far Carbon/Oxygen Ratio
FERD .                     :  RST Far IC Mode Capture Optimization Resolution Degradation Factor
FIRD .                     :  RST Far Inelastic Optimization Resolution Degradation Factor
GR   .GAPI                 :  Gamma Ray
NCOR .                     :  RST Near Carbon/Oxygen Ratio
NERD .                     :  RST Near IC Mode Capture Optimization Resolution Degradation Factor
NIRD .                     :  RST Near Inelastic Optimization Resolution Degradation Factor
RB_PCMS.DEG                  :  Relative Bearing
TENS .LBF                  :  Cable Tension
WPRE .PSI                  :  Well Pressure
WTEP .DEGC                 :  Well Temperature
WTPE .MS                   :  Well Temperature Period
~Parameter Information Block
#MNEM.UNIT            Value   Description
#---------- ----------------  -----------
APD  .M                  54:  Elevation of Depth Reference (LMF) above Permanent Datum
RUN  .                    1:  RUN NUMBER
PROJECT.     SLEIPNER_OST@st-vlinapp01:  
SET  .        RSTD_0912_IC2:  
~Other Information Block
# 
~A       DEPTH           CCLC           CCLD           CRRA           CVEL           DEVI           FBEF           FCOR           FERD           FIRD             GR           NCOR           NERD           NIRD        RB_PCMS           TENS           WPRE           WTEP           WTPE 
# ...
    3338.32200        0.00090        0.00000         2.7874       -0.39280        55.7570       109.2717         0.0941         5.2505         5.2505        27.8857     0.05140000         2.5475         2.5475       356.7242      2309.2012      4978.9863        85.7968         3.9339
    3338.47440        0.07500        0.07500         2.8743       -0.39540        55.8024       111.6413         0.0016         5.1130         5.1130        28.9486     0.04840000         2.5441         2.5441       356.4225      2322.7344      4979.0952        85.7411         3.9335
    3338.62680       -0.00220       -0.00220         3.0210       -0.39230        55.7991       113.3184         0.0376         5.0333         5.0333        28.5013    -0.11620000         2.5478         2.5478       356.2922      2330.4355      4979.2134        85.7094         3.9332
    3338.77920       -0.01110        0.00000         3.0118       -0.39590        55.7631       113.3193        -0.0354         5.0716         5.0716        27.5549    -0.01690000         2.5128         2.5128       356.2425      2331.6658      4979.3691        85.6680         3.9328
    3338.93160       -0.00830        0.00000         2.9526       -0.39520        55.7382       108.7408        -0.1214         5.2703         5.2703        26.3763     0.00810000         2.4940         2.4940       356.0464      2318.4463      4979.4780        85.6406         3.9326
    3339.08400       -0.00230        0.00000         2.8035       -0.39400        55.7161       108.1338        -0.1645         5.4514         5.4514        26.4121     0.01710000         2.5121         2.5121       356.0475      2313.3440      4979.5806        85.5934         3.9321
    3339.23640       -0.01280        0.00000         2.7820       -0.39410        55.7038       109.1496        -0.0068         5.4101         5.4101        26.6759     0.03010000         2.5365         2.5365       356.1370      2311.5938      4979.7280        85.5537         3.9318
    3339.38880       -0.01030        0.00000         2.8030       -0.39890        55.6880       108.6478         0.0202         5.4322         5.4322        26.6821    -0.01110000         2.5216         2.5216       356.3034      2319.1074      4979.8848        85.5305         3.9316
    3339.54120       -0.00770        0.00000         2.7961       -0.39880        55.6866       108.4015         0.0911         5.3608         5.3608        27.9595     0.03890000         2.4982         2.4982       356.3597      2316.7769      4979.9902        85.5100         3.9314
    3339.69360        0.06000        0.00000         2.7905       -0.39830        55.6964       109.1815        -0.0075         5.2802         5.2802        29.0500    -0.01710000         2.4834         2.4834       356.3264      2344.0786      4980.1230        85.4748         3.9311
    3339.84600        0.16050        0.00000         2.8044       -0.39450        55.7095       109.3114         0.0874         5.4160         5.4160        29.1887     0.02690000         2.4786         2.4786       356.3830      2323.0576      4980.2485        85.4404         3.9308
    3339.99840        0.06520        0.00000         2.8080       -0.39550        55.7304       109.3355        -0.0613         5.3394         5.3394        29.3977     0.00590000         2.4691         2.4691       356.4627      2324.3669      4980.3691        85.4217         3.9306
    3340.15080        0.03090        0.00000         2.8120       -0.39000        55.7588       109.3931        -0.0517         5.3371         5.3371        30.4767     0.06670000         2.4465         2.4465       356.4759      2323.6394      4980.4824        85.3915         3.9304
    3340.30320       -0.00670        0.00000         2.8147       -0.38740        55.7590       109.4028        -0.2464         5.4046         5.4046        31.0412     0.00290000         2.5059         2.5059       356.3946      2324.5762      4980.6152        85.3311         3.9298
    3340.45560       -0.02060        0.00000         2.8183       -0.38720        55.7904       109.4352         0.0080         5.2293         5.2293        31.5473     0.01180000         2.4449         2.4449       356.3992      2322.1299      4980.7358        85.3114         3.9297
    3340.60800       -0.00410        0.00000         2.8197       -0.38690        55.8091       110.1221        -0.1202         5.1147         5.1147        30.9538     0.03530000         2.4416         2.4416       356.4452      2313.0391      4980.8662        85.2783         3.9294
    3340.76040       -0.02550        0.00000         2.8305       -0.38240        55.8250       109.6881         0.0464         4.9846         4.9846        31.1017     0.03770000         2.4402         2.4402       356.5002      2319.2073      4981.0039        85.2576         3.9292
    3340.91280       -0.00550        0.00000         2.8319       -0.38650        55.8354       110.3654         0.0158         4.9652         4.9652        30.9577    -0.03720000         2.4373         2.4373       356.4923      2305.6177      4981.1187        85.2267         3.9289
    3341.06520       -0.00460        0.00000         2.8354       -0.38180        55.8431       110.7325        -0.0263         4.9152         4.9152        30.3836    -0.04950000         2.4747         2.4747       356.3954      2328.2117      4981.2554        85.1920         3.9286
    3341.21760       -0.02010        0.00000         2.8391       -0.38240        55.8405       110.4487        -0.0564         4.8888         4.8888        30.7522     0.00090000         2.4584         2.4584       356.4498      2321.4280      4981.3550        85.1625         3.9283
    3341.37000       -0.00620        0.00000         2.8359       -0.38540        55.8417       110.3758        -0.0762         4.7267         4.7267        30.4990    -0.05220000         2.4841         2.4841       356.5068      2325.4705      4981.4570        85.1226         3.9280
    3341.52240       -0.00640        0.00000         2.8376       -0.37760        55.8422       110.5297         0.1417         4.6741         4.6741        30.1065     0.03390000         2.4276         2.4276       356.5117      2321.0000      4981.6328        85.0852         3.9277
    3341.67480       -0.00600        0.00000         2.8356       -0.38090        55.8610       110.8948        -0.0535         4.6454         4.6454        30.0246    -0.01700000         2.4902         2.4902       356.4908      2328.0083      4981.7476        85.0516         3.9274
    3341.82720        0.10100        0.00000         2.8607       -0.37560        55.8750       110.5016         0.0793         4.7359         4.7359        30.1234    -0.01220000         2.5204         2.5204       356.4017      2313.5781      4981.8872        85.0174         3.9271
    3341.97960       -0.03880        0.00000         2.8480       -0.37980        55.8692       110.9578         0.0075         4.8623         4.8623        29.5045    -0.02700000         2.5255         2.5255       356.3936      2320.7617      4981.9683        84.9891         3.9268
    3342.13200       -0.00050        0.00000         2.8467       -0.37910        55.8662       111.7421        -0.0875         4.9157         4.9157        29.8205    -0.02000000         2.4983         2.4983       356.5792      2321.2439      4982.1787        84.9615         3.9266
    3342.28440       -0.00140        0.00000         2.8523       -0.38470        55.8741       110.2409        -0.0237         4.8876         4.8876        29.7043     0.00020000         2.4813         2.4813       356.6929      2319.5098      4982.2612        84.9394         3.9264
    3342.43680       -0.19690        0.00000         2.8412       -0.38470        55.8794       110.7261        -0.0821         4.6739         4.6739        29.0647    -0.00290000         2.4287         2.4287       356.7956      2317.4512      4982.3779        84.8907         3.9259
    3342.58920       -0.00210        0.00000         2.8466       -0.38010        55.8947       110.7310        -0.0096         4.8087         4.8087        29.1059    -0.04260000         2.3820         2.3820       356.6830      2330.0859      4982.5459        84.8752         3.9258
