~Version Information Block
VERS .                 2.00:  CWLS LOG ASCII STANDARD - VERSION 2.00
WRAP .                   NO:  One line per depth step
~Well Information Block
#MNEM.UNIT        Data Type   Information
#---------- ----------------  -----------
STRT .M          3445.30680:  START DEPTH
STOP .M          3635.80680:  STOP DEPTH
STEP .M             0.15240:  STEP
NULL .              -999.25:  NULL VALUE
COMP .              Statoil:  COMPANY
WELL .          NO_15/9-F-5:  WELL
FLD  .                VOLVE:  FIELD
LOC  .            North Sea:  LOCATION
CTRY .                     :  COUNTRY
STAT .                     :  STATE
CNTY .                     :  COUNTY
SRVC .         Schlumberger:  SERVICE COMPANY
DATE .          16-Sep-2012:  DATE
API  .                     :  API NUMBER
UWI  .             15/9-F-5:  UNIQUE WELL ID
~Curve Information Block
#MNEM.UNIT         API CODE   Curve Description
#---------- ----------------  -----------------
DEPTH.M                    :  DEPTH (BOREHOLE)
CCLC .V                    :  CCL
CCLD .V                    :  CCL Discriminated Amplitude
CRRA .                     :  Near-Far Count Rate Ratio
CS   .F/MN                 :  Cable Speed
CVEL .M/MIN                 :  Cable Velocity
DEVI .DEG                  :  Hole Deviation
FBEF .UA                   :  RST Far Effective Beam Current
FCOR .                     :  RST Far Carbon/Oxygen Ratio
FERD .                     :  RST Far IC Mode Capture Optimization Resolution Degradation Factor
FIRD .                     :  RST Far Inelastic Optimization Resolution Degradation Factor
GR   .GAPI                 :  Gamma Ray
NCOR .                     :  RST Near Carbon/Oxygen Ratio
NERD .                     :  RST Near IC Mode Capture Optimization Resolution Degradation Factor
NIRD .                     :  RST Near Inelastic Optimization Resolution Degradation Factor
RB_PCMS.DEG                  :  Relative Bearing
TENS .LBF                  :  Cable Tension
WPRE .PSI                  :  Well Pressure
WTEP .DEGC                 :  Well Temperature
~Parameter Information Block
#MNEM.UNIT            Value   Description
#---------- ----------------  -----------
APD  .M           54.900002:  Elevation of Depth Reference (LMF) above Permanent Datum
RUN  .                Run 1:  RUN NUMBER
PROJECT.     SLEIPNER_OST@st-vlinapp01:  
SET  .        RSTD_0912_IC1:  
~Other Information Block
# 
~A       DEPTH           CCLC           CCLD           CRRA             CS           CVEL           DEVI           FBEF           FCOR           FERD           FIRD             GR           NCOR           NERD           NIRD        RB_PCMS           TENS           WPRE           WTEP 
# ...
    3542.53800        -0.0074         0.0000         2.8670         1.1923      -0.364100        52.4203       112.4028    -0.12590000         5.2148         5.2148        16.5435      -0.046600         2.5482         2.5482         7.7228      2716.6313      5073.1963        89.5597
    3542.69040        -0.0086         0.0000         2.8801         1.2375      -0.381600        52.4326       112.4141     0.10050000         5.3330         5.3330        19.2622      -0.002400         2.5022         2.5022         7.9305      2711.9583      5073.3193        89.5429
    3542.84280        -0.0064         0.0000         2.8716         1.2497      -0.379400        52.4453       112.6589    -0.04250000         5.2867         5.2867        24.9024      -0.078100         2.5385         2.5385         8.0523      2715.5596      5073.4727        89.5034
    3542.99520        -0.0073         0.0000         2.8804         1.2293      -0.376100        52.4446       113.3120    -0.06690000         5.3875         5.3875        30.9710      -0.048800         2.5062         2.5062         7.9887      2714.2925      5073.5981        89.4713
    3543.14760         0.0594         0.0000         2.8885         1.2582      -0.382500        52.4524       112.6745    -0.10450000         5.3972         5.3972        35.8596      -0.054500         2.5019         2.5019         8.0195      2704.0586      5073.7437        89.4427
    3543.30000        -0.0085         0.0000         2.8782         1.2497      -0.379200        52.4555       111.8271     0.00100000         5.4858         5.4858        38.7635      -0.046100         2.5791         2.5791         8.1393      2709.3713      5073.8579        89.4069
    3543.45240        -0.0476         0.0000         2.8529         1.2667      -0.384300        52.4710       112.4778    -0.02890000         5.4831         5.4831        39.8271      -0.069400         2.5336         2.5336         8.1364      2703.0840      5073.9917        89.3732
    3543.60480         0.0689         0.0000         2.8753         1.2585      -0.382200        52.4936       111.9263     0.06400000         5.5045         5.5045        39.4580      -0.023600         2.5214         2.5214         8.0111      2719.1226      5074.1152        89.3305
    3543.75720        -0.0087         0.0000         2.8560         1.2625      -0.383500        52.5070       112.4014     0.06590000         5.6089         5.6089        40.6836      -0.032800         2.5605         2.5605         7.8171      2712.8882      5074.2896        89.2898
    3543.90960        -0.0081         0.0000         2.8769         1.2710      -0.387900        52.5182       111.8883    -0.05950000         5.6436         5.6436        43.3079      -0.047300         2.5134         2.5134         7.9722      2720.0737      5074.3975        89.2617
    3544.06200        -0.0094         0.0000         2.8724         1.2667      -0.383700        52.5240       111.6244    -0.10980000         5.7163         5.7163        47.1140      -0.041400         2.5007         2.5007         7.9492      2714.3726      5074.5371        89.2294
    3544.21440        -0.0078         0.0000         2.8594         1.2582      -0.381900        52.5428       110.9132     0.07650000         5.7805         5.7805        48.4899      -0.077100         2.4594         2.4594         8.0456      2719.0752      5074.6816        89.1992
    3544.36680        -0.0081         0.0000         2.8611         1.2500      -0.379000        52.5576       110.2743    -0.01890000         5.9261         5.9261        46.9482       0.061500         2.5085         2.5085         7.9340      2716.9004      5074.8125        89.1695
    3544.51920        -0.0094         0.0000         2.8491         1.2339      -0.375900        52.5593       110.5968     0.05600000         5.7703         5.7703        42.9368      -0.007200         2.4977         2.4977         7.8541      2717.1345      5074.9473        89.1252
    3544.67160         0.0878         0.0000         2.8467         1.2418      -0.375400        52.5744       110.5788    -0.03570000         5.7491         5.7491        37.2479      -0.006500         2.4775         2.4775         7.8055      2701.1941      5075.0884        89.1177
    3544.82400        -0.0085         0.0000         2.8295         1.2372      -0.376800        52.5990       111.0403    -0.12500000         5.7285         5.7285        31.0665       0.003600         2.4536         2.4536         7.5679      2709.4932      5075.2266        89.0785
    3544.97640        -0.1010         0.0000         2.8629         1.2539      -0.385900        52.6170       112.2603     0.05380000         5.6965         5.6965        27.9307      -0.008700         2.4596         2.4596         7.7269      2706.3596      5075.3604        89.0592
    3545.12880         0.0345         0.0000         2.9080         1.2254      -0.373400        52.6308       112.9588     0.09920000         5.7425         5.7425        25.7070      -0.100300         2.4834         2.4834         7.8337      2706.6431      5075.4614        89.0287
    3545.28120        -0.0077         0.0000         2.9194         1.2375      -0.379000        52.6501       112.2999     0.02340000         5.6950         5.6950        24.2567      -0.070700         2.4495         2.4495         7.7894      2720.1326      5075.6104        89.0099
    3545.43360        -0.0086         0.0000         2.8896         1.2333      -0.374900        52.6640       112.2825    -0.11030000         5.6538         5.6538        22.9954      -0.002400         2.4388         2.4388         8.0355      2711.6550      5075.7363        88.9744
    3545.58600        -0.0086         0.0000         2.8827         1.2500      -0.379500        52.6729       110.9143     0.04830000         5.6767         5.6767        22.5659      -0.056000         2.4240         2.4240         8.1357      2714.5208      5075.8647        88.9611
    3545.73840        -0.0135         0.0000         2.8713         1.2329      -0.379000        52.6922       110.7535    -0.00080000         5.5606         5.5606        21.3899      -0.003300         2.4800         2.4800         7.8729      2715.9724      5076.0005        88.9261
    3545.89080        -0.0014         0.0000         2.8718         1.2539      -0.379900        52.7189       109.9002     0.00250000         5.5466         5.5466        20.9930      -0.002400         2.4505         2.4505         7.8134      2710.4221      5076.1460        88.9106
    3546.04320        -0.0455         0.0000         2.8478         1.2497      -0.376300        52.7267       111.0319    -0.02520000         5.5471         5.5471        20.8862      -0.092300         2.4371         2.4371         7.7703      2709.4753      5076.2598        88.8872
    3546.19560         0.1058         0.0000         2.8665         1.2175      -0.372600        52.7489       110.8820    -0.14489999         5.3572         5.3572        22.2898      -0.028600         2.4328         2.4328         7.6093      2705.0137      5076.3882        88.8579
    3546.34800        -0.0060         0.0000         2.8412         1.2293      -0.372900        52.7727       111.9245    -0.02180000         5.2929         5.2929        23.2244      -0.008500         2.4863         2.4863         7.3785      2720.8940      5076.5288        88.8390
    3546.50040        -0.0063         0.0000         2.8698         1.1975      -0.367100        52.7973       110.7217     0.06240000         5.1238         5.1238        24.9117      -0.058000         2.5086         2.5086         7.2805      2716.6060      5076.6675        88.8157
    3546.65280         0.1255         0.0000         2.8538         1.2129      -0.369600        52.8076       111.2460     0.05410000         5.1685         5.1685        26.3622      -0.018300         2.5093         2.5093         7.1902      2710.5444      5076.8003        88.7912
    3546.80520        -0.0031         0.0000         2.8658         1.2093      -0.367200        52.8314       110.7697    -0.07160000         5.4124         5.4124        26.9959       0.000400         2.5258         2.5258         7.2686      2701.0188      5076.9419        88.7741
