~Version Information Block
VERS .                 2.00:  CWLS LOG ASCII STANDARD - VERSION 2.00
WRAP .                   NO:  One line per depth step
~Well Information Block
#MNEM.UNIT        Data Type   Information
#---------- ----------------  -----------
STRT .M          3230.11800:  START DEPTH
STOP .M          3389.98560:  STOP DEPTH
STEP .M             0.15240:  STEP
NULL .              -999.25:  NULL VALUE
COMP .              Statoil:  COMPANY
WELL .          NO_15/9-F-4:  WELL
FLD  .                VOLVE:  FIELD
LOC  .            North Sea:  LOCATION
CTRY .                     :  COUNTRY
STAT .                     :  STATE
CNTY .                     :  COUNTY
SRVC .         Schlumberger:  SERVICE COMPANY
DATE .          13-Sep-2012:  DATE
API  .                     :  API NUMBER
UWI  .             15/9-F-4:  UNIQUE WELL ID
~Curve Information Block
#MNEM.UNIT         API CODE   Curve Description
#---------- ----------------  -----------------
DEPTH.M                    :  DEPTH (BOREHOLE)
CCLC .V                    :  CCL
CCLD .V                    :  CCL Discriminated Amplitude
CRRA .                     :  Near-Far Count Rate Ratio
CS   .F/MN                 :  Cable Speed
CVEL .M/MIN                 :  Cable Velocity
FBEF .UA                   :  RST Far Effective Beam Current
FCOR .                     :  RST Far Carbon/Oxygen Ratio
FERD .                     :  RST Far IC Mode Capture Optimization Resolution Degradation Factor
FIRD .                     :  RST Far Inelastic Optimization Resolution Degradation Factor
GR   .GAPI                 :  Gamma Ray
NCOR .                     :  RST Near Carbon/Oxygen Ratio
NERD .                     :  RST Near IC Mode Capture Optimization Resolution Degradation Factor
NIRD .                     :  RST Near Inelastic Optimization Resolution Degradation Factor
RB_PCMS.DEG                  :  Relative Bearing
TENS .LBF                  :  Cable Tension
WTEP .DEGC                 :  Well Temperature
WTPE .MS                   :  Well Temperature Period
~Parameter Information Block
#MNEM.UNIT            Value   Description
#---------- ----------------  -----------
APD  .M                  54:  Elevation of Depth Reference (LMF) above Permanent Datum
RUN  .                    1:  RUN NUMBER
PROJECT.     SLEIPNER_OST@st-vlinapp01:  
SET  .        RSTD_0912_IC3:  
~Other Information Block
# 
~A       DEPTH           CCLC           CCLD           CRRA             CS           CVEL           FBEF           FCOR           FERD           FIRD             GR           NCOR           NERD           NIRD        RB_PCMS           TENS           WTEP           WTPE 
# ...
    3353.56200         0.2035         0.0000         2.8073         2.0194       -0.61550       110.0093        -0.0050         4.7981         4.7981        28.9706      -0.008200         2.3702         2.3702       356.0448      2308.8225        84.1657         3.9195
    3353.71440        -0.0956         0.0000         2.8116         1.0617       -0.32360       111.0463         0.0556         4.8381         4.8381        29.7652       0.057800         2.3522         2.3522       356.0353      2314.4392        84.1457         3.9194
    3353.86680        -0.0111         0.0000         2.8537         1.0348       -0.31540       111.0640         0.0467         4.8388         4.8388        28.9152      -0.016100         2.3503         2.3503       356.0063      2303.8828        84.1425         3.9193
    3354.01920        -0.0128         0.0000         2.8446         1.0203       -0.31100       111.5055         0.0458         4.8967         4.8967        29.3743      -0.010000         2.3196         2.3196       355.9519      2319.0635        84.1380         3.9193
    3354.17160        -0.0164         0.0000         2.8438         1.0289       -0.31360       111.0298        -0.0174         4.9377         4.9377        30.6225      -0.000800         2.3389         2.3389       355.8996      2315.7170        84.1230         3.9192
    3354.32400        -0.0097         0.0000         2.8353         1.0499       -0.32000       111.2832        -0.0509         4.9208         4.9208        30.4324      -0.037400         2.3458         2.3458       355.9258      2302.7483        84.1094         3.9190
    3354.47640        -0.0108         0.0000         2.8607         1.0315       -0.31440       111.4311        -0.0841         4.9799         4.9799        30.3093       0.025300         2.3645         2.3645       355.9244      2326.7771        84.1004         3.9190
    3354.62880        -0.0594         0.0000         2.8370         1.0299       -0.31390       112.2511         0.0175         4.9675         4.9675        30.5099      -0.045400         2.3626         2.3626       355.9757      2311.1897        84.0830         3.9188
    3354.78120         0.1618         0.0000         2.8582         1.1329       -0.34530       111.3598        -0.0159         4.9054         4.9054        30.3279       0.053700         2.4094         2.4094       355.9903      2322.2883        84.0761         3.9188
    3354.93360        -0.0960         0.0000         2.8536         1.2041       -0.36700       111.8004         0.0779         4.7949         4.7949        30.4554      -0.046800         2.4345         2.4345       356.0199      2333.4961        84.0694         3.9187
    3355.08600        -0.0109         0.0000         2.8482         1.1982       -0.36520       111.4215        -0.0430         4.8366         4.8366        30.4758      -0.054200         2.4737         2.4737       356.0282      2306.5239        84.0525         3.9185
    3355.23840        -0.0041         0.0000         2.8444         1.1913       -0.36310       111.8122        -0.0043         4.9518         4.9518        30.4292       0.081500         2.4640         2.4640       356.0354      2326.2759        84.0333         3.9184
    3355.39080        -0.0062         0.0000         2.8662         1.1719       -0.35720       111.8471         0.0567         4.9472         4.9472        30.1774       0.055600         2.5558         2.5558       356.1070      2321.0576        84.0247         3.9183
    3355.54320        -0.0038         0.0000         2.8539         1.1801       -0.35970       111.0978         0.1565         4.9408         4.9408        30.2427      -0.006600         2.5480         2.5480       356.1902      2314.5510        84.0125         3.9182
    3355.69560        -0.0045         0.0000         2.8393         1.2083       -0.36830       111.6651         0.0179         4.8593         4.8593        29.5919      -0.131800         2.5279         2.5279       356.1866      2306.2434        84.0068         3.9181
    3355.84800        -0.0041         0.0000         2.8831         1.2123       -0.36950       113.1862         0.0233         4.7638         4.7638        29.5788       0.030100         2.5253         2.5253       356.1029      2316.3713        83.9912         3.9180
    3356.00040        -0.0041         0.0000         2.9244         1.2844       -0.39150       112.9298        -0.1352         4.7687         4.7687        29.6161      -0.009500         2.5577         2.5577       355.9622      2314.5366        83.9838         3.9179
    3356.15280        -0.0069         0.0000         2.9047         1.3540       -0.41270       113.8193         0.1664         4.8897         4.8897        30.0078       0.068700         2.5683         2.5683       355.8014      2321.6917        83.9721         3.9178
    3356.30520        -0.1015         0.0000         2.9182         1.4124       -0.43050       113.2128        -0.0205         4.8427         4.8427        29.8679      -0.026700         2.5412         2.5412       355.7449      2314.6301        83.9626         3.9177
    3356.45760         0.0006         0.0000         2.9074         1.4449       -0.44040       113.7655         0.1204         4.9090         4.9090        29.4989       0.047100         2.5351         2.5351       355.7954      2327.4983        83.9512         3.9176
    3356.61000        -0.0002         0.0000         2.9075         1.5085       -0.45980       113.1993         0.0046         4.9373         4.9373        29.3814      -0.031000         2.5009         2.5009       355.7983      2296.5740        83.9396         3.9175
    3356.76240         0.2126         0.0000         2.8893         1.5787       -0.48120       112.5054        -0.0308         4.9713         4.9713        29.1376       0.090300         2.5174         2.5174       355.7966      2335.6992        83.9241         3.9174
    3356.91480         0.1076         0.0000         2.8893         1.6296       -0.49670       111.5639        -0.0980         4.9752         4.9752        28.6323      -0.007900         2.5509         2.5509       355.9010      2309.1775        83.9193         3.9174
    3357.06720        -0.0059         0.0000         2.8545         1.7139       -0.52240       110.8184        -0.0811         5.0143         5.0143        28.3302      -0.035300         2.5214         2.5214       355.9766      2309.5757        83.9099         3.9173
    3357.21960         0.0622         0.0000         2.8465         1.8481       -0.56330       109.8045        -0.0929         4.9710         4.9710        28.8503       0.052900         2.5180         2.5180       355.8775      2313.2327        83.9096         3.9173
    3357.37200        -0.0429         0.0000         2.8150         1.9177       -0.58450       110.3648         0.0388         4.9798         4.9798        28.9565       0.029600         2.5182         2.5182       355.9126      2316.7136        83.8925         3.9171
    3357.52440         0.0016         0.0000         2.8243         1.9281       -0.58770       110.4949         0.0653         4.9761         4.9761        28.5543       0.032500         2.5399         2.5399       356.1010      2312.1418        83.8840         3.9171
    3357.67680        -0.0070         0.0000         2.8293         1.9469       -0.59340       110.5161        -0.0541         4.9063         4.9063        28.2855       0.020400         2.5464         2.5464       356.1891      2320.0649        83.8805         3.9170
    3357.82920        -0.0096         0.0000         2.8307         1.9524       -0.59510       110.7247        -0.0729         4.8850         4.8850        28.1943       0.011100         2.5424         2.5424       356.1760      2318.7793        83.8699         3.9169
    3357.98160        -0.0108         0.0000         2.8476         1.9544       -0.59570       110.0594         0.0560         4.9216         4.9216        28.4383      -0.009600         2.5168         2.5168       356.0577      2325.3782        83.8647         3.9169
