~Version Information Block
VERS .                 2.00:  CWLS LOG ASCII STANDARD - VERSION 2.00
WRAP .                   NO:  One line per depth step
~Well Information Block
#MNEM.UNIT        Data Type   Information
#---------- ----------------  -----------
STRT .M          3454.45080:  START DEPTH
STOP .M          3788.05440:  STOP DEPTH
STEP .M             0.15240:  STEP
NULL .              -999.25:  NULL VALUE
COMP .              Statoil:  COMPANY
WELL .        NO_15/9-F-1_C:  WELL
FLD  .                Volve:  FIELD
LOC  .            North Sea:  LOCATION
CTRY .               Norway:  COUNTRY
STAT .                     :  STATE
CNTY .                     :  COUNTY
SRVC .         Schlumberger:  SERVICE COMPANY
DATE .          27-Nov-2014:  DATE
API  .                     :  API NUMBER
UWI  .           15/9-F-1 C:  UNIQUE WELL ID
LATI .     58° 26' 29.91" N:  LATITUDE
LONG .      1° 53' 14.71" E:  LONGITUDE
~Curve Information Block
#MNEM.UNIT         API CODE   Curve Description
#---------- ----------------  -----------------
DEPTH.M                    :  DEPTH (BOREHOLE)
CRRA .                     :  Near/Far Count Rate Ratio
CVEL .M/SEC                 :  Cable Velocity
DFRB .DEG                  :  Calibrated Relative Bearing
FBEF .UA                   :  RST Far Effective Beam Current
FCOR .                     :  RST Far Carbon/Oxygen Ratio
FERD .                     :  RST Far IC Mode Capture Optimization
FIRD .                     :  RST Far Inelastic Optimization Resolution
GR   .GAPI                 :  Gamma Ray
NCOR .                     :  RST Near Carbon/Oxygen Ratio
NERD .                     :  RST Near IC Mode Capture Optimization
NIRD .                     :  RST Near Inelastic Optimization Resolution
PFC1 .IN                   :  PFCS CaliperX
PFC2 .IN                   :  PFCS CaliperY
TENS .LBF                  :  Cable Tension
~Parameter Information Block
#MNEM.UNIT            Value   Description
#---------- ----------------  -----------
APD  .M           54.900002:  Elevation of Depth Reference (LMF) above Permanent Datum
EPD  .C3                  0:  Elevation of Permanent Datum above Mean Sea Level
LMF  .                   KB:  Logging Measured From (Name of Logging Elevation Reference)
PDAT .                  MSL:  Permanent Datum
RUN  .                Run 1:  RUN NUMBER
TAPE_NAME.     Statoil_Volve_15-9-F-1 C_PLT-RST_28Nov14_ConCu_R1L17Up_IC1.las:  
TOOL_STRING.              UNKNOWN:  
WN   .           15/9-F-1 C:  WELL
PROJECT.     SLEIPNER_OST@st-vlinapp01:  
SET  .        RSTD_1114_IC1:  
~Other Information Block
# 
~A       DEPTH           CRRA           CVEL           DFRB           FBEF           FCOR           FERD           FIRD             GR           NCOR           NERD           NIRD           PFC1           PFC2           TENS 
# ...
    3608.07000         2.9006      -0.174760       358.3940       126.6743         0.1477         5.4749         5.4749        31.2224         0.0645         7.1359         7.1359         6.2488         6.0510      4271.0713
    3608.22240         2.9128      -0.175372       358.3940       126.3860         0.0347         5.4662         5.4662        31.1708         0.0553         7.1223         7.1223         6.2533         6.0510      4248.4614
    3608.37480         2.9189      -0.171777       358.3940       124.5223         0.0349         5.3746         5.3746        30.7900         0.0325         7.1381         7.1381         6.2533         6.0510      4240.1665
    3608.52720         2.8678      -0.167683       359.8050       125.0004         0.0210         5.3042         5.3042        30.4289         0.0466         7.0993         7.0993         6.2617         6.0510      4254.7144
    3608.67960         2.8801      -0.162423       359.8050       125.4260         0.0589         5.3627         5.3627        30.6339         0.0555         7.0411         7.0411         6.2805         6.0510      4206.0771
    3608.83200         2.8939      -0.157797       359.8050       125.9306        -0.0366         5.1979         5.1979        31.6669        -0.0342         7.0030         7.0030         6.2707         6.0510      4288.1426
    3608.98440         2.8995      -0.153110       359.8050       125.3755         0.0605         5.2290         5.2290        33.3764         0.0210         7.0554         7.0554         6.2467         6.0510      4180.6665
    3609.13680         2.9040      -0.144803       359.8050       125.0101         0.1016         5.4603         5.4603        34.9542         0.1080         7.0871         7.0871         6.2516         6.0510      4191.0000
    3609.28920         2.9075      -0.131855       359.8050       126.1225         0.0825         5.3826         5.3826        36.3431         0.1043         7.0335         7.0335         6.2533         6.0510      4149.8125
    3609.44160         2.9318      -0.123350       359.8050       128.6413         0.0953         5.2400         5.2400        37.4627         0.0975         7.1579         7.1579         6.2532         6.0510      4236.0586
    3609.59400         3.0144      -0.114727       358.3940       129.5707         0.0852         5.4574         5.4574        39.4595         0.0465         7.1228         7.1228         6.2532         6.0510      4319.0527
    3609.74640         3.0158      -0.083130       358.3940       128.4624         0.0696         5.3431         5.3431        41.3517         0.0660         7.0993         7.0993         6.2508         6.0506      4246.3501
    3609.89880         2.9930      -0.013358       358.3940       128.3765        -0.0478         5.2325         5.2325        43.3088         0.0738         7.0471         7.0471         6.2219         6.0504      4064.2158
    3610.05120         2.9883      -0.008948       358.3940       125.5424         0.0649         5.2330         5.2330        45.1803         0.0186         7.1517         7.1517         6.2219         6.0479      4032.7361
    3610.20360         2.9097      -0.005225       358.3940       125.6762         0.0914         5.1767         5.1767        46.1752         0.0454         7.1340         7.1340         6.2222         6.0470      3820.9819
    3610.35600         2.9033      -0.032310       358.3940       125.1674         0.0673         5.1151         5.1151        46.7128         0.0672         7.1388         7.1388         6.2222         6.0487      4220.5615
    3610.50840         2.8891      -0.011473       358.3940       124.5679         0.0936         4.9730         4.9730        45.7040         0.0382         7.1053         7.1053         6.2219         6.0416      4202.0103
    3610.66080         2.8717      -0.010683       358.3940       124.4362         0.0682         4.9689         4.9689        44.4213        -0.0337         7.1273         7.1273         6.2219         6.0339      4139.1162
    3610.81320         2.8730      -0.009693       358.3940       125.1985        -0.0472         5.0079         5.0079        43.3297         0.0746         7.1235         7.1235         6.2220         6.0403      4193.2002
    3610.96560         2.8828      -0.010335       358.3940       125.7791        -0.0279         4.9087         4.9087        43.2822         0.0337         7.0926         7.0926         6.2219         6.0442      4102.8462
    3611.11800         2.9148      -0.009250       358.3940       125.7224         0.0119         4.6396         4.6396        42.0513         0.0124         7.1130         7.1130         6.2219         6.0429      4158.5103
    3611.27040         2.9063      -0.008360       358.3940       124.9461         0.0958         4.3684         4.3684        41.8745         0.0242         7.1262         7.1262         6.2219         6.0391      4140.5293
    3611.42280         2.8947      -0.009418       358.3940       124.9335        -0.0169         4.2293         4.2293        41.7895        -0.0075         7.0659         7.0659         6.2219         6.0414      4138.1968
    3611.57520         2.8844      -0.008848       358.3940       122.6992        -0.9190         4.5251         4.5251        41.4513         0.0417         7.1051         7.1051         6.2219         6.0449      4100.3135
    3611.72760         2.8306      -0.007465       358.3940       123.4346         0.0156         4.4960         4.4960        40.5997         0.0881         7.1752         7.1752         6.2219         6.0448      4170.5000
    3611.88000         2.8511      -0.007592       358.3940       124.1457         0.0543         4.4585         4.4585        40.0987         0.0477         7.1885         7.1885         6.2219         6.0410      4137.1260
    3612.03240         2.8595      -0.007715       358.3940       124.3906         0.0072         4.4114         4.4114        40.0920         0.0833         7.2555         7.2555         6.2220         6.0344      4174.1372
    3612.18480         2.8468      -0.008540       358.3940       124.1052        -0.0654         4.4579         4.4579        39.6737         0.0969         7.3007         7.3007         6.2221         6.0331      4227.4512
    3612.33720         2.8385      -0.008490       358.3940       124.9294         0.0619         4.4389         4.4389        39.5651         0.0076         7.2347         7.2347         6.2223         6.0309      4151.2471
    3612.48960         2.8747      -0.008578       358.3940       125.1033         0.0396         4.4829         4.4829        38.8341         0.0693         7.2442         7.2442         6.2220         6.0241      4154.6929
    3612.64200         2.8699      -0.008147       358.3940       133.7320        -0.0482         4.4042         4.4042        38.4963         0.0050         7.1676         7.1676         6.2219         6.0186      4115.0107
    3612.79440         3.2178      -0.007373       358.3940       134.8726         0.0723         4.3976         4.3976        37.3894         0.0904         7.1579         7.1579         6.2219         6.0186      4123.5835
    3612.94680         3.2356      -0.009157       358.3940       135.1808         0.1005         4.3458         4.3458        38.1416         0.0136         7.1686         7.1686         6.2220         6.0200      4174.0239
    3613.09920         3.2316      -0.008818       358.3940       133.1987         0.0094         4.4443         4.4443        39.7974         0.0586         7.1613         7.1613         6.1922         5.9981      4153.7310
    3613.25160         3.1430      -0.007580       358.3940       121.7539         0.2256         4.3069         4.3069        43.6274         0.0021         7.0713         7.0713         6.1619         5.9953      4175.4717
    3613.40400         2.8223      -0.008740       358.3940       121.1836         0.0045         4.4421         4.4421        47.9771         0.0484         7.1978         7.1978         6.2105         6.0502      4088.5769
