~Version Information Block
VERS .                 2.00:  CWLS LOG ASCII STANDARD - VERSION 2.00
WRAP .                  YES:  Multiple lines per depth step
~Well Information Block
#MNEM.UNIT        Data Type   Information
#---------- ----------------  -----------
STRT .M          3513.58200:  START DEPTH
STOP .M          3649.06560:  STOP DEPTH
STEP .M             0.15240:  STEP
NULL .              -999.25:  NULL VALUE
COMP .              Statoil:  COMPANY
WELL .        NO_15/9-F-1_C:  WELL
FLD  .                Volve:  FIELD
LOC  .            North Sea:  LOCATION
CTRY .               Norway:  COUNTRY
STAT .                     :  STATE
CNTY .                     :  COUNTY
SRVC .         Schlumberger:  SERVICE COMPANY
DATE .          27-Nov-2014:  DATE
API  .                     :  API NUMBER
UWI  .           15/9-F-1 C:  UNIQUE WELL ID
LATI .     58° 26' 29.91" N:  LATITUDE
LONG .      1° 53' 14.71" E:  LONGITUDE
~Curve Information Block
#MNEM.UNIT         API CODE   Curve Description
#---------- ----------------  -----------------
DEPTH.M                    :  DEPTH (BOREHOLE)
BSAL .PPM                  :  Borehole Salinity
CCLC .V                    :  CCL
CIRF .                     :  RST Capture to Inelastic Ratio Far
CIRN .                     :  RST Capture to Inelastic Ratio Near
CVEL .M/SEC                 :  Cable Velocity
DFRB .DEG                  :  Calibrated Relative Bearing
DSIG .CU                   :  Sigma Difference
FBEF .UA                   :  RST Far Effective Beam Current
GR   .GAPI                 :  Gamma Ray
IRAT .                     :  RST Inelastic Ratio
PFC1 .IN                   :  PFCS CaliperX
PFC2 .IN                   :  PFCS CaliperY
RSCF .                     :  RST Far Detector Effective Unregulated
RSCN .                     :  RST Near Detector Effective
SFFA .CU                   :  RST Sigma Formation Far Apparent
SIBF .CU                   :  RST Sigma Borehole Fluid
SIGM .CU                   :  Formation Sigma (Neutron Capture Cross
TENS .LBF                  :  Cable Tension
TPHI .V/V                  :  Thermal Decay Porosity
~Parameter Information Block
#MNEM.UNIT            Value   Description
#---------- ----------------  -----------
APD  .M           54.900002:  Elevation of Depth Reference (LMF) above Permanent Datum
BHS  .                 CASE:  Borehole Status (Open or Cased Hole)
BS   .IN                8.5:  Bit Size
BSAL .PPM                 0:  Borehole Salinity
BSALOPT.              UNKNOWN:  Borehole Salinity Option
CSIZ .IN                  7:  Current Casing Size
CWEI .LB/F               29:  Casing Weight
EPD  .C3                  0:  Elevation of Permanent Datum above Mean Sea Level
LMF  .                   KB:  Logging Measured From (Name of Logging Elevation Reference)
MATR .                 SAND:  Rock Matrix for Neutron Porosity Corrections
PDAT .                  MSL:  Permanent Datum
RUN  .                Run 1:  RUN NUMBER
TAPE_NAME.     Statoil_Volve_15-9-F-1 C_PLT-RST_28Nov14_ConCu_R1L15Up_SigmaRepeat.las:  
TOOL_STRING.              UNKNOWN:  
WN   .           15/9-F-1 C:  WELL
PROJECT.     SLEIPNER_OST@st-vlinapp01:  
SET  .       RSTD_1114_SIG2:  
~Other Information Block
~Ascii Log Data
# ...
    3628.79640 
    68176.2969         0.0901         2.2004       0.592600      -0.156347 
        1.4110        -2.3158        85.5971        12.1255         0.3308 
        6.1968         6.0488         9.0222         7.1785        18.2291 
       46.4411        16.8471      4763.5000       0.159500
    3628.94880 
    68544.5000        -0.0030         2.1633       0.586000      -0.157598 
        1.4110        -2.3125        85.1527        12.2309         0.3309 
        6.1989         6.0467         8.7621         7.0009        18.5898 
       46.5777        17.2520      4652.0000       0.161300
    3629.10120 
    69662.8047         0.0671         2.1811       0.607700      -0.157585 
        1.4110        -2.4245        88.2665        13.8613         0.3347 
        6.1950         6.0510         8.4960         7.2385        19.6694 
       46.9929        17.4983      4731.0000       0.164800
    3629.25360 
    69054.1016        -0.0270         2.1107       0.590300      -0.156943 
        1.4110        -2.2389        81.8999        13.7388         0.3319 
        6.2093         6.0424         8.6398         6.5417        18.9507 
       46.7668        17.8067      4614.0005       0.161500
    3629.40600 
    68705.2969        -0.0133         2.1279       0.571800      -0.157598 
        1.4110        -2.0481        90.1529        16.1617         0.3296 
        6.1995         6.0278         8.4238         7.1762        19.4995 
       46.6374        17.9738      4592.6665       0.158900
    3629.55840 
    69171.0000        -0.0176         2.1640       0.571900      -0.158273 
        1.4110        -1.8610        87.3671        19.1650         0.3250 
        6.1989         6.0186         9.0061         7.1047        20.1861 
       46.8103        18.4168      4540.5000       0.156800
    3629.71080 
    68504.2031        -0.0041         2.0657       0.560900      -0.158472 
        1.4110        -1.7582        90.3030        18.7450         0.3237 
        6.1905         6.0186         8.2523         7.0495        20.2920 
       46.5628        18.7971      4581.6665       0.164000
    3629.86320 
    68400.2031         0.0052         2.0325       0.565400      -0.160795 
        1.4110        -1.6264        88.9571        18.1599         0.3270 
        6.1905         6.0236         7.9239         6.5710        20.6461 
       46.5242        19.1084      4780.5000       0.163700
    3630.01560 
    68231.5000        -0.0166         1.8910       0.542100      -0.161412 
        1.4110        -1.4715        84.9395        19.4087         0.3276 
        6.1905         6.0186         7.7807         6.5305        21.1265 
       46.4616        18.0863      4687.0000       0.165600
    3630.16800 
    68385.5000        -0.0022         1.8925       0.493300      -0.163925 
        1.4110        -1.2554        81.2464        19.0126         0.3311 
        6.1905         6.0186         8.4157         6.4175        17.2533 
       46.5187        16.6775      4808.3335       0.161000
    3630.32040 
    68450.3047        -0.0222         2.0579       0.568000      -0.170243 
        1.4110        -1.1387        85.3759        18.1545         0.3309 
        6.1863         6.0186         8.4168         6.8280        16.4348 
       46.5428        15.1433      4685.0000       0.169600
    3630.47280 
    68737.3984         0.0006         2.1473       0.605800      -0.165818 
        1.4110        -1.0071        87.0056        18.4487         0.3326 
        6.1717         6.0186         8.8410         7.5771        16.5396 
       46.6493        14.9031      4751.5005       0.173100
    3630.62520 
    69059.4062         0.0001         2.1774       0.600600      -0.158253 
        1.4110        -0.8270        84.9218        19.0338         0.3328 
        6.1614         6.0186         8.8591         7.0920        16.5339 
       46.7688        15.0575      4656.5000       0.173100
    3630.77760 
    69359.5000        -0.0099         2.2941       0.614300      -0.156308 
        1.4110        -0.6597        86.9046        20.3209         0.3357 
        6.1612         6.0186         9.0617         6.9819        16.9027 
       46.8802        14.9075      4773.5000       0.166600
    3630.93000 
    68472.2969        -0.0005         2.2573       0.605600      -0.157558 
        1.4110        -0.6921        87.0180        20.0305         0.3395 
        6.1614         6.0186         8.7874         6.8312        16.1189 
       46.5509        14.9852      4774.3335       0.160800
    3631.08240 
    67790.7031         0.0042         2.3210       0.641700      -0.156308 
        1.4110        -0.7886        85.9433        20.4596         0.3397 
        6.1591         6.0186         9.1458         7.2388        16.8031 
       46.2981        14.7693      4898.0005       0.160300
    3631.23480 
    68075.3984         0.0113         2.3131       0.636200      -0.156302 
        1.4110        -0.8871        85.7856        21.2809         0.3345 
        6.1591         5.9948         9.3496         7.6341        16.2604 
       46.4037        15.0731      4858.6665       0.155500
    3631.38720 
    67217.2031        -0.0310         2.4151       0.623600      -0.157585 
        1.4110        -0.8724        88.6104        21.4418         0.3306 
        6.1591         6.0186         9.4530         7.4329        17.0307 
       46.0856        14.8269      4745.0000       0.151700
    3631.53960 
    67095.8047        -0.0894         2.4529       0.627500      -0.156327 
        1.4110        -1.0831        87.3859        20.2976         0.3313 
        6.1591         6.0186         9.8007         7.5064        16.0995 
       46.0406        14.6171      4824.9995       0.150700
    3631.69200 
    67873.2031        -0.0210         2.3236       0.630900      -0.156327 
        1.4110        -1.2943        86.4749        20.4422         0.3303 
        6.1591         6.0140         9.3232         7.3845        15.6686 
       46.3287        14.2676      4621.6665       0.156400
    3631.84440 
    67194.1016         0.0239         2.4401       0.641400      -0.157618 
        1.4110        -1.6194        91.7420        19.6454         0.3303 
        6.1612         6.0186         9.5118         8.0132        15.9846 
       46.0771        14.2000      4855.0005       0.160400
    3631.99680 
    67092.6953        -0.1368         2.4145       0.645000      -0.158035 
        0.0000        -1.6440        87.4684        18.5064         0.3245 
        6.1591         5.9978         9.9676         8.2793        15.8994 
       46.0395        14.0930      4787.6670       0.162400
    3632.14920 
    67514.6016        -0.0220         2.5070       0.633800      -0.158868 
        0.0000        -1.8536        89.5374        17.9165         0.3268 
        6.1591         6.0186         9.9086         7.8416        15.3517 
       46.1958        14.2777      4821.0000       0.162100
    3632.30160 
    67634.8047         0.0484         2.4551       0.659300      -0.159690 
        1.4110        -1.8572        91.1940        17.4628         0.3272 
        6.1591         6.0116         9.1302         7.6467        16.5459 
       46.2404        14.5200      4794.6665       0.167600
    3632.45400 
    67385.2031        -0.0005         2.3471       0.649100      -0.160140 
        1.4110        -1.8286        83.1075        15.6543         0.3256 
        6.1636         6.0140        10.0970         8.2848        16.6405 
       46.1479        14.9518      4720.5000       0.172000
    3632.60640 
    67458.8984        -0.0005         2.4162       0.645900      -0.161392 
        0.0000        -1.9850        84.8474        15.8995         0.3249 
        6.1591         6.0186        10.2447         8.2941        16.6261 
       46.1752        14.9367      4639.5000       0.176600
    3632.75880 
    68097.7031        -0.0040         2.2652       0.611500      -0.160987 
        0.0000        -1.9793        84.9519        15.8009         0.3230 
        6.1591         6.0001         9.5441         7.7754        16.4726 
       46.4120        15.1748      4723.3335       0.172100
