~Version Information Block
VERS .                 2.00:  CWLS LOG ASCII STANDARD - VERSION 2.00
WRAP .                   NO:  One line per depth step
~Well Information Block
#MNEM.UNIT        Data Type   Information
#---------- ----------------  -----------
STRT .M          3457.23500:  START DEPTH
STOP .M          3635.08580:  STOP DEPTH
STEP .M             0.15240:  STEP
NULL .              -999.25:  NULL VALUE
COMP .                     :  COMPANY
WELL .          NO_15/9-F-5:  WELL
FLD  .                     :  FIELD
LOC  .                     :  LOCATION
CTRY .                     :  COUNTRY
STAT .                     :  STATE
CNTY .                     :  COUNTY
SRVC .                     :  SERVICE COMPANY
DATE .                     :  DATE
API  .                     :  API NUMBER
UWI  .                     :  UNIQUE WELL ID
~Curve Information Block
#MNEM.UNIT         API CODE   Curve Description
#---------- ----------------  -----------------
DEPTH.M                    :  
SAT201IC_BHOF.                     :  
SAT201IC_BVW.                     :  
SAT201IC_CRRA.                     :  Near-Far Count Rate Ratio
SAT201IC_FBEF.UA                   :  RST Far Effective Beam Current
SAT201IC_FCOR.                     :  
SAT201IC_GR.GAPI                 :  Gamma Ray
SAT201IC_NCOR.                     :  
SAT201IC_SO.                     :  
SAT201IC_SW.                     :  
SAT201IC_WPRE.PSI                  :  Well Pressure
SAT201IC_WTEP.DEGC                 :  Well Temperature
SAT201SI_BSAL.PPM                  :  Borehole Salinity
SAT201SI_GR.GAPI                 :  Gamma Ray
SAT201SI_IRAT.                     :  RST Inelastic Ratio
SAT201SI_RSCF.                     :  RST Far Detector Effective Unregulated Capture Count Rate
SAT201SI_RSCN.                     :  RST Near Detector Effective Unregulated Capture Count Rate
SAT201SI_SIGR.CU                   :  Formation Sigma (Neutron Capture Cross Section)
SAT201SI_TPHI.V/V                  :  Thermal Decay Porosity
~Parameter Information Block
#MNEM.UNIT            Value   Description
#---------- ----------------  -----------
CUR_INT_BOT.M           3635.2382:  
PROJECT.     SLEIPNER_OST@st-vlinapp01:  
SET  .            RSTD_0912:  
~Other Information Block
# 
~A       DEPTH  SAT201IC_BHOF   SAT201IC_BVW  SAT201IC_CRRA  SAT201IC_FBEF  SAT201IC_FCOR    SAT201IC_GR  SAT201IC_NCOR    SAT201IC_SO    SAT201IC_SW  SAT201IC_WPRE  SAT201IC_WTEP  SAT201SI_BSAL    SAT201SI_GR  SAT201SI_IRAT  SAT201SI_RSCF  SAT201SI_RSCN  SAT201SI_SIGR  SAT201SI_TPHI 
# ...
    3470.49380   -999.2500000    -999.250000         3.1239       118.3242      0.0259100        47.5076      0.0252200    -999.250000      -999.2500      5006.9385        96.3059     41326.0977        33.1393       0.312500         3.5786         5.4153        35.7993       0.362400
    3470.64620   -999.2500000    -999.250000         3.1070       116.9885      0.0182400        45.9145      0.0384800    -999.250000      -999.2500      5007.0762        96.3116     40960.6992        31.8355       0.317400         3.5276         5.5682        34.9374       0.356600
    3470.79860   -999.2500000    -999.250000         3.0811       116.5052      0.0296300        43.4982      0.0431900    -999.250000      -999.2500      5007.2212        96.3128     40218.3984        29.4328       0.316300         3.8238         5.5736        33.9101       0.335200
    3470.95100   -999.2500000    -999.250000         3.0795       115.1874      0.0387500        41.4933      0.0408400    -999.250000      -999.2500      5007.3564        96.3139     40150.1992        26.5264       0.323300         4.2243         5.8069        30.7681       0.310000
    3471.10340   -999.2500000    -999.250000         3.0499       112.3359      0.0450700        39.5940      0.0369500    -999.250000      -999.2500      5007.5054        96.3175     39328.3008        26.0226       0.326300         5.3988         6.0647        28.3447       0.267300
    3471.25580   -999.2500000    -999.250000         2.9892       110.2615      0.0551800        38.0213      0.0361900    -999.250000      -999.2500      5007.6465        96.3180     38426.8008        24.3507       0.333100         5.9161         6.7761        26.6119       0.232600
    3471.40820   -999.2500000    -999.250000         2.9531       106.8605      0.0429400        35.7509      0.0351700    -999.250000      -999.2500      5007.7861        96.3179     37994.7031        22.1196       0.331700         6.4748         6.9144        25.9622       0.207000
    3471.56060   -999.2500000    -999.250000         2.8899       105.0767      0.0428100        33.6037      0.0357000    -999.250000      -999.2500      5007.9448        96.3219     37744.7031        21.2892       0.334300         6.8447         7.1232        25.0928       0.196500
    3471.71300   -999.2500000    -999.250000         2.8696       103.3291      0.0443500        31.8234      0.0326900    -999.250000      -999.2500      5008.0815        96.3228     37197.1992        19.2962       0.340200         7.2359         7.4886        23.5989       0.191500
    3471.86540   -999.2500000    -999.250000         2.8182       102.1987      0.0503300        30.6041      0.0256200    -999.250000      -999.2500      5008.2446        96.3254     36736.8008        17.1509       0.346300         7.6188         7.6490        22.0854       0.179100
    3472.01780   -999.2500000    -999.250000         2.7818       101.9076      0.0427900        30.0073      0.0109300    -999.250000      -999.2500      5008.3774        96.3262     36594.1016        16.3205       0.347100         8.3881         8.0245        19.9081       0.160800
    3472.17020   -999.2500000    -999.250000         2.7649       103.4560      0.0485200        30.4547      0.0043700    -999.250000      -999.2500      5008.5415        96.3268     36008.0977        16.5336       0.344300         8.8974         7.9804        17.7107       0.140500
    3472.32260   -999.2500000    -999.250000         2.7891       102.6394      0.0545300        30.2966      0.0065400    -999.250000      -999.2500      5008.6782        96.3286     35439.6992        15.3904       0.343900        10.2318         8.4323        15.6220       0.128300
    3472.47500   -999.2500000    -999.250000         2.7425       102.8629      0.0608900        30.0851      0.0150500    -999.250000      -999.2500      5008.8472        96.3290     34848.7031        16.2458       0.345100        11.6335         9.8703        14.2144       0.123400
    3472.62740   -999.2500000    -999.250000         2.7338       103.5962      0.0616400        29.4961      0.0206700    -999.250000      -999.2500      5008.9707        96.3302     34516.1016        16.9018       0.340700        12.8388        10.3728        13.3346       0.121500
    3472.77980   -999.2500000    -999.250000         2.7383       103.7772      0.0747300        27.8004      0.0250800    -999.250000      -999.2500      5009.1191        96.3309     34688.0000        17.1731       0.334900        13.2471        10.5956        12.6110       0.123400
    3472.93220   -999.2500000    -999.250000         2.7357       103.6421      0.0949900        26.4901      0.0213100    -999.250000      -999.2500      5009.2656        96.3332     34754.1016        15.0970       0.336900        13.3019        10.8502        12.0052       0.127700
    3473.08460   -999.2500000    -999.250000         2.7278       104.4813      0.0949300        26.0408      0.0152800    -999.250000      -999.2500      5009.4019        96.3327     34537.3984        14.5794       0.340700        13.4036        11.0481        11.6162       0.134700
    3473.23700     -0.0008200    -999.250000         2.7480       104.3007      0.0890800        25.5627      0.0125200       0.286600      -999.2500      5009.5552        96.3330     34346.2969        14.2362       0.341400        14.0317        11.2501        11.5783       0.143800
    3473.38940     -0.0006500       0.000000         2.7428       104.7595      0.0871500        25.8689      0.0158900       0.273600         0.0000      5009.6831        96.3328     34015.5977        14.0092       0.337300        13.3740        11.6686        11.9335       0.154300
    3473.54180      0.0055600       0.000000         2.7435       104.9616      0.0934800        27.3753      0.0150900       0.280100         0.0000      5009.8379        96.3333     33617.0000        15.3157       0.335500        13.1169        11.7743        12.4754       0.165300
    3473.69420      0.0115600       0.000000         2.7446       105.7759      0.0834100        28.7481      0.0172700       0.252900         0.0000      5009.9883        96.3336     33754.3008        17.8900       0.338100        12.2715        10.8560        13.0196       0.175700
    3473.84660      0.0113900       0.000000         2.7636       106.4423      0.0776100        30.7743      0.0270100       0.237400         0.0000      5010.1362        96.3325     33910.0000        21.4608       0.336700        11.2878        10.4756        13.7117       0.182900
    3473.99900      0.0113600       0.000000         2.7792       106.9070      0.0750500        32.0355      0.0286400       0.231500         0.0000      5010.2979        96.3317     34243.0000        21.8040       0.332900        11.1121        10.6226        14.1909       0.188200
    3474.15140      0.0117000       0.016290         2.7903       107.2026      0.0608700        33.1485      0.0302100       0.199100         0.0811      5010.4277        96.3319     34408.6016        21.8649       0.332800        10.9874        10.6972        14.6415       0.187300
    3474.30380      0.0120300       0.054300         2.7834       107.6195      0.0441900        33.9017      0.0353800       0.158600         0.2632      5010.5591        96.3307     33672.9023        20.9875       0.334500        10.9354        10.3385        14.4399       0.186300
    3474.45620      0.0123300       0.083170         2.8062       107.0075      0.0241300        33.9862      0.0296500       0.108800         0.4009      5010.7090        96.3298     34151.1016        20.6553       0.339600        11.2314        10.5505        14.4744       0.182600
    3474.60860      0.0123300       0.104290         2.7825       108.1422      0.0104100        34.7043      0.0191100       0.073400         0.4994      5010.8550        96.3288     33891.6016        18.8035       0.341200        11.2293        10.5445        14.5020       0.183500
    3474.76100      0.0107900       0.116670         2.8137       108.0799     -0.0072700        35.4271      0.0245800       0.026400         0.5529      5010.9985        96.3277     33304.5000        20.5224       0.339200        11.2891        10.7501        14.8221       0.183800
