~Version Information Block
VERS .                 2.00:  CWLS LOG ASCII STANDARD - VERSION 2.00
WRAP .                  YES:  Multiple lines per depth step
~Well Information Block
#MNEM.UNIT        Data Type   Information
#---------- ----------------  -----------
STRT .M          3438.44880:  START DEPTH
STOP .M          3636.26400:  STOP DEPTH
STEP .M             0.15240:  STEP
NULL .              -999.25:  NULL VALUE
COMP .              Statoil:  COMPANY
WELL .          NO_15/9-F-5:  WELL
FLD  .                Volve:  FIELD
LOC  .                Volve:  LOCATION
CTRY .               Norway:  COUNTRY
STAT .                     :  STATE
CNTY .                     :  COUNTY
SRVC .         Schlumberger:  SERVICE COMPANY
DATE .           11/03/2015:  DATE
API  .                     :  API NUMBER
UWI  .             15/9-F-5:  UNIQUE WELL ID
LATI .     58° 26' 29.66" N:  LATITUDE
LONG .      1° 53' 14.99" E:  LONGITUDE
~Curve Information Block
#MNEM.UNIT         API CODE   Curve Description
#---------- ----------------  -----------------
DEPTH.M                    :  Depth Index
BSAL .PPM                  :  (RST-D)                 (6in)                   Borehole Salinity
CCLC .V                    :  (PSTP-B)                (1in)                   CCL Computed Amplitude
CIRF .                     :  (RST-D)                 (6in)                   Capture to Inelastic Rat
CIRN .                     :  (RST-D)                 (6in)                   Capture to Inelastic Rat
CVEL .M/SEC                 :  (WLWorkflow)            (1in)                   Cable Velocity
DSIG .CU                   :  (RST-D)                 (6in)                   Sigma Difference
FBEF .UA                   :  (RST-D)                 (6in)                   Far Effective Beam Curre
GR   .GAPI                 :  (PSTP-B)                (6in)                   Gamma Ray
IRAT .                     :  (RST-D)                 (6in)                   Inelastic Ratio
RB_PCMS.DEG                  :  (PCMS-A)                (6in)                   Relative Bearing
RSCF .                     :  (RST-D)                 (6in)                   Far Detector Effective U
RSCN .                     :  (RST-D)                 (6in)                   Near Detector Effective
SFFA .CU                   :  (RST-D)                 (6in)                   Sigma Formation Far Appa
SIBF .CU                   :  (RST-D)                 (6in)                   Sigma Borehole Fluid
SIGM .CU                   :  (RST-D)                 (6in)                   Formation Sigma (Neutron
TENS .LBF                  :  (WLWorkflow)            (1in)                   Cable Tension
TPHI .V/V                  :  (RST-D)                 (6in)                   Thermal Decay Porosity
WPRE .BAR                  :  (PSTP-B)                (6in)                   Well Pressure
WTEP .DEGC                 :  (PSTP-B)                (6in)                   Well Temperature
~Parameter Information Block
#MNEM.UNIT            Value   Description
#---------- ----------------  -----------
APD  .M                  54:  Elevation of Depth Reference (LMF) Above Permanent Datum
CLAB .              Country:  :County Label
ECF  .M             -999.25:  Elevation of Casing Flange above Permanent Datum
EDF  .M                  54:  Elevation of Drill Floor Above Permanent Datum
EGL  .M                 -91:  Elevation of Ground Level Above Permanent Datum
EKB  .M             -999.25:  Elevation of Kelly Bushing Above Permanent Datum
EPD  .M                   0:  Elevation of Permanent Datum (PDAT) above Mean Sea Level
FL1  .            North Sea:  Field Location Line 1
FL2  .     Norwegian Sector:  Field Location Line 2
LMF  .                   DF:  Logging Measured From
LUL  .                 NOBO:  Logging Unit Location
LUN  .          ONCC-A 3837:  Logging Unit Number
PDAT .                  MSL:  Local Permanent Datum
RIGN .      Maersk Inspirer:  Rig Name
RIGTYP.               Jackup:  Rig Type
SON  .           C2TQ-00038:  Service Order Number
TAPE_NAME.     RST_SIGMA__03Nov15_171237.las:  
TOOL_STRING.              UNKNOWN:  
WN   .             15/9-F-5:  WELL NAME
PROJECT.     SLEIPNER_OST@st-vlinapp01:  
SET  .       RSTD_1115_SIG1:  
~Other Information Block
~Ascii Log Data
# ...
    3603.04080 
    37450.7500        -0.0075         2.6625       0.765380     -0.0759460 
        0.4609       104.2607        24.0988       0.320540       352.7300 
        9.1678         8.0403        13.9038        35.2474        12.1085 
     4106.6006       0.171010       368.9042        69.5779
    3603.19320 
    36989.8906        -0.0084         2.7489       0.761710     -0.0767157 
        0.3610       109.5844        22.6400       0.322080       352.6555 
        8.9169         7.6089        13.8989        35.0826        12.1298 
     4094.0002       0.171660       368.8947        69.5199
    3603.34560 
    37123.2812         0.0045         2.6889       0.777550     -0.0762077 
        0.1728       105.7575        22.0393       0.321210       352.5503 
        9.0172         7.9420        14.1321        35.1303        12.0400 
     4114.9995       0.172820       368.9173        69.4700
    3603.49800 
    36605.8008         0.0247         2.7067       0.770020     -0.0762000 
       -0.0355       101.9660        20.6276       0.322620       352.3192 
        9.4340         8.1049        13.6760        34.9453        12.1901 
     4088.2002       0.171690       368.9267        69.4414
    3603.65040 
    36596.1914         0.0011         2.8289       0.806650     -0.0756958 
       -0.2931       106.0443        19.0941       0.322410       352.2859 
        9.3813         8.1480        14.3825        34.9419        12.0937 
     4125.5991       0.173390       368.9345        69.3796
    3603.80280 
    36858.7500         0.0442         2.7936       0.798480     -0.0756920 
       -0.4511       105.9788        19.3515       0.324050       352.2473 
        9.6463         8.4448        13.8748        35.0357        12.0858 
     4107.6011       0.173420       368.9351        69.3093
    3603.95520 
    36169.8320        -0.0571         2.8002       0.819890     -0.0759535 
       -0.5232       106.7566        18.6540       0.326760       352.0799 
        9.2293         8.0482        13.6675        34.7895        11.7318 
     4131.1992       0.176430       368.9523        69.2584
    3604.10760 
    36027.6992        -0.0392         2.8236       0.825720     -0.0749375 
       -0.7011       106.0357        18.0533       0.326960       352.0463 
        9.3869         8.2925        13.3321        34.7388        11.5684 
     4138.6001       0.178220       368.9554        69.1549
    3604.26000 
    36018.8594         0.1343         2.8556       0.820740     -0.0764502 
       -0.6627       102.4455        16.9793       0.324340       352.0979 
        9.8191         8.4686        13.3885        34.7356        11.5678 
     4127.0000       0.180290       368.9659        69.0927
    3604.41240 
    35306.5000        -0.0100         2.8262       0.822080     -0.0757830 
       -0.7352       106.9215        15.6894       0.324170       352.3048 
        9.4723         8.7011        13.6525        34.4813        11.8346 
     4158.1675       0.181460       368.9750        69.0254
    3604.56480 
    35647.6094        -0.0108         2.7668       0.821360     -0.0762000 
       -0.6628       106.9989        13.9732       0.324880       352.3224 
        8.9892         8.0264        14.1158        34.6031        12.0419 
     4080.5994       0.179890       368.9852        68.9975
    3604.71720 
    35463.1016        -0.0672         2.7658       0.807050     -0.0762077 
       -0.7183       108.4312        15.3572       0.330650       352.2584 
        8.9443         7.8974        14.0022        34.5372        12.2169 
     4120.7998       0.177650       368.9964        68.9513
    3604.86960 
    35403.9180        -0.0429         2.7375       0.822410     -0.0754418 
       -0.6949       105.8828        14.4964       0.328190       352.1284 
        8.7028         7.5727        14.1689        34.5161        12.1858 
     4154.7998       0.178190       368.9993        68.8935
    3605.02200 
    35505.9688        -0.0629         2.7594       0.798560     -0.0759498 
       -0.6219       107.1549        14.5822       0.325590       351.9638 
        8.7958         7.7799        14.0153        34.5525        12.3633 
     4087.3997       0.178580       369.0172        68.8598
    3605.17440 
    35212.5391        -0.0009         2.7173       0.799830     -0.0751480 
       -0.6210       106.1530        15.0140       0.320300       351.8913 
        9.0221         8.0228        14.5114        34.4478        12.2478 
     4119.1675       0.181600       369.0202        68.8077
    3605.32680 
    34337.3281         0.0115         2.7166       0.770390     -0.0754418 
       -0.5571       108.3151        15.6922       0.319980       351.7354 
        8.8001         7.6590        13.8159        34.1357        12.5175 
     4108.7993       0.179450       369.0303        68.7823
    3605.47920 
    34379.5703         0.1481         2.7188       0.799330     -0.0759460 
       -0.5294       110.7490        13.4611       0.323270       351.6269 
        8.4853         7.6952        14.8044        34.1508        12.4748 
     4144.2002       0.180090       369.0452        68.7664
    3605.63160 
    34305.4688         0.0181         2.6525       0.801380     -0.0749338 
       -0.5488       104.9579        14.0645       0.324780       351.4594 
        8.6908         7.8195        14.3888        34.1244        12.7238 
     4174.0005       0.177270       369.0432        68.7468
    3605.78400 
    34106.6016        -0.0997         2.7287       0.784770     -0.0753658 
       -0.5843       106.7511        13.1428       0.326250       351.3876 
        8.7839         7.7543        14.5620        34.0535        12.4862 
     4156.8345       0.178040       369.0674        68.7468
    3605.93640 
    34082.2305        -0.0644         2.7778       0.820160     -0.0739102 
       -0.5403       106.2641        13.1428       0.323490       351.6385 
        9.1786         8.2295        14.1057        34.0448        12.3829 
     4091.5991       0.176810       369.0670        68.7430
    3606.08880 
    33581.0195         0.1035         2.7618       0.812910     -0.0749338 
       -0.5629       104.2827        13.5580       0.320630       352.1744 
        9.4502         8.3618        14.0894        33.8663        12.1153 
     4153.7993       0.176390       369.0706        68.7456
    3606.24120 
    33739.7305        -0.0615         2.8826       0.798010     -0.0762000 
       -0.7070       111.2727        14.9309       0.321720       352.4440 
        9.2811         8.1902        13.7770        33.9228        12.0650 
     4075.9998       0.172510       369.0984        68.7504
    3606.39360 
    33476.3906        -0.0085         2.7854       0.815640     -0.0756995 
       -0.7217       107.2077        14.5766       0.321620       352.7963 
        9.2249         8.2879        13.9675        33.8290        11.8517 
     4094.0002       0.173950       369.0879        68.7401
    3606.54600 
    33412.8008        -0.0753         2.8131       0.804820     -0.0755682 
       -0.7699       106.9388        15.0693       0.326540       352.4867 
        9.3624         8.3295        13.4781        33.8064        11.8090 
     4121.1660       0.174390       369.0996        68.7438
    3606.69840 
    33098.3906         0.2235         2.7483       0.834900     -0.0756995 
       -0.8006       106.2181        14.4687       0.323230       352.1306 
        9.1914         8.4315        13.6540        33.6945        11.7338 
     4088.4001       0.177370       369.1274        68.7530
    3606.85080 
    33073.3906        -0.0106         2.8533       0.804160     -0.0754418 
       -0.8301       108.7277        14.7483       0.321500       351.6217 
        9.2919         8.0542        13.7612        33.6856        11.7731 
     4177.7998       0.175030       369.1155        68.7438
    3607.00320 
    33501.5000        -0.0052         2.8620       0.810190     -0.0756883 
       -0.8948       107.5361        13.7185       0.321400       351.5437 
        9.3704         8.2502        13.6048        33.8380        11.7152 
     4139.4004       0.174730       369.1308        68.7470
