~Version Information Block
VERS .                 2.00:  CWLS LOG ASCII STANDARD - VERSION 2.00
WRAP .                   NO:  One line per depth step
~Well Information Block
#MNEM.UNIT        Data Type   Information
#---------- ----------------  -----------
STRT .M          3439.51560:  START DEPTH
STOP .M          3642.36000:  STOP DEPTH
STEP .M             0.15240:  STEP
NULL .              -999.25:  NULL VALUE
COMP .              Statoil:  COMPANY
WELL .          NO_15/9-F-5:  WELL
FLD  .                VOLVE:  FIELD
LOC  .            North Sea:  LOCATION
CTRY .                     :  COUNTRY
STAT .                     :  STATE
CNTY .                     :  COUNTY
SRVC .         Schlumberger:  SERVICE COMPANY
DATE .          16-Sep-2012:  DATE
API  .                     :  API NUMBER
UWI  .             15/9-F-5:  UNIQUE WELL ID
~Curve Information Block
#MNEM.UNIT         API CODE   Curve Description
#---------- ----------------  -----------------
DEPTH.M                    :  DEPTH (BOREHOLE)
BSAL .PPM                  :  Borehole Salinity
CCLC .V                    :  CCL
CIRF .                     :  RST Capture to Inelastic Ratio Far
CIRN .                     :  RST Capture to Inelastic Ratio Near
CVEL .M/MIN                 :  Cable Velocity
DSIG .CU                   :  Sigma Difference
FBEF .UA                   :  RST Far Effective Beam Current
GR   .GAPI                 :  Gamma Ray
IRAT .                     :  RST Inelastic Ratio
RSCF .                     :  RST Far Detector Effective Unregulated Capture Count Rate
RSCN .                     :  RST Near Detector Effective Unregulated Capture Count Rate
SFFA .CU                   :  RST Sigma Formation Far Apparent
SIBF .CU                   :  RST Sigma Borehole Fluid
SIGM .CU                   :  Formation Sigma (Neutron Capture Cross Section)
TENS .LBF                  :  Cable Tension
TPHI .V/V                  :  Thermal Decay Porosity
~Parameter Information Block
#MNEM.UNIT            Value   Description
#---------- ----------------  -----------
APD  .M           54.900002:  Elevation of Depth Reference (LMF) above Permanent Datum
BHS  .                 CASE:  Borehole Status (Open or Cased Hole)
BS   .IN                8.5:  Bit Size
BSAL .PPM       34972.17188:  Borehole Salinity
BSALOPT.              UNKNOWN:  Borehole Salinity Option
CSID .IN              6.184:  Casing Inner Diameter
CSIZ .IN                  7:  Current Casing Size
CWEI .LB/F               29:  Casing Weight
MATR .                 SAND:  Rock Matrix for Neutron Porosity Corrections
RUN  .                Run 1:  RUN NUMBER
PROJECT.     SLEIPNER_OST@st-vlinapp01:  
SET  .       RSTD_0912_SIG1:  
~Other Information Block
# 
~A       DEPTH           BSAL           CCLC           CIRF           CIRN           CVEL           DSIG           FBEF             GR           IRAT           RSCF           RSCN           SFFA           SIBF           SIGM           TENS           TPHI 
# ...
    3634.58760     38964.2969        -0.0240         2.2379     0.69400001       -4.57440         1.6149        79.1593        15.3093     0.32560000         9.3930         8.8300        17.3855        35.7894        15.6147      2766.6335     0.20580000
    3634.74000     38614.6016        -0.0240         2.1463     0.68970001       -4.61080         1.6045        74.6080        15.3093     0.32820001         9.7784         9.4235        17.0076        35.6641        15.5387      2768.3333     0.19740000
    3634.89240     38780.1992        -0.0240         2.1803     0.66570002       -4.57430         1.4774        74.7526        15.3093     0.33379999        10.1701         9.2732        17.5030        35.7234        15.4048      2764.8667     0.18400000
    3635.04480     38022.8984        -0.0240         2.1863     0.67119998       -4.58260         1.5169        72.1826        15.3093     0.32859999        10.3750         9.0074        16.9753        35.4521        15.7250      2767.0000     0.17190000
    3635.19720     38276.9023        -0.0240         2.2407     0.62849998       -4.59040         1.4696        78.2393        15.3093     0.32010001        10.0220         8.7725        17.9801        35.5431        16.0366      2766.4668     0.16530000
    3635.34960     38188.3984        -0.0240         1.9768     0.55299997       -4.57130         1.2326        76.4037        15.3093     0.31560001         9.2391         8.1397        18.4587        35.5114        16.1484      2765.6667     0.16769999
    3635.50200     37876.3008        -0.0240         1.8762     0.57359999       -4.60080         1.1858        71.6531        15.3093     0.32150000         9.3163         8.6348        17.3251        35.3997        16.1541      2762.3667     0.16930000
    3635.65440     38148.3008        -0.0240         2.1065     0.64389998       -4.61960         1.0948        73.7271        15.3093     0.33379999         9.9801         9.0265        18.0008        35.4971        15.5943      2771.5173     0.17050000
    3635.80680     38312.0977        -0.0240         2.1062     0.64579999       -4.57160         0.9490        72.9325        15.3093     0.33960000         9.9890         8.8363        16.7878        35.5557        15.4242      2765.8335     0.16660000
    3635.95920     38209.5000        -0.0240         2.1729     0.66369998       -4.57270         0.8493        73.3640        15.3093     0.33919999        10.2533         9.0336        16.8243        35.5190        15.0836      2771.0000     0.16300000
    3636.11160     37381.8008        -0.0240         2.1611     0.65249997       -4.56760         0.6222        75.4599        15.3093     0.33419999         9.9937         9.2104        16.9943        35.2227        14.9772      2778.1001     0.16030000
    3636.26400     38185.6992        -0.0240         2.2460     0.64310002       -4.57010         0.3572        72.4047        15.3093     0.33129999        10.8790         9.3628        16.4994        35.5104        15.0063      2770.6667     0.15860000
    3636.41640     38690.3008        -0.0240         2.2184     0.65160000       -4.56980         0.1934        72.9672        15.3093     0.33050001        10.8610         9.5493        16.9457        35.6912        15.1006      2770.6667     0.16260000
    3636.56880     39646.0977        -0.0240         2.1559     0.65219998       -4.56080         0.3126        73.8154        15.3093     0.33469999        10.2518         9.1902        17.2955        36.0338        15.2977      2767.2668     0.16769999
    3636.72120     39879.6992        -0.0240         2.0849     0.65230000       -4.54940         0.2153        70.5646        15.3093     0.33739999        10.3572         9.2028        17.1120        36.1176        15.3061      2769.5486     0.16980000
    3636.87360     41009.8984        -0.0240         2.0956     0.64090002       -4.56070         0.2112        71.7638        15.3093     0.34130001        10.3436         9.3695        16.9614        36.5234        15.1353      2765.1667     0.16490000
    3637.02600     39190.6016        -0.0240         2.1846     0.64660001       -4.60510         0.2646        72.7851        15.3093     0.33620000        10.2352         8.8686        16.7793        35.8705        15.3354      2771.0000     0.15250000
    3637.17840     40487.5000        -0.0240         2.2692     0.64800000       -4.63630         0.2088        74.5237        15.3093     0.34000000        10.5575         9.0434        17.7243        36.3358        15.2105      2785.3103     0.14420000
    3637.33080     39630.6016        -0.0240         2.1473     0.63129997       -4.57330         0.2461        71.0696        15.3093     0.33849999        10.4226         8.6191        16.6415        36.0283        15.2603      2785.7668     0.13940001
    3637.48320     39468.6992        -0.0240         2.1384     0.62129998       -4.58610         0.3588        72.6819        15.3093     0.34020001        10.3862         8.8189        16.9748        35.9702        14.9383      2774.3667     0.14280000
    3637.63560     38393.3008        -0.0240         2.1867     0.64029998       -4.57210         0.2805        71.4954        15.3093     0.33350000        10.6246         9.0931        16.7959        35.5848        14.9912      2773.6335     0.14410000
    3637.78800     39066.3984        -0.0240         2.1833     0.62849998       -4.57440         0.2763        71.7733        15.3093     0.33390000        10.4749         8.9201        16.8173        35.8260        14.8988      2779.6667     0.14640000
    3637.94040     40727.6016        -0.0240         2.1992     0.63169998       -4.57110         0.1765        72.9451        15.3093     0.33510000        10.6899         9.1758        16.7089        36.4220        14.8921      2775.3003     0.14610000
    3638.09280     36604.3008        -0.0240         2.2191     0.64880002       -4.57150         0.1155        73.0292        15.3093     0.33640000        10.6583         9.0916        16.8318        34.9447        14.8080      2775.5000     0.15740000
    3638.24520     45450.9023        -0.0240         2.1744     0.66140002       -4.56870         0.1764        75.8315        15.3093     0.33170000        10.0414         9.2287        16.6771        38.1231        14.9627      2772.1333     0.17039999
    3638.39760     45852.9023        -0.0240         2.1888     0.64690000       -4.55980        -0.4355        74.4255        15.3093     0.32460001        10.2798         9.3112        17.1659        38.2683        15.2930      2772.1667     0.18600000
    3638.55000  -3602084.7500        -0.0240     -3493.3391 -3489.49902344       -4.55270     -3486.8032        74.4255        15.3093 -3488.69628906     -3513.4897     -3511.0774     -3530.6396     -3583.1953     -3525.9751      2770.6001 -3488.35083008
    3638.70240      -999.2500        -0.0240      -999.2500  -999.25000000       -4.59480      -999.2500        74.4255        15.3093  -999.25000000      -999.2500      -999.2500      -999.2500      -999.2500      -999.2500      2767.3667  -999.25000000
    3638.85480      -999.2500        -0.0240      -999.2500  -999.25000000       -4.58700      -999.2500        74.4255        15.3093  -999.25000000      -999.2500      -999.2500      -999.2500      -999.2500      -999.2500      2777.4336  -999.25000000
    3639.00720      -999.2500        -0.0240      -999.2500  -999.25000000       -4.56770      -999.2500        74.4255        15.3093  -999.25000000      -999.2500      -999.2500      -999.2500      -999.2500      -999.2500      2775.0334  -999.25000000
    3639.15960      -999.2500        -0.0240      -999.2500  -999.25000000       -4.57680      -999.2500        74.4255        15.3093  -999.25000000      -999.2500      -999.2500      -999.2500      -999.2500      -999.2500      2778.6001  -999.25000000
    3639.31200      -999.2500        -0.0240      -999.2500  -999.25000000       -4.59110      -999.2500        74.4255        15.3093  -999.25000000      -999.2500      -999.2500      -999.2500      -999.2500      -999.2500      2788.5669  -999.25000000
