~Version Information Block
VERS .                 2.00:  CWLS LOG ASCII STANDARD - VERSION 2.00
WRAP .                   NO:  One line per depth step
~Well Information Block
#MNEM.UNIT        Data Type   Information
#---------- ----------------  -----------
STRT .M          3439.51560:  START DEPTH
STOP .M          3642.36000:  STOP DEPTH
STEP .M             0.15240:  STEP
NULL .              -999.25:  NULL VALUE
COMP .              Statoil:  COMPANY
WELL .          NO_15/9-F-5:  WELL
FLD  .                VOLVE:  FIELD
LOC  .            North Sea:  LOCATION
CTRY .                     :  COUNTRY
STAT .                     :  STATE
CNTY .                     :  COUNTY
SRVC .         Schlumberger:  SERVICE COMPANY
DATE .          16-Sep-2012:  DATE
API  .                     :  API NUMBER
UWI  .             15/9-F-5:  UNIQUE WELL ID
~Curve Information Block
#MNEM.UNIT         API CODE   Curve Description
#---------- ----------------  -----------------
DEPTH.M                    :  DEPTH (BOREHOLE)
BSAL .PPM                  :  Borehole Salinity
CCLC .V                    :  CCL
CIRF .                     :  RST Capture to Inelastic Ratio Far
CIRN .                     :  RST Capture to Inelastic Ratio Near
CVEL .M/MIN                 :  Cable Velocity
DSIG .CU                   :  Sigma Difference
FBEF .UA                   :  RST Far Effective Beam Current
GR   .GAPI                 :  Gamma Ray
IRAT .                     :  RST Inelastic Ratio
RSCF .                     :  RST Far Detector Effective Unregulated Capture Count Rate
RSCN .                     :  RST Near Detector Effective Unregulated Capture Count Rate
SFFA .CU                   :  RST Sigma Formation Far Apparent
SIBF .CU                   :  RST Sigma Borehole Fluid
SIGM .CU                   :  Formation Sigma (Neutron Capture Cross Section)
TENS .LBF                  :  Cable Tension
TPHI .V/V                  :  Thermal Decay Porosity
~Parameter Information Block
#MNEM.UNIT            Value   Description
#---------- ----------------  -----------
APD  .M           54.900002:  Elevation of Depth Reference (LMF) above Permanent Datum
BHS  .                 CASE:  Borehole Status (Open or Cased Hole)
BS   .IN                8.5:  Bit Size
BSAL .PPM       34972.17188:  Borehole Salinity
BSALOPT.              UNKNOWN:  Borehole Salinity Option
CSID .IN              6.184:  Casing Inner Diameter
CSIZ .IN                  7:  Current Casing Size
CWEI .LB/F               29:  Casing Weight
MATR .                 SAND:  Rock Matrix for Neutron Porosity Corrections
RUN  .                Run 1:  RUN NUMBER
PROJECT.     SLEIPNER_OST@st-vlinapp01:  
SET  .       RSTD_0912_SIG1:  
~Other Information Block
# 
~A       DEPTH           BSAL           CCLC           CIRF           CIRN           CVEL           DSIG           FBEF             GR           IRAT           RSCF           RSCN           SFFA           SIBF           SIGM           TENS           TPHI 
# ...
    3580.94280     34085.3008         0.1135         2.3780     0.73369998       -4.42760         0.3971        81.2479        26.7068     0.32620001        10.4660        10.0475        16.8208        34.0459        15.0771      2664.3547     0.20400000
    3581.09520     33580.3984         0.1391         2.2975     0.72250003       -4.40890         0.4707        77.7648        26.5229     0.32110000        10.4860         9.6624        16.8594        33.8661        14.8737      2653.4517     0.20200001
    3581.24760     33742.6992         0.2729         2.3711     0.72369999       -4.40390         0.4880        79.3304        28.0447     0.32240000        10.4418         9.7781        16.2695        33.9239        14.6247      2657.8389     0.20310000
    3581.40000     33516.8008        -0.0442         2.3504     0.73140001       -4.37820         0.4387        80.7201        27.4233     0.32249999        10.0414         9.5255        16.0747        33.8434        14.5028      2662.0000     0.21030000
    3581.55240     33802.5000        -0.0573         2.2763     0.74290001       -4.44650         0.3502        78.6794        27.6927     0.32550001        10.1514         9.8789        16.4953        33.9452        14.6887      2657.1614     0.21740000
    3581.70480     33484.2969         0.1382         2.2434     0.74860001       -4.45360         0.4530        79.8365        28.9355     0.32339999        10.0765        10.2177        16.8242        33.8319        14.9699      2658.3872     0.22059999
    3581.85720     34171.9023         0.0449         2.3169     0.72530001       -4.44540         0.4311        81.8490        29.5632     0.32069999         9.9329         9.6290        16.9174        34.0768        15.1602      2652.9355     0.22030000
    3582.00960     34543.2031        -0.4829         2.2887     0.71789998       -4.40570         0.3258        80.3316        28.9609     0.31790000         9.6978         9.2532        17.0619        34.2091        15.3645      2674.6130     0.22160000
    3582.16200     34994.0977        -0.0691         2.2867     0.73790002       -4.42830         0.2813        82.0147        30.2924     0.31690001         9.8188         9.9652        17.4308        34.3699        15.8916      2665.4194     0.22440000
    3582.31440     35534.4023        -0.0694         2.2966     0.74390000       -4.42340         0.2349        83.0953        31.6208     0.31799999         9.8110        10.0169        18.4920        34.5627        15.9618      2664.8064     0.23180000
    3582.46680     35951.0000         0.0429         2.2420     0.74040002       -4.42740         0.1012        83.1420        32.4197     0.31690001         9.3671         9.6317        17.2668        34.7114        16.2179      2673.7742     0.23549999
    3582.61920     35889.5000         0.0132         2.2773     0.73729998       -4.44430        -0.0451        85.8297        33.2630     0.31799999         9.0519         9.4882        18.2084        34.6894        16.2201      2673.4194     0.23850000
    3582.77160     36041.6992        -0.0637         2.2085     0.73049998       -4.41700        -0.1084        80.6620        34.3092     0.31940001         9.6576         9.9483        18.5067        34.7438        16.7018      2669.2903     0.23880000
    3582.92400     36641.0000        -0.2610         2.1359     0.71929997       -4.42650        -0.1851        80.4943        36.1734     0.31810001         9.1059         9.2393        18.7222        34.9579        16.9919      2664.5808     0.24850000
    3583.07640     36209.3008        -0.1508         2.0541     0.68339998       -4.42270        -0.0462        81.0631        37.3274     0.31999999         9.0729         9.4142        19.0940        34.8036        17.7153      2672.4517     0.26460001
    3583.22880     36725.5000         0.0656         1.8602     0.69919997       -4.43870         0.2670        78.0196        39.7241     0.32080001         8.1422         9.1776        20.7125        34.9881        18.4451      2654.4194     0.28740001
    3583.38120     36772.5977         0.5970         1.7026     0.66960001       -4.46320         0.3909        80.2640        42.6979     0.32290000         7.2343         8.6021        20.9658        35.0049        19.1632      2667.6130     0.30700001
    3583.53360     36881.5000         0.2390         1.6743     0.65609998       -4.43830         0.8041        82.8825        44.0421     0.31970000         7.0321         8.6552        21.3113        35.0438        19.4294      2657.4668     0.31729999
    3583.68600     37346.4023         0.0574         1.6639     0.63000000       -4.48960         1.1376        83.7318        44.3972     0.31299999         6.8984         8.1209        21.5726        35.2101        19.5293      2666.9688     0.31529999
    3583.83840     37224.8008        -0.2105         1.7603     0.63349998       -4.44870         1.4854        80.8132        44.5747     0.31650001         7.3740         8.2400        21.3202        35.1666        19.6831      2665.3335     0.30340001
    3583.99080     37973.5000        -0.0906         1.6313     0.62510002       -4.44320         1.8161        77.3126        43.0656     0.31770000         7.2320         8.2911        21.8194        35.4345        19.3668      2658.2258     0.28760001
    3584.14320     37518.3008        -0.4778         1.7364     0.62480003       -4.43410         2.2012        80.0755        40.1838     0.32110000         7.7012         8.6699        20.6542        35.2716        18.6999      2672.0000     0.26910001
    3584.29560     37638.0000         0.6102         1.9664     0.64889997       -4.44810         2.4464        82.6544        40.4167     0.32170001         8.2725         8.5307        19.3214        35.3144        17.7758      2659.6775     0.24840000
    3584.44800     37864.3984        -0.2307         1.9171     0.64249998       -4.40080         2.7325        79.8671        40.8352     0.32249999         8.1830         8.2706        19.0429        35.3954        17.2564      2664.5483     0.22920001
    3584.60040     37439.6992        -0.1876         2.0578     0.66219997       -4.42310         2.8246        80.9376        41.7229     0.32420000         8.4985         8.4314        19.0827        35.2435        16.9466      2660.6775     0.21359999
    3584.75280     36876.3984         0.1196         2.1205     0.66479999       -3.99920         2.6966        78.0740        41.1903     0.32449999         9.4857         9.0848        18.3675        35.0420        16.3451      2669.6877     0.20570000
    3584.90520     37104.0977         0.1182         2.1104     0.66549999       -3.96710         2.4394        75.4555        41.0983     0.32400000         9.8436         9.1215        17.1914        35.1234        15.7189      2651.4866     0.20340000
    3585.05760     37280.6016        -0.1304         2.2339     0.69279999       -4.73140         2.2547        80.8517        39.3437     0.32100001         9.8115         9.5422        17.1416        35.1866        15.4799      2654.3667     0.20870000
    3585.21000     37702.7031        -0.1805         2.1015     0.64399999       -4.65750         1.8898        82.0149        36.7421     0.31840000         9.0655         8.9572        17.5766        35.3376        16.0540      2652.8276     0.21740000
    3585.36240     37531.8984        -0.7396         2.0318     0.67460001       -4.24640         1.6059        78.9559        34.8780     0.31979999         8.6669         8.8088        18.8523        35.2765        16.9235      2653.1292     0.22820000
    3585.51480     37357.3008        -0.1407         2.0029     0.68900001       -4.16260         1.2876        81.1359        32.8648     0.32280001         8.3775         8.9538        19.7050        35.2140        17.9351      2660.0000     0.23940000
    3585.66720     37029.8008         0.3112         1.9756     0.66729999       -4.16980         1.1754        80.0805        32.0215     0.31979999         8.4856         8.8474        20.5756        35.0969        18.3044      2661.8184     0.25299999
