~Version Information Block
VERS .                 2.00:  CWLS LOG ASCII STANDARD - VERSION 2.00
WRAP .                  YES:  Multiple lines per depth step
~Well Information Block
#MNEM.UNIT        Data Type   Information
#---------- ----------------  -----------
STRT .M          3437.38200:  START DEPTH
STOP .M          3636.11160:  STOP DEPTH
STEP .M             0.15240:  STEP
NULL .              -999.25:  NULL VALUE
COMP .                     :  COMPANY
WELL .          NO_15/9-F-5:  WELL
FLD  .                     :  FIELD
LOC  .                     :  LOCATION
CTRY .                     :  COUNTRY
STAT .                     :  STATE
CNTY .                     :  COUNTY
SRVC .                     :  SERVICE COMPANY
DATE .                     :  DATE
API  .                     :  API NUMBER
UWI  .                     :  UNIQUE WELL ID
~Curve Information Block
#MNEM.UNIT         API CODE   Curve Description
#---------- ----------------  -----------------
DEPTH.M                    :  
BSAL .PPM                  :  (RST-D)                 (6in)                   Borehole Salinity Depths
CCLC .V                    :  (PSTP-B)                (1in)                   CCL Computed Amplitude D
CIRF .                     :  (RST-D)                 (6in)                   Capture to Inelastic Rat
CIRN .                     :  (RST-D)                 (6in)                   Capture to Inelastic Rat
CVEL .M/SEC                 :  (WLWorkflow)            (1in)                   Cable Velocity Depthshif
DSIG .CU                   :  (RST-D)                 (6in)                   Sigma Difference Depthsh
DSIG21.                     :  SIGM_1 -RSTD_0912_OW.SAT201SI_SIGR_1
FBEF .UA                   :  (RST-D)                 (6in)                   Far Effective Beam Curre
GR   .GAPI                 :  (PSTP-B)                (6in)                   Gamma Ray Depthshifted
IRAT .                     :  (RST-D)                 (6in)                   Inelastic Ratio Depthshi
RB_PCMS.DEG                  :  (PCMS-A)                (6in)                   Relative Bearing Depthsh
RSCF .                     :  (RST-D)                 (6in)                   Far Detector Effective U
RSCN .                     :  (RST-D)                 (6in)                   Near Detector Effective
SFFA .CU                   :  (RST-D)                 (6in)                   Sigma Formation Far Appa
SIBF .CU                   :  (RST-D)                 (6in)                   Sigma Borehole Fluid Dep
SIGM .CU                   :  (RST-D)                 (6in)                   Formation Sigma (Neutron
TENS .LBF                  :  (WLWorkflow)            (1in)                   Cable Tension Depthshift
TPHI .V/V                  :  (RST-D)                 (6in)                   Thermal Decay Porosity D
WPRE .BAR                  :  (PSTP-B)                (6in)                   Well Pressure Depthshift
WTEP .DEGC                 :  (PSTP-B)                (6in)                   Well Temperature Depthsh
~Parameter Information Block
#MNEM.UNIT            Value   Description
#---------- ----------------  -----------
PROJECT.     SLEIPNER_OST@st-vlinapp01:  
SET  .     RSTD_1115_SIG1_DS:  
~Other Information Block
~Ascii Log Data
# ...
    3465.11880 
    53548.1523        -0.0349         1.2412       0.478276     -0.0792559 
        3.6614         0.7725       107.4574        33.6321       0.315102 
      354.2625         3.9993         4.9188        28.9509        41.0616 
       26.3907      3941.8574       0.305238       360.1303        83.5464
    3465.27120 
    53455.7695         0.0092         1.3260       0.491665     -0.0785508 
        3.0441         0.9463       104.7793        32.5281       0.315239 
      354.3032         4.4275         5.1363        27.4733        41.0279 
       25.4277      3900.9856       0.297892       360.1366        83.5486
    3465.42360 
    53220.4375        -0.0155         1.4011       0.499546     -0.0791040 
        2.3814         1.1684       106.6825        31.7059       0.314898 
      354.3129         4.6575         5.2599        26.4450        40.9421 
       24.8745      3952.0601       0.293902       360.1489        83.5529
    3465.57600 
    52855.8281        -0.0086         1.3734       0.500026     -0.0795631 
        2.0538         1.4380       111.5559        32.1003       0.311475 
      354.5192         4.3562         5.1827        27.1931        40.8093 
       25.4839      3908.8848       0.299856       360.1620        83.5584
    3465.72840 
    52541.2617         0.0566         1.2384       0.467504     -0.0797076 
        1.9078         1.5159       108.7172        33.7929       0.309134 
      354.8558         3.9818         4.8604        29.2434        40.6947 
       26.9463      3933.6846       0.318290       360.1687        83.5646
    3465.88080 
    52219.7148         0.0581         1.1246       0.456253     -0.0797613 
        1.6914         1.5214       105.8629        35.0646       0.309368 
      354.9209         3.6715         4.7406        30.8068        40.5776 
       28.6880      3966.2378       0.344706       360.1795        83.5688
    3466.03320 
    52111.5312         0.0019         0.9949       0.450878     -0.0790855 
        1.6285         1.6779       106.1435        35.8368       0.308829 
      354.7842         3.2786         4.6599        32.4037        40.5382 
       30.1017      3943.3262       0.369345       360.1910        83.5708
    3466.18560 
    52181.6602        -0.0047         0.9618       0.448865     -0.0792516 
        1.7752         1.4648       108.7544        36.0512       0.305427 
      354.6819         3.1233         4.6939        33.4911        40.5638 
       30.5191      3923.8826       0.385849       360.1989        83.5753
    3466.33800 
    52322.4688         0.0064         0.9898       0.435009     -0.0793359 
        1.8747         1.0488       109.1189        37.3280       0.303749 
      354.4949         3.1761         4.4921        32.1176        40.6150 
       30.1073      3912.4873       0.391642       360.2108        83.5770
    3466.49040 
    52331.3086         0.0010         1.0008       0.442251     -0.0792532 
        1.9378         0.7109       107.5722        38.7745       0.305416 
      354.3162         3.2224         4.5564        31.2136        40.6182 
       29.7324      3927.0090       0.389925       360.2187        83.5795
    3466.64280 
    52169.2266        -0.0273         1.0132       0.453986     -0.0792508 
        2.0250         0.5928       108.5215        41.8441       0.309615 
      354.1829         3.2201         4.7061        32.3995        40.5592 
       30.2424      3918.4402       0.383624       360.2298        83.5807
    3466.79520 
    52294.3750        -0.0638         0.9695       0.438818     -0.0790913 
        2.2476         0.4073       108.1341        44.4174       0.311085 
      354.0602         3.0968         4.4883        33.7061        40.6048 
       31.1434      3901.7434       0.376088       360.2413        83.5813
    3466.94760 
    52679.5195        -0.0573         0.9276       0.420720     -0.0785110 
        2.6235         0.3809       109.2850        46.7560       0.311553 
      354.1755         2.8841         4.1117        33.9697        40.7451 
       31.9267      3932.8357       0.368507       360.2503        83.5843
    3467.10000 
    52891.2070         0.0095         0.9418       0.409412     -0.0788822 
        3.1373         0.5331       111.5605        47.3106       0.311530 
      354.2590         2.9201         4.1199        34.7788        40.8222 
       32.3194      3948.8792       0.362612       360.2588        83.5876
    3467.25240 
    53000.6094        -0.0112         0.9311       0.408880     -0.0791019 
        3.1238         0.5631       109.5953        47.7393       0.312881 
      354.1147         2.9439         4.1972        34.9065        40.8620 
       32.3613      3938.5000       0.364040       360.2700        83.5922
    3467.40480 
    53105.9219         0.0250         0.9370       0.429143     -0.0791529 
        2.8042         0.4221       106.4624        47.3325       0.312992 
      354.0290         3.0459         4.3819        34.0868        40.9004 
       32.2118      3979.3550       0.372772       360.2812        83.5965
    3467.55720 
    53511.2930         0.0232         0.9241       0.427487     -0.0795235 
        2.7224         0.6175       107.6911        46.8600       0.304254 
      354.0728         3.0082         4.3899        34.2847        41.0482 
       32.4765      3945.9749       0.384842       360.2903        83.6044
    3467.70960 
    54050.6250         0.0181         0.8945       0.391996     -0.0791045 
        2.5615         1.4158       114.6066        47.3471       0.289783 
      354.1787         2.8161         4.2382        35.6627        41.2449 
       33.7118      3939.9746       0.395554       360.3002        83.6165
    3467.86200 
    53952.5352         0.1937         0.7832       0.348092     -0.0779594 
        2.1062         0.3696       115.4993        48.9092       0.281686 
      354.1670         2.4853         3.9174        37.7572        41.2091 
       35.4655      3993.9038       0.405043       360.3113        83.6281
    3468.01440 
    53894.9688         0.0964         0.6826       0.354772     -0.0774763 
        1.8652        -0.4990       112.8770        51.6903       0.285383 
      354.1365         2.1479         3.7975        39.5010        41.1881 
       37.0179      3938.2029       0.413058       360.3210        83.6314
    3468.16680 
    54187.6523        -0.0203         0.6944       0.383661     -0.0774731 
        1.6207        -1.4883       113.2138        54.9519       0.294137 
      354.1482         2.1349         3.9921        40.2852        41.2949 
       37.6542      3938.9246       0.418546       360.3314        83.6326
    3468.31920 
    53840.2422        -0.0041         0.7171       0.392927     -0.0774747 
        1.4236        -0.8607       112.1978        57.6980       0.298933 
      354.0805         2.1942         3.9389        39.6339        41.1682 
       37.6359      3975.0371       0.421625       360.3415        83.6369
    3468.47160 
    53541.0625         0.0061         0.7124       0.383768     -0.0774731 
        1.1497        -0.0288       112.0820        58.3982       0.298031 
      353.9761         2.2123         3.9082        39.3956        41.0590 
       38.1393      3947.2683       0.419076       360.3520        83.6459
    3468.62400 
    53345.1602         0.0047         0.6839       0.378921     -0.0773207 
        0.7657         0.2217       115.0603        57.3818       0.297523 
      353.8479         2.0502         3.8214        41.7349        40.9876 
       38.6606      3933.2080       0.417932       360.3622        83.6593
    3468.77640 
    53210.7773        -0.0017         0.6750       0.384328     -0.0773681 
        0.5638         0.2968       113.7499        55.3483       0.294643 
      353.9251         1.9907         3.7170        41.2031        40.9386 
       39.3965      3983.2747       0.415881       360.3714        83.6668
    3468.92880 
    53063.7148        -0.0091         0.6486       0.375681     -0.0771778 
        0.9251         0.6605       112.5919        51.3665       0.292900 
      354.0253         1.9670         3.8165        41.5959        40.8850 
       39.7357      3995.2610       0.415298       360.3810        83.6668
