#------------------------------------------------------------------------------
#
#   Created by   : las_export
#   Created on   : 2009-06-18 13:07:55
#   Project      : VOLVE
#   User         : TONYG
#   Interpreters : *
#
#------------------------------------------------------------------------------
~VERSION INFORMATION
VERS. 2.0 : CWLS Log ASCII Standard - version 2.0
WRAP.  NO : One line per depth step

~WELL INFORMATION
#MNEMONIC   .UNIT                                           VALUE :DESCRIPTION
#------------------------------------------------------------------------------
STRT        .M                                       2560.0412 :START DEPTH
STOP        .M                                       3222.0668 :STOP DEPTH
STEP        .M                                          0.1524 :STEP
NULL        .                                        -999.2500 :NULL VALUE
COMP        .                                                  :COMPANY
WELL        .                                      15/9-F-15 C :WELL
FLD         .                                            VOLVE :FIELD
LOC         .                                          UNKNOWN :LOCATION
CNTY        .                                          UNKNOWN :COUNTY
STAT        .                                          UNKNOWN :STATE
CTRY        .                                           Norway :COUNTRY
SRVC        .                                          UNKNOWN :SERVICE COMPANY
DATE        .                                          UNKNOWN :LOG DATE
UWI         .                                   NO 15/9-F-15 C :UNIQUE WELL ID
XCOORD      .M                                   435053.550000 :SURFACE X
YCOORD      .M                                  6478560.360000 :SURFACE Y
LAT         .                                        58.441585 :LATITUDE
LON         .                                         1.887541 :LONGITUDE
ELEV        .M                                         54.9000 :SURFACE ELEV
ELEV_TYPE   .                                               KB :ELEV TYPE

~CURVE INFORMATION
#MNEMONIC   .UNIT          API CODE       : CURVE DESCRIPTION
#------------------------------------------------------------------------------
DEPTH       .M                            : Measured Depth
DT          .us/ft         UNKNOWN        : DT:UNKNOWN:rC:NONE:v1
GR          .API           UNKNOWN        : GR:UNKNOWN:rC:NONE:v1
~A     DEPTH           DT           GR 
# ...
  2864.84120    69.222092    19.108193 
  2864.99360    69.274094    19.644293 
  2865.14600    69.822052    17.862627 
  2865.29840    70.665131    16.169055 
  2865.45080    70.798180    15.702725 
  2865.60320    70.377419    17.230819 
  2865.75560    69.696732    17.834808 
  2865.90800    68.736076    19.334107 
  2866.06040    68.184937    19.832014 
  2866.21280    67.736702    21.288407 
  2866.36520    67.207573    20.197147 
  2866.51760    66.580231    18.849133 
  2866.67000    66.095787    18.338555 
  2866.82240    66.307602    19.049811 
  2866.97480    66.919151    21.635031 
  2867.12720    67.288628    22.905764 
  2867.27960    67.841957    22.511353 
  2867.43200    68.438026    20.335761 
  2867.58440    67.928261    20.492011 
  2867.73680    66.608307    19.410060 
  2867.88920    65.192627    19.087699 
  2868.04160    64.586189    15.631106 
  2868.19400    65.249107    15.535552 
  2868.34640    66.535942    14.465758 
  2868.49880    67.210289    15.421055 
  2868.65120    66.601982    15.940860 
  2868.80360    65.157478    17.705422 
  2868.95600    63.770790    20.004307 
  2869.10840    63.479660    22.504107 
  2869.26080    63.477730    22.461200 
  2869.41320    62.753471    20.872031 
  2869.56560    62.600540    17.785259 
  2869.71800    63.539169    16.863992 
  2869.87040    65.012169    18.146687 
  2870.02280    66.379501    20.549805 
  2870.17520    66.820953    22.033866 
  2870.32760    66.281174    23.291275 
  2870.48000    66.574677    21.791893 
  2870.63240    66.952766    21.136057 
  2870.78480    66.695778    18.916669 
  2870.93720    66.849983    20.035948 
  2871.08960    67.732643    21.560419 
  2871.24200    68.718719    22.925619 
  2871.39440    69.077118    22.926575 
  2871.54680    69.598030    21.364991 
  2871.69920    70.445084    20.775262 
  2871.85160    70.727432    19.959706 
  2872.00400    70.461960    18.859333 
  2872.15640    69.417236    18.487101 
  2872.30880    67.525482    18.697676 
  2872.46120    66.118057    19.960705 
  2872.61360    65.488083    21.267680 
  2872.76600    65.284462    21.802978 
  2872.91840    65.414627    20.964029 
  2873.07080    65.170631    20.793520 
  2873.22320    64.463707    21.354448 
  2873.37560    63.974140    22.256745 
  2873.52800    63.682510    20.357913 
  2873.68040    63.745209    19.382132 
  2873.83280    63.853439    18.794987 
  2873.98520    63.899891    18.545326 
  2874.13760    64.107300    18.139415 
  2874.29000    63.962391    19.294065 
  2874.44240    64.013618    22.250734 
  2874.59480    63.976910    24.229754 
  2874.74720    63.820229    24.476765 
  2874.89960    63.585991    24.068006 
  2875.05200    63.527420    21.693429 
  2875.20440    64.056633    21.001246 
  2875.35680    64.874962    18.738887 
  2875.50920    65.164001    18.312140 
  2875.66160    64.724037    16.930464 
  2875.81400    63.478539    17.206082 
  2875.96640    62.297260    18.445805 
  2876.11880    61.983219    19.752780 
  2876.27120    61.968670    20.321585 
  2876.42360    62.048470    19.774760 
  2876.57600    62.330269    20.251660 
  2876.72840    62.529442    20.517967 
  2876.88080    62.131672    19.549909 
  2877.03320    61.853691    17.830987 
  2877.18560    61.759769    17.667921 
  2877.33800    61.635960    18.813173 
  2877.49040    61.651821    20.424909 
  2877.64280    61.612190    19.856210 
  2877.79520    61.635899    19.693399 
  2877.94760    62.068260    19.932688 
  2878.10000    62.421219    21.000292 
  2878.25240    62.705582    20.281329 
  2878.40480    62.832619    18.569505 
  2878.55720    62.800220    16.357667 
  2878.70960    62.666069    16.959177 
  2878.86200    62.338341    17.182948 
  2879.01440    61.731579    17.492006 
  2879.16680    60.791710    18.559674 
  2879.31920    60.312771    18.429331 
  2879.47160    60.862541    19.976739 
  2879.62400    62.415379    19.758269 
  2879.77640    63.729259    20.365447 
  2879.92880    64.104431    18.892994 
  2880.08120    63.851452    17.700888 
  2880.23360    63.217510    17.767099 
  2880.38600    62.382999    18.944686 
  2880.53840    62.260792    19.882166 
  2880.69080    63.401310    20.383632 
  2880.84320    63.534901    20.849178 
  2880.99560    64.003242    19.756575 
  2881.14800    64.024696    18.161486 
  2881.30040    62.969101    17.600296 
  2881.45280    61.771339    18.356741 
  2881.60520    61.331890    20.163640 
  2881.75760    61.157452    18.734093 
  2881.91000    61.530991    18.427620 
  2882.06240    61.790340    18.131628 
  2882.21480    58.838741    20.100464 
  2882.36720    55.561050    20.055432 
  2882.51960    56.222969    19.621438 
  2882.67200    59.771358    20.307761 
  2882.82440    62.944241    20.578862 
  2882.97680    64.134132    19.447434 
  2883.12920    64.507767    16.806640 
  2883.28160    64.202370    16.569045 
  2883.43400    62.466412    17.446974 
  2883.58640    61.072781    17.872026 
  2883.73880    60.413410    17.035376 
  2883.89120    60.150200    15.382860 
  2884.04360    59.668301    14.571209 
  2884.19600    59.815319    15.050865 
  2884.34840    60.358650    15.072829 
  2884.50080    60.353489    14.710885 
  2884.65320    59.640839    14.130554 
  2884.80560    58.606289    14.296204 
  2884.95800    58.415421    14.051861 
  2885.11040    59.239571    14.495254 
  2885.26280    59.747070    14.809260 
  2885.41520    59.118221    15.061220 
  2885.56760    57.299961    14.334487 
  2885.72000    55.730381    14.304973 
  2885.87240    56.497929    14.916684 
  2886.02480    56.361179    15.222004 
  2886.17720    57.871361    14.786210 
  2886.32960    58.839561    14.318013 
  2886.48200    59.020031    15.045827 
  2886.63440    60.050079    17.253953 
  2886.78680    59.344299    18.582809 
  2886.93920    58.393009    18.899743 
  2887.09160    57.574650    18.049284 
  2887.24400    58.338638    17.373229 
  2887.39640    60.137360    16.776772 
  2887.54880    60.306278    15.104209 
  2887.70120    59.623081    15.665226 
  2887.85360    58.963959    16.336399 
  2888.00600    59.656429    17.178956 
  2888.15840    61.322498    16.200524 
  2888.31080    61.048771    15.401741 
  2888.46320    59.885349    16.241647 
  2888.61560    59.175480    15.300437 
  2888.76800    59.217701    16.652704 
  2888.92040    59.902309    16.949174 
  2889.07280    61.856251    19.715452 
  2889.22520    62.390808    18.540361 
  2889.37760    61.941139    18.696611 
  2889.53000    61.049541    17.676881 
  2889.68240    60.911228    18.250462 
  2889.83480    60.596180    17.578487 
  2889.98720    59.756748    17.348427 
  2890.13960    58.959160    17.938239 
  2890.29200    58.433929    18.638908 
  2890.44440    58.293079    19.089852 
  2890.59680    59.247952    18.862155 
  2890.74920    60.522491    18.333605 
  2890.90160    61.393909    19.386926 
  2891.05400    61.872459    18.756075 
  2891.20640    61.190208    17.926974 
  2891.35880    60.337551    15.885888 
  2891.51120    58.591450    14.880266 
  2891.66360    58.855099    16.774214 
  2891.81600    60.016350    18.656554 
  2891.96840    62.473900    19.889700 
  2892.12080    64.265839    19.746120 
  2892.27320    64.300461    18.918885 
  2892.42560    63.727650    18.223705 
  2892.57800    61.871880    17.883636 
  2892.73040    59.308701    18.134467 
  2892.88280    59.185570    19.612039 
  2893.03520    60.119339    19.230847 
  2893.18760    60.430050    19.046947 
  2893.34000    59.992001    17.770723 
  2893.49240    59.765560    17.590013 
  2893.64480    60.937302    17.997619 
  2893.79720    62.567219    19.616473 
  2893.94960    63.139320    21.534986 
  2894.10200    62.025169    23.831935 
  2894.25440    62.758530    25.743501 
  2894.40680    63.496571    24.522836 
  2894.55920    64.585258    22.973905 
  2894.71160    64.811623    20.551474 
  2894.86400    63.285759    19.894665 
  2895.01640    64.600639    18.896987 
  2895.16880    67.220596    18.872724 
