~Version Information Block
VERS .                 2.00:  CWLS LOG ASCII STANDARD - VERSION 2.00
WRAP .                   NO:  One line per depth step
~Well Information Block
#MNEM.UNIT        Data Type   Information
#---------- ----------------  -----------
STRT .M          3451.70760:  START DEPTH
STOP .M          3790.03560:  STOP DEPTH
STEP .M             0.15240:  STEP
NULL .              -999.25:  NULL VALUE
COMP .              Statoil:  COMPANY
WELL .        NO_15/9-F-1_C:  WELL
FLD  .                Volve:  FIELD
LOC  .            North Sea:  LOCATION
CTRY .               Norway:  COUNTRY
STAT .                     :  STATE
CNTY .                     :  COUNTY
SRVC .         Schlumberger:  SERVICE COMPANY
DATE .          27-Nov-2014:  DATE
API  .                     :  API NUMBER
UWI  .           15/9-F-1 C:  UNIQUE WELL ID
LATI .     58° 26' 29.91" N:  LATITUDE
LONG .      1° 53' 14.71" E:  LONGITUDE
~Curve Information Block
#MNEM.UNIT         API CODE   Curve Description
#---------- ----------------  -----------------
DEPTH.M                    :  DEPTH (BOREHOLE)
CVEL .M/SEC                 :  Cable Velocity
DFRB .DEG                  :  Calibrated Relative Bearing
FBEF .UA                   :  RST Far Effective Beam Current
FCOR .                     :  RST Far Carbon/Oxygen Ratio
FERD .                     :  RST Far IC Mode Capture Optimization
FIRD .                     :  RST Far Inelastic Optimization Resolution
GR   .GAPI                 :  Gamma Ray
NCOR .                     :  RST Near Carbon/Oxygen Ratio
NERD .                     :  RST Near IC Mode Capture Optimization
NIRD .                     :  RST Near Inelastic Optimization Resolution
PFC1 .IN                   :  PFCS CaliperX
PFC2 .IN                   :  PFCS CaliperY
TENS .LBF                  :  Cable Tension
~Parameter Information Block
#MNEM.UNIT            Value   Description
#---------- ----------------  -----------
APD  .M           54.900002:  Elevation of Depth Reference (LMF) above Permanent Datum
EPD  .C3                  0:  Elevation of Permanent Datum above Mean Sea Level
LMF  .                   KB:  Logging Measured From (Name of Logging Elevation Reference)
PDAT .                  MSL:  Permanent Datum
RUN  .                Run 1:  RUN NUMBER
TAPE_NAME.     Statoil_Volve_15-9-F-1 C_PLT-RST_28Nov14_ConCu_R1L18Up_IC2.las:  
TOOL_STRING.              UNKNOWN:  
WN   .           15/9-F-1 C:  WELL
PROJECT.     SLEIPNER_OST@st-vlinapp01:  
SET  .        RSTD_1114_IC2:  
~Other Information Block
# 
~A       DEPTH           CVEL           DFRB           FBEF           FCOR           FERD           FIRD             GR           NCOR           NERD           NIRD           PFC1           PFC2           TENS 
# ...
    3671.62080     -0.1712817       355.5720       125.6443        -0.3740         4.7041         4.7041        25.9552         0.2087         6.9443         6.9443         6.2174         6.0417      4437.9229
    3671.77320     -0.1704150       355.5720       129.1460        -0.0806         4.7361         4.7361        29.5196        -0.0429         6.9443         6.9443         6.2122         6.0759      4376.3076
    3671.92560     -0.1699833       355.5720       129.1460        -0.0806         4.7361         4.7361        28.4446         0.0244         6.9903         6.9903         6.2421         6.0880      4261.7856
    3672.07800     -0.1699567       355.5720       128.2450        -0.1631         4.7361         4.7361        33.0981         0.0244         6.9903         6.9903         6.2436         6.0834      4386.0000
    3672.23040     -0.1709550       355.5720       127.6261         0.0462         4.7361         4.7361        36.9596         0.1971         6.9903         6.9903         6.2510         6.0834      4445.4287
    3672.38280     -0.1702983       355.5720       124.6690         0.1810         4.7361         4.7361        40.0148        -0.5483         6.9903         6.9903         6.2533         6.0834      4620.9233
    3672.53520     -0.1698250       355.5720       124.6690         0.1810         4.7361         4.7361        44.4845         0.0258         6.9903         6.9903         6.2241         6.0649      4569.2310
    3672.68760     -0.1697633       355.5720       125.2857        -0.1002         4.7361         4.7361        49.1239         0.0258         6.9903         6.9903         6.2219         6.0261      4525.1426
    3672.84000     -0.1705167       355.5720       126.2380        -3.7624         4.7361         4.7361        46.4930        -0.0304         6.9903         6.9903         6.2219         6.0360      4465.4619
    3672.99240     -0.1715217       355.5720       124.9153         0.2106         4.7361         4.7361        45.5736        -0.0793         6.9903         6.9903         6.2309         6.0510      4414.7856
    3673.14480     -0.1711367       355.5720       124.9153         0.2106         4.7361         4.7361        49.3360        -0.0141         6.9903         6.9903         6.2485         6.0560      4305.2310
    3673.29720     -0.1718067       355.5720       122.5425         0.1357         4.7070         4.7070        47.3134        -0.0141         6.9903         6.9903         6.2354         6.0834      4445.3848
    3673.44960     -0.1708800       355.5720       127.3272         0.0513         4.7070         4.7070        44.7391         0.0534         7.1018         7.1018         6.2509         6.0834      4396.2861
    3673.60200     -0.1713217       355.5720       124.6928         0.2388         4.7070         4.7070        43.8197        -0.1679         7.1018         7.1018         6.2533         6.0834      4527.3081
    3673.75440     -0.1710833       355.5720       124.6928         0.2388         4.7070         4.7070        43.6499         0.1600         7.1018         7.1018         6.2485         6.0834      4505.2144
    3673.90680     -0.1712067       355.5720       122.8145        -0.0804         4.7070         4.7070        40.6937         0.1600         7.1018         7.1018         6.2376         6.0695      4477.1538
    3674.05920     -0.1711850       355.5720       123.9850        -0.1797         4.7070         4.7070        38.0487        -0.0887         7.1018         7.1018         6.2267         6.0510      4406.0771
    3674.21160     -0.1703983       355.5720       124.9775         0.4824         4.7070         4.7070        36.9030         0.0820         7.1018         7.1018         6.2243         6.0510      4360.2856
    3674.36400     -0.1706983       355.5720       124.9775         0.4824         4.7070         4.7070        38.1902         0.2341         7.1018         7.1018         6.2241         6.0556      4273.4619
    3674.51640     -0.1705650       355.5720       124.8726         0.3138         4.7070         4.7070        40.5664         0.2341         7.1018         7.1018         6.2219         6.0510      4360.0000
    3674.66880     -0.1703917       355.5720       125.3359         0.2718         4.7575         4.7575        40.3543         0.0473         7.1018         7.1018         6.2243         6.0585      4436.1538
    3674.82120     -0.1704867       355.5720       127.4274        -0.2431         4.7575         4.7575        40.7928        -0.1667         7.0987         7.0987         6.2219         6.0510      4533.6157
    3674.97360     -0.1700317       355.5720       127.4274        -0.2431         4.7575         4.7575        39.3642         0.1476         7.0987         7.0987         6.2219         6.0510      4569.5713
    3675.12600     -0.1703217       355.5720       121.6762        -0.2694         4.7575         4.7575        37.8931         0.1476         7.0987         7.0987         6.2219         6.0510      4550.7690
    3675.27840     -0.1702567       355.5720       122.0706         0.1165         4.7575         4.7575        35.1350         0.0161         7.0987         7.0987         6.2219         6.0510      4468.8569
    3675.43080     -0.1718167       355.5720       122.3077        -0.5734         4.7575         4.7575        34.7389        -0.5052         7.0987         7.0987         6.2219         6.0510      4466.2310
    3675.58320     -0.1706917       355.5720       119.2330        -2.1562         4.7575         4.7575        34.5550        -0.0008         7.0987         7.0987         6.2219         6.0510      4393.5718
    3675.73560     -0.1700117       355.5720       119.2330        -2.1562         4.7575         4.7575        37.3273        -0.1840         7.0987         7.0987         6.2243         6.0510      4476.6152
    3675.88800     -0.1695700       355.5720       120.8801        -0.0318         4.7575         4.7575        35.8563        -0.1840         7.0987         7.0987         6.2241         6.0510      4413.8569
    3676.04040     -0.1702000       355.5720       121.4683         0.0276         4.7199         4.7199        36.8323         0.1029         7.0987         7.0987         6.2219         6.0510      4441.1538
    3676.19280     -0.1707967       355.5720       120.7981        -1.7944         4.7199         4.7199        36.3372         0.2301         7.1242         7.1242         6.2219         6.0510      4387.0771
    3676.34520     -0.1711200       355.5720       120.7981        -1.7944         4.7199         4.7199        35.0501         0.0864         7.1242         7.1242         6.2219         6.0510      4344.1538
    3676.49760     -0.1716817       355.5720       124.6753        -1.8289         4.7199         4.7199        33.4659         0.0864         7.1242         7.1242         6.2219         6.0603      4223.1426
    3676.65000     -0.1713833       355.5720       125.1639        -0.0779         4.7199         4.7199        32.7304         0.0736         7.1242         7.1242         6.2219         6.0660      4234.2310
    3676.80240     -0.1717483       356.9830       125.1639        -0.0779         4.7199         4.7199        31.0189        -0.0208         7.1242         7.1242         6.2219         6.0718      4254.5000
    3676.95480     -0.1709067       355.5720       128.2210        -0.7081         4.7199         4.7199        29.7318        -0.0208         7.1242         7.1242         6.2219         6.0834      4442.0767
    3677.10720     -0.1705233       355.5720       123.8655         0.0025         4.7199         4.7199        29.3781        -0.4604         7.1242         7.1242         6.2219         6.0834      4569.7690
    3677.25960     -0.1703267       356.9830       122.0441         0.1674         4.7199         4.7199        27.5959        -0.1070         7.1242         7.1242         6.2219         6.0834      4598.2144
    3677.41200     -0.1698150       356.9830       123.8275         0.2729         4.6584         4.6584        28.8831         0.0690         7.1242         7.1242         6.2243         6.0809      4579.2310
