~Version Information Block
VERS .                 2.00:  CWLS LOG ASCII STANDARD - VERSION 2.00
WRAP .                   NO:  One line per depth step
~Well Information Block
#MNEM.UNIT        Data Type   Information
#---------- ----------------  -----------
STRT .M          3439.51560:  START DEPTH
STOP .M          3642.36000:  STOP DEPTH
STEP .M             0.15240:  STEP
NULL .              -999.25:  NULL VALUE
COMP .              Statoil:  COMPANY
WELL .          NO_15/9-F-5:  WELL
FLD  .                VOLVE:  FIELD
LOC  .            North Sea:  LOCATION
CTRY .                     :  COUNTRY
STAT .                     :  STATE
CNTY .                     :  COUNTY
SRVC .         Schlumberger:  SERVICE COMPANY
DATE .          16-Sep-2012:  DATE
API  .                     :  API NUMBER
UWI  .             15/9-F-5:  UNIQUE WELL ID
~Curve Information Block
#MNEM.UNIT         API CODE   Curve Description
#---------- ----------------  -----------------
DEPTH.M                    :  DEPTH (BOREHOLE)
BSAL .PPM                  :  Borehole Salinity
CCLC .V                    :  CCL
CIRF .                     :  RST Capture to Inelastic Ratio Far
CIRN .                     :  RST Capture to Inelastic Ratio Near
CVEL .M/MIN                 :  Cable Velocity
DSIG .CU                   :  Sigma Difference
FBEF .UA                   :  RST Far Effective Beam Current
GR   .GAPI                 :  Gamma Ray
IRAT .                     :  RST Inelastic Ratio
RSCF .                     :  RST Far Detector Effective Unregulated Capture Count Rate
RSCN .                     :  RST Near Detector Effective Unregulated Capture Count Rate
SFFA .CU                   :  RST Sigma Formation Far Apparent
SIBF .CU                   :  RST Sigma Borehole Fluid
SIGM .CU                   :  Formation Sigma (Neutron Capture Cross Section)
TENS .LBF                  :  Cable Tension
TPHI .V/V                  :  Thermal Decay Porosity
~Parameter Information Block
#MNEM.UNIT            Value   Description
#---------- ----------------  -----------
APD  .M           54.900002:  Elevation of Depth Reference (LMF) above Permanent Datum
BHS  .                 CASE:  Borehole Status (Open or Cased Hole)
BS   .IN                8.5:  Bit Size
BSAL .PPM       34972.17188:  Borehole Salinity
BSALOPT.              UNKNOWN:  Borehole Salinity Option
CSID .IN              6.184:  Casing Inner Diameter
CSIZ .IN                  7:  Current Casing Size
CWEI .LB/F               29:  Casing Weight
MATR .                 SAND:  Rock Matrix for Neutron Porosity Corrections
RUN  .                Run 1:  RUN NUMBER
PROJECT.     SLEIPNER_OST@st-vlinapp01:  
SET  .       RSTD_0912_SIG1:  
~Other Information Block
# 
~A       DEPTH           BSAL           CCLC           CIRF           CIRN           CVEL           DSIG           FBEF             GR           IRAT           RSCF           RSCN           SFFA           SIBF           SIGM           TENS           TPHI 
# ...
    3595.57320     40434.3008         0.0980         2.1160     0.63840002       -4.80460         0.5507        71.3527        29.8422     0.33860001        10.3946         9.0673        17.1267        36.3167        15.5896      2662.5518     0.16230001
    3595.72560     41375.0977        -0.2002         2.0604     0.63150001       -4.80980         0.4731        69.8985        28.7770     0.34369999        10.3815         8.9042        16.5383        36.6546        15.0766      2650.7856     0.16339999
    3595.87800     41814.3984        -0.3217         2.1792     0.65270001       -4.80520         0.3303        74.0295        25.5306     0.34940001        10.4246         9.2356        16.8418        36.8125        14.8678      2651.6208     0.17110001
    3596.03040     41427.3984        -0.1946         2.0439     0.67470002       -4.75420         0.3804        71.2337        24.8993     0.34180000         9.9629         8.9947        16.5086        36.6734        15.0004      2657.0359     0.18030000
    3596.18280     41145.6992        -0.0795         2.1845     0.66610003       -4.75980         0.2793        77.6323        25.1973     0.33539999         9.7947         9.0920        16.9381        36.5722        14.9811      2645.1726     0.18750000
    3596.33520     41093.6016        -0.1224         2.2865     0.68460000       -4.80430         0.2299        75.4464        24.6647     0.32740000        10.2850         9.3471        16.7914        36.5534        15.1587      2649.7932     0.18900000
    3596.48760     41390.2031        -0.1045         2.1909     0.67119998       -4.82110         0.3590        75.9535        24.2208     0.32640001         9.8907         9.1056        17.0510        36.6601        15.1124      2661.9287     0.18480000
    3596.64000     40758.0000        -0.7554         2.3059     0.68570000       -4.79900         0.2965        78.3685        26.8458     0.33430001         9.8636         8.6721        16.8081        36.4329        15.2703      2644.6553     0.17850000
    3596.79240     40744.0000         0.0399         2.1796     0.66450000       -4.80240         0.5309        75.1780        26.9287     0.33899999         9.7825         8.6094        17.2810        36.4279        15.0283      2648.2859     0.17410000
    3596.94480     40720.0000        -0.1478         2.1564     0.67619997       -4.79120         0.8761        73.7107        26.3771     0.33860001        10.4113         9.4426        16.3499        36.4193        15.0258      2659.7932     0.16800000
    3597.09720     40242.5977         0.3795         2.1669     0.64039999       -4.80410         0.9783        71.9419        27.2648     0.33640000        10.6068         9.1774        16.8197        36.2479        14.5511      2666.4285     0.16360000
    3597.24960     40092.3984         0.4097         2.1765     0.61710000       -4.78670         1.2391        71.6743        26.2883     0.33739999        11.0165         9.1623        15.8825        36.1939        14.2576      2671.2759     0.15140000
    3597.40200     39439.0977        -0.0927         2.0913     0.64150000       -4.81090         1.3153        68.4318        24.7792     0.34290001        11.3795         9.7651        15.4942        35.9596        13.8496      2666.0000     0.14420000
    3597.55440     39405.3008         0.1015         2.2213     0.61330003       -4.77810         1.3692        69.5047        22.8263     0.34500000        11.8385         9.1403        15.6596        35.9474        13.7512      2660.5356     0.13429999
    3597.70680     38860.1016        -0.4630         2.0297     0.59069997       -4.78760         1.1703        69.8608        21.4472     0.34590000        11.1824         9.2894        15.6520        35.7520        13.6782      2653.8276     0.13519999
    3597.85920     39242.1016        -0.3330         1.9928     0.59119999       -4.79250         1.0546        68.7951        21.0034     0.34570000        10.4873         8.8907        15.3698        35.8889        13.3377      2651.8621     0.13670000
    3598.01160     38239.6016         0.0834         2.1044     0.60149997       -4.79570         0.9181        69.1031        21.4472     0.34680000        11.3276         9.1918        14.7053        35.5298        13.2600      2657.0715     0.14049999
    3598.16400     37951.0977         0.0498         2.1620     0.62900001       -4.82660         0.6088        70.6566        21.8911     0.33440000        11.2584         9.3424        15.4951        35.4264        13.4043      2656.6206     0.14520000
    3598.31640     37838.9023        -0.1369         2.2278     0.61339998       -4.80130         0.3748        76.7550        24.0247     0.33109999        10.8909         9.3481        15.8714        35.3863        13.9067      2655.8572     0.15180001
    3598.46880     37926.8984        -0.2156         2.2378     0.67180002       -4.78000         0.1143        77.0960        25.3023     0.32730001         9.9961         8.7173        16.2474        35.4178        14.2405      2676.5173     0.16310000
    3598.62120     37754.1016        -0.3123         2.3657     0.69169998       -4.80320        -0.2977        80.0308        25.5686     0.33210000        10.0911         9.0713        16.5194        35.3559        14.0978      2666.9312     0.17060000
    3598.77360     37343.6016         0.0123         2.2081     0.69980001       -4.85150        -0.4082        74.0412        27.4328     0.32609999        10.2651         9.3357        15.4464        35.2091        14.0328      2668.3215     0.17649999
    3598.92600     36882.8984         0.5593         2.4275     0.67570001       -5.00010        -0.5904        81.1320        28.3205     0.32749999        10.6093         9.3721        16.0333        35.0443        13.9045      2666.7407     0.17710000
    3599.07840     36777.3008         0.0336         2.3392     0.71850002       -4.80690        -0.5800        78.0403        28.7611     0.32249999        10.5210         9.6096        16.0979        35.0066        13.8704      2659.4138     0.18160000
    3599.23080     36369.2031        -0.1075         2.3461     0.69360000       -4.76620        -0.5014        81.8334        28.7611     0.32679999        10.2512         9.4056        15.2826        34.8608        13.8070      2653.9644     0.18460000
    3599.38320     36230.0000        -0.0382         2.3448     0.71390003       -4.79980        -0.3647        79.6975        27.9305     0.31950000         9.8876         8.9432        15.7824        34.8110        13.6177      2663.5518     0.19390000
    3599.53560     35755.7969         0.2060         2.4836     0.72860003       -4.79370        -0.1976        81.6795        25.5338     0.31180000        10.5073         9.7991        15.4524        34.6417        13.9480      2660.5518     0.20050000
    3599.68800     35350.6016         0.1205         2.3675     0.69779998       -4.80760        -0.0834        83.3386        24.2815     0.29980001        10.1466         9.6515        16.2140        34.4971        14.0011      2658.4644     0.21210000
    3599.84040     34973.8008        -0.0265         2.1630     0.62470001       -4.83220         0.1252        82.9336        24.2815     0.30379999         9.7469         9.4368        15.8768        34.3626        13.9068      2669.0344     0.21810000
    3599.99280     34908.6992         0.3610         2.1781     0.69309998       -4.80720         0.3216        80.5907        22.8612     0.31020001         9.8062         9.8286        15.1040        34.3394        13.7724      2665.8572     0.21960001
    3600.14520     35351.6992         0.0471         2.4427     0.74949998       -4.80010         0.4047        80.8220        23.6030     0.32269999        10.3741         9.7631        15.7713        34.4974        13.9386      2676.8276     0.21200000
    3600.29760     35135.0000        -0.0686         2.3452     0.74309999       -4.78610         0.4718        76.2218        24.3005     0.32749999        10.7846        10.0391        16.3433        34.4201        14.1307      2657.3572     0.20640001
