~Version Information Block
VERS .                 2.00:  CWLS LOG ASCII STANDARD - VERSION 2.00
WRAP .                  YES:  Multiple lines per depth step
~Well Information Block
#MNEM.UNIT        Data Type   Information
#---------- ----------------  -----------
STRT .M          3174.64440:  START DEPTH
STOP .M          3422.90400:  STOP DEPTH
STEP .M             0.15240:  STEP
NULL .              -999.25:  NULL VALUE
COMP .         StatoilHydro:  COMPANY
WELL .          NO_15/9-F-4:  WELL
FLD  .                VOLVE:  FIELD
LOC  .            North Sea:  LOCATION
CTRY .                     :  COUNTRY
STAT .                     :  STATE
CNTY .                     :  COUNTY
SRVC .         Schlumberger:  SERVICE COMPANY
DATE .          13-Sep-2012:  DATE
API  .                     :  API NUMBER
UWI  .             15/9-F-4:  UNIQUE WELL ID
~Curve Information Block
#MNEM.UNIT         API CODE   Curve Description
#---------- ----------------  -----------------
DEPTH.M                    :  DEPTH (BOREHOLE)
BSAL .PPM                  :  Borehole Salinity
CCLC .V                    :  CCL
CCLD .V                    :  CCL Discriminated Amplitude
CIRF .                     :  RST Capture to Inelastic Ratio Far
CIRN .                     :  RST Capture to Inelastic Ratio Near
CVEL .M/MIN                 :  Cable Velocity
DEVI .DEG                  :  Hole Deviation
DSIG .CU                   :  Sigma Difference
FBEF .UA                   :  RST Far Effective Beam Current
GR   .GAPI                 :  Gamma Ray
IRAT .                     :  RST Inelastic Ratio
RB_PCMS.DEG                  :  Relative Bearing
RSCF .                     :  RST Far Detector Effective Unregulated Capture Count Rate
RSCN .                     :  RST Near Detector Effective Unregulated Capture Count Rate
SFFA .CU                   :  RST Sigma Formation Far Apparent
SIBF .CU                   :  RST Sigma Borehole Fluid
SIGM .CU                   :  Formation Sigma (Neutron Capture Cross Section)
TPHI .V/V                  :  Thermal Decay Porosity
WPRE .PSI                  :  Well Pressure
WTEP .DEGC                 :  Well Temperature
~Parameter Information Block
#MNEM.UNIT            Value   Description
#---------- ----------------  -----------
APD  .M                  54:  Elevation of Depth Reference (LMF) above Permanent Datum
BHS  .                 CASE:  Borehole Status (Open or Cased Hole)
BS   .IN                8.5:  Bit Size
BSAL .PPM       34972.17188:  Borehole Salinity
BSALOPT.              UNKNOWN:  Borehole Salinity Option
CSID .IN              6.184:  Casing Inner Diameter
CSIZ .IN                  7:  Current Casing Size
CWEI .LB/F               29:  Casing Weight
MATR .                 SAND:  Rock Matrix for Neutron Porosity Corrections
RUN  .                    4:  RUN NUMBER
PROJECT.     SLEIPNER_OST@st-vlinapp01:  
SET  .       RSTD_0912_SIG1:  
~Other Information Block
~Ascii Log Data
# ...
    3285.59160 
    36164.1992        -0.0323         0.0000         2.2032     0.78030002 
      -4.61820        53.3840        -0.5269        82.0087        23.7694 
    0.31970000       357.3638         9.1689         9.6386        19.2632 
       34.7875        17.4078     0.26140001      4932.6436        94.6543
    3285.74400 
    37122.1016        -0.1165         0.0000         2.0902     0.73280001 
      -4.60810        53.1582        -0.0943        86.6133        25.8288 
    0.32030001       357.2695         8.2032         9.2919        20.1560 
       35.1299        18.2298     0.27180001      4932.7568        94.6586
    3285.89640 
    37383.0000        -0.3090         0.0000         1.9179     0.69870001 
      -4.62530        53.3823         0.2004        85.4945        26.9443 
    0.31840000       357.2580         7.5246         8.4360        20.6737 
       35.2232        18.9767     0.26830000      4932.8564        94.6658
    3286.04880 
    37359.5000        -0.1783         0.0000         1.7697     0.63940001 
      -4.57400        53.5469         0.4602        82.5567        27.9741 
    0.32150000       357.2005         7.3046         8.1006        21.5330 
       35.2148        19.5389     0.25009999      4932.9951        94.6711
    3286.20120 
    37586.1016         0.0001         0.0000         1.9048     0.62589997 
      -4.56500        53.2546         0.8467        81.6306        28.3118 
    0.32499999       357.2037         8.0164         8.0087        21.8525 
       35.2958        19.4135     0.22340000      4933.1392        94.6763
    3286.35360 
    37979.0977        -0.0759         0.0000         1.9289     0.62489998 
      -4.56900        53.4560         1.1944        79.2693        27.8028 
    0.32650000       357.1395         8.2634         7.9596        20.2877 
       35.4365        18.6321     0.19850001      4933.1860        94.6944
    3286.50600 
    38484.2969        -0.3611         0.0000         2.0206     0.64090002 
      -4.58250        53.4918         1.4935        79.3946        25.4001 
    0.33309999       357.1049         8.7158         8.3898        19.1799 
       35.6174        17.9781     0.17960000      4933.3550        94.6925
    3286.65840 
    39034.8008         0.1141         0.0000         2.0607     0.62089998 
      -4.62980        53.3010         1.6362        73.9161        24.7220 
    0.34110001       357.0880         9.6299         8.5167        19.8816 
       35.8146        17.6893     0.16390000      4933.5220        94.6896
    3286.81080 
    39199.9023         0.0492         0.0000         1.9587     0.63650000 
      -4.57930        53.4477         1.5559        70.1182        23.7781 
    0.34959999       357.0919         9.9078         8.7991        19.4257 
       35.8738        17.2697     0.15750000      4933.5596        94.7031
    3286.96320 
    39610.4023         0.1582         0.0000         1.9282     0.61930001 
      -4.57330        53.5171         1.6910        70.0630        23.4404 
    0.35299999       357.1194         9.9249         8.8000        17.9212 
       36.0210        16.7047     0.15420000      4933.7290        94.7132
    3287.11560 
    39227.1016        -0.0098         0.0000         1.9780     0.60089999 
      -4.56320        53.4650         1.5669        71.7257        22.3751 
    0.35679999       357.1006        10.1707         8.8043        18.1670 
       35.8836        16.3750     0.15560000      4933.8760        94.7143
    3287.26800 
    39564.3008        -0.0327         0.0000         1.8897     0.61610001 
      -4.62050        53.4073         1.2660        69.8803        23.0616 
    0.35800001       357.0064         9.5676         8.4598        18.4045 
       36.0045        16.5787     0.15960000      4933.9653        94.7201
    3287.42040 
    39314.8984        -0.1603         0.0000         1.8505     0.62080002 
      -4.60320        53.5714         0.6228        71.3276        23.5682 
    0.35749999       356.9424         9.3485         8.9202        18.4844 
       35.9150        17.1365     0.17280000      4934.1064        94.7256
    3287.57280 
    39664.1016        -0.1465         0.0000         1.8051     0.59079999 
      -4.60510        53.4434         0.4713        72.6006        25.1017 
    0.34720001       356.7416         9.1118         8.3417        19.7931 
       36.0403        17.6546     0.19570000      4934.2378        94.7273
    3287.72520 
    39517.6992         0.0701         0.0000         1.7389     0.59560001 
      -4.60850        53.4180         0.3024        74.2347        26.2497 
    0.33690000       356.5119         8.7179         8.5605        19.9065 
       35.9877        19.0178     0.22490001      4934.3174        94.7351
    3287.87760 
    40597.5000        -0.0988         0.0000         1.6233     0.59329998 
      -4.57610        53.7338         0.1816        81.6890        29.0253 
    0.32980001       356.4070         7.2283         8.1030        22.5658 
       36.3753        20.7150     0.26300001      4934.4336        94.7414
    3288.03000 
    40808.1016        -0.1068         0.0000         1.5004     0.58010000 
      -4.70000        53.4751        -0.0050        79.3410        30.8577 
    0.32280001       356.3056         6.7478         7.8906        24.9246 
       36.4509        23.4195     0.29719999      4934.5771        94.7374
    3288.18240 
    41300.8008        -0.2536         0.0000         1.2543     0.54390001 
      -4.59230        53.4192         0.0062        80.1123        33.3462 
    0.31470001       356.1674         5.4783         7.4215        28.1015 
       36.6279        25.2713     0.33260000      4934.6919        94.7431
    3288.33480 
    41782.1016         0.2964         0.0000         1.2096     0.49990001 
      -4.57610        53.6369         0.3235        81.2536        34.1296 
    0.31389999       356.2290         5.1920         6.8770        28.2246 
       36.8009        26.1204     0.34599999      4934.7935        94.7558
    3288.48720 
    41590.0000         0.1838         0.0000         1.1615     0.52679998 
      -4.57140        53.6701         0.7389        81.0864        34.6977 
    0.31690001       356.0481         4.8099         6.6669        27.5847 
       36.7319        25.6659     0.34270000      4934.9390        94.7592
    3288.63960 
    42368.8984         0.0694         0.0000         1.3421     0.53289998 
      -4.58290        53.4582         1.0000        77.5511        32.9815 
    0.32290000       356.0243         5.6523         6.5743        26.8356 
       37.0120        25.8367     0.30970001      4935.0776        94.7655
    3288.79200 
    42154.8008        -0.0754         0.0000         1.4057     0.52530003 
      -4.58120        53.6574         1.3827        80.6588        31.7497 
    0.32380000       356.0653         5.7403         6.6787        28.8204 
       36.9350        25.2577     0.28650001      4935.1553        94.7749
    3288.94440 
    42660.8008        -0.0951         0.0000         1.4371     0.54259998 
      -4.61160        53.5813         2.0333        77.0308        29.3470 
    0.32550001       356.2549         6.2944         6.9800        25.8922 
       37.1171        25.0923     0.27399999      4935.3120        94.7791
    3289.09680 
    42232.3008        -0.2545         0.0000         1.4051     0.53899997 
      -4.58470        53.5534         2.8330        78.3416        29.1754 
    0.32699999       356.3060         6.1485         7.0033        26.4018 
       36.9629        24.1976     0.28110000      4935.4521        94.7816
    3289.24920 
    42516.5000         0.3311         0.0000         1.3835     0.54960001 
      -4.60400        53.7692         3.2678        81.5750        27.2876 
    0.33109999       356.4268         5.7231         6.8246        26.2046 
       37.0652        23.9138     0.28349999      4935.5366        94.7885
    3289.40160 
    42392.8984         0.1684         0.0000         1.3325     0.53270000 
      -4.61360        53.8015         3.5392        77.5293        27.2018 
    0.33270001       356.6453         5.6684         6.5904        25.1102 
       37.0207        23.2387     0.27469999      4935.7041        94.7899
