~Version Information Block
VERS .                 2.00:  CWLS LOG ASCII STANDARD - VERSION 2.00
WRAP .                   NO:  One line per depth step
~Well Information Block
#MNEM.UNIT        Data Type   Information
#---------- ----------------  -----------
STRT .M          3445.30680:  START DEPTH
STOP .M          3635.80680:  STOP DEPTH
STEP .M             0.15240:  STEP
NULL .              -999.25:  NULL VALUE
COMP .              Statoil:  COMPANY
WELL .          NO_15/9-F-5:  WELL
FLD  .                VOLVE:  FIELD
LOC  .            North Sea:  LOCATION
CTRY .                     :  COUNTRY
STAT .                     :  STATE
CNTY .                     :  COUNTY
SRVC .         Schlumberger:  SERVICE COMPANY
DATE .          16-Sep-2012:  DATE
API  .                     :  API NUMBER
UWI  .             15/9-F-5:  UNIQUE WELL ID
~Curve Information Block
#MNEM.UNIT         API CODE   Curve Description
#---------- ----------------  -----------------
DEPTH.M                    :  DEPTH (BOREHOLE)
CCLC .V                    :  CCL
CCLD .V                    :  CCL Discriminated Amplitude
CRRA .                     :  Near-Far Count Rate Ratio
CS   .F/MN                 :  Cable Speed
CVEL .M/MIN                 :  Cable Velocity
DEVI .DEG                  :  Hole Deviation
FBEF .UA                   :  RST Far Effective Beam Current
FCOR .                     :  RST Far Carbon/Oxygen Ratio
FERD .                     :  RST Far IC Mode Capture Optimization Resolution Degradation Factor
FIRD .                     :  RST Far Inelastic Optimization Resolution Degradation Factor
GR   .GAPI                 :  Gamma Ray
NCOR .                     :  RST Near Carbon/Oxygen Ratio
NERD .                     :  RST Near IC Mode Capture Optimization Resolution Degradation Factor
NIRD .                     :  RST Near Inelastic Optimization Resolution Degradation Factor
RB_PCMS.DEG                  :  Relative Bearing
TENS .LBF                  :  Cable Tension
WPRE .PSI                  :  Well Pressure
WTEP .DEGC                 :  Well Temperature
~Parameter Information Block
#MNEM.UNIT            Value   Description
#---------- ----------------  -----------
APD  .M           54.900002:  Elevation of Depth Reference (LMF) above Permanent Datum
RUN  .                Run 1:  RUN NUMBER
PROJECT.     SLEIPNER_OST@st-vlinapp01:  
SET  .        RSTD_0912_IC1:  
~Other Information Block
# 
~A       DEPTH           CCLC           CCLD           CRRA             CS           CVEL           DEVI           FBEF           FCOR           FERD           FIRD             GR           NCOR           NERD           NIRD        RB_PCMS           TENS           WPRE           WTEP 
# ...
    3493.92240         0.0004         0.0000         2.8091         1.6719      -0.507900        48.9591       103.3361     0.15880001         5.9913         5.9913        26.4098       0.051800         2.6285         2.6285         8.0585      2742.0554      5029.4678        95.2706
    3494.07480         0.0305         0.0000         2.7847         1.6867      -0.510200        48.9558       104.0189     0.15030000         5.9171         5.9171        25.3009       0.108200         2.6331         2.6331         7.9990      2751.6084      5029.5933        95.2610
    3494.22720         0.0005         0.0000         2.7903         1.7031      -0.516900        48.9624       104.3462     0.05860000         5.9097         5.9097        25.0703       0.081800         2.6623         2.6623         8.0937      2745.3271      5029.7715        95.2530
    3494.37960         0.0199         0.0000         2.8154         1.7051      -0.517900        48.9776       103.9406     0.15670000         5.7914         5.7914        24.6765      -0.038000         2.6730         2.6730         8.0250      2744.0942      5029.9043        95.2439
    3494.53200        -0.0673         0.0000         2.7948         1.6985      -0.516400        48.9924       105.0345    -0.06160000         5.5823         5.5823        24.4357       0.105800         2.6809         2.6809         8.0471      2747.6870      5030.0381        95.2307
    3494.68440        -0.1494         0.0000         2.8244         1.6886      -0.512200        49.0168       106.1664    -0.01800000         5.5400         5.5400        24.2079       0.013300         2.6575         2.6575         8.0781      2742.4666      5030.1992        95.2295
    3494.83680        -0.0076         0.0000         2.8351         1.6873      -0.512800        49.0232       106.2887    -0.16840000         5.3972         5.3972        24.7095       0.050600         2.6769         2.6769         8.0643      2757.7791      5030.3027        95.2136
    3494.98920        -0.0032         0.0000         2.8433         1.7208      -0.518000        49.0483       106.1746     0.00750000         5.3177         5.3177        24.4277       0.032500         2.6771         2.6771         8.1705      2760.1848      5030.5312        95.2085
    3495.14160         0.0800         0.0000         2.8248         1.7218      -0.521500        49.0456       104.0747     0.04860000         5.2871         5.2871        23.9356      -0.030400         2.7086         2.7086         8.2907      2752.1331      5030.6255        95.2027
    3495.29400        -0.0046         0.0000         2.7980         1.7149      -0.520100        49.0586       103.9231     0.13910000         5.2473         5.2473        23.5262       0.003800         2.7158         2.7158         8.4073      2752.7878      5030.7529        95.1937
    3495.44640         0.0909         0.0000         2.7866         1.7218      -0.522900        49.0760       102.8573    -0.12000000         5.2116         5.2116        23.0243       0.080200         2.6826         2.6826         8.3551      2747.9006      5030.8882        95.1836
    3495.59880        -0.0044         0.0000         2.7738         1.6831      -0.519900        49.0698       102.4541     0.04490000         5.1870         5.1870        22.4825       0.020700         2.6930         2.6930         8.2115      2750.1252      5031.0273        95.1783
    3495.75120        -0.0051         0.0000         2.7507         1.7096      -0.521300        49.0491       101.9502     0.02200000         5.2070         5.2070        21.9626      -0.010500         2.6689         2.6689         8.1158      2751.1558      5031.1812        95.1697
    3495.90360        -0.0068         0.0000         2.7571         1.7385      -0.523400        49.0847       101.4058     0.06140000         5.2010         5.2010        21.6494       0.015300         2.6778         2.6778         8.0277      2743.0381      5031.3384        95.1578
    3496.05600        -0.0083         0.0000         2.7331         1.7270      -0.528900        49.1217       101.8519    -0.16769999         5.1898         5.1898        21.5241       0.003400         2.6670         2.6670         8.2367      2737.3052      5031.4639        95.1521
    3496.20840        -0.0098         0.0000         2.7463         1.7497      -0.531000        49.1424       102.2792     0.09890000         5.1757         5.1757        21.8058       0.038400         2.6390         2.6390         8.2790      2747.0156      5031.6045        95.1464
    3496.36080        -0.0044         0.0000         2.7418         1.7156      -0.522800        49.1549       101.9087     0.02510000         5.2065         5.2065        21.6155       0.145700         2.6487         2.6487         8.1593      2749.1033      5031.7334        95.1365
    3496.51320        -0.0505         0.0000         2.7423         1.7162      -0.523100        49.1683       103.1655    -0.18870001         5.2198         5.2198        21.7625       0.026900         2.6599         2.6599         8.0783      2757.5498      5031.8843        95.1312
    3496.66560         0.0759         0.0000         2.7641         1.7218      -0.526300        49.1708       102.7702     0.09220000         5.0613         5.0613        22.6501       0.027500         2.6971         2.6971         8.1016      2755.4941      5032.0073        95.1265
    3496.81800        -0.0210         0.0000         2.7661         1.7310      -0.524700        49.1701       103.7322    -0.18500000         5.0524         5.0524        23.3048       0.081200         2.7112         2.7112         8.0240      2754.4368      5032.1318        95.1216
    3496.97040        -0.0120         0.0000         2.7695         1.7205      -0.523800        49.1709       104.4577     0.01670000         5.1679         5.1679        24.3150       0.004300         2.6892         2.6892         7.9249      2750.6335      5032.2749        95.1114
    3497.12280        -0.0368         0.0000         2.7826         1.7205      -0.520900        49.1774       105.9911    -0.03790000         5.1178         5.1178        26.3637       0.054400         2.6552         2.6552         7.8771      2747.7983      5032.4341        95.1064
    3497.27520        -0.0130         0.0000         2.8097         1.7379      -0.525700        49.1799       108.7076     0.11210000         5.1230         5.1230        29.9399       0.002700         2.6479         2.6479         7.7701      2743.3716      5032.5605        95.1023
    3497.42760         0.1365         0.0000         2.8647         1.6978      -0.520800        49.1983       110.3586     0.15019999         5.0072         5.0072        33.4282      -0.017300         2.6282         2.6282         7.7584      2751.6160      5032.6865        95.0960
    3497.58000         0.0030         0.0000         2.9022         1.7198      -0.521600        49.2222       111.3270     0.02820000         5.0852         5.0852        36.7027       0.077500         2.6366         2.6366         7.8612      2737.9504      5032.8325        95.0890
    3497.73240         0.0278         0.0000         2.9310         1.6047      -0.508400        49.2464       111.6082     0.06550000         5.0465         5.0465        40.0026       0.087000         2.6616         2.6616         7.9287      2733.4036      5032.9907        95.0807
    3497.88480        -0.0066         0.0000         2.9312         1.7152      -0.523700        49.2507       112.3805    -0.03230000         4.9933         4.9933        42.3701       0.023200         2.6611         2.6611         8.1428      2747.0574      5033.1401        95.0775
    3498.03720        -0.0047         0.0000         2.9469         1.7044      -0.521300        49.2693       111.8733     0.13220000         5.0949         5.0949        44.6945       0.012800         2.6146         2.6146         8.1715      2746.7263      5033.2646        95.0739
    3498.18960        -0.0067         0.0000         2.9322         1.7323      -0.522300        49.2627       112.7015     0.09350000         4.8943         4.8943        45.2359      -0.020800         2.6040         2.6040         7.9541      2745.5703      5033.3794        95.0641
