~Version Information Block
VERS .                 2.00:  CWLS LOG ASCII STANDARD - VERSION 2.00
WRAP .                   NO:  One line per depth step
~Well Information Block
#MNEM.UNIT        Data Type   Information
#---------- ----------------  -----------
STRT .M          3230.11800:  START DEPTH
STOP .M          3389.98560:  STOP DEPTH
STEP .M             0.15240:  STEP
NULL .              -999.25:  NULL VALUE
COMP .              Statoil:  COMPANY
WELL .          NO_15/9-F-4:  WELL
FLD  .                VOLVE:  FIELD
LOC  .            North Sea:  LOCATION
CTRY .                     :  COUNTRY
STAT .                     :  STATE
CNTY .                     :  COUNTY
SRVC .         Schlumberger:  SERVICE COMPANY
DATE .          13-Sep-2012:  DATE
API  .                     :  API NUMBER
UWI  .             15/9-F-4:  UNIQUE WELL ID
~Curve Information Block
#MNEM.UNIT         API CODE   Curve Description
#---------- ----------------  -----------------
DEPTH.M                    :  DEPTH (BOREHOLE)
CCLC .V                    :  CCL
CCLD .V                    :  CCL Discriminated Amplitude
CRRA .                     :  Near-Far Count Rate Ratio
CS   .F/MN                 :  Cable Speed
CVEL .M/MIN                 :  Cable Velocity
FBEF .UA                   :  RST Far Effective Beam Current
FCOR .                     :  RST Far Carbon/Oxygen Ratio
FERD .                     :  RST Far IC Mode Capture Optimization Resolution Degradation Factor
FIRD .                     :  RST Far Inelastic Optimization Resolution Degradation Factor
GR   .GAPI                 :  Gamma Ray
NCOR .                     :  RST Near Carbon/Oxygen Ratio
NERD .                     :  RST Near IC Mode Capture Optimization Resolution Degradation Factor
NIRD .                     :  RST Near Inelastic Optimization Resolution Degradation Factor
RB_PCMS.DEG                  :  Relative Bearing
TENS .LBF                  :  Cable Tension
WTEP .DEGC                 :  Well Temperature
WTPE .MS                   :  Well Temperature Period
~Parameter Information Block
#MNEM.UNIT            Value   Description
#---------- ----------------  -----------
APD  .M                  54:  Elevation of Depth Reference (LMF) above Permanent Datum
RUN  .                    1:  RUN NUMBER
PROJECT.     SLEIPNER_OST@st-vlinapp01:  
SET  .        RSTD_0912_IC3:  
~Other Information Block
# 
~A       DEPTH           CCLC           CCLD           CRRA             CS           CVEL           FBEF           FCOR           FERD           FIRD             GR           NCOR           NERD           NIRD        RB_PCMS           TENS           WTEP           WTPE 
# ...
    3239.26200        -0.0025         0.0000         3.1870         1.3652       -0.41610       120.1174         0.0206         5.4580         5.4580        40.2478       0.110200         2.7994         2.7994       356.6495      2312.0913        95.2695         4.0175
    3239.41440         0.0069         0.0000         3.1881         1.3615       -0.41500       119.7886         0.0603         5.5616         5.5616        40.0133       0.034400         2.8595         2.8595       356.4028      2317.4895        95.2700         4.0175
    3239.56680         0.1191         0.0000         3.1683         1.3602       -0.41460       120.6004         0.1096         5.6106         5.6106        39.4353       0.101200         2.8219         2.8219       356.1782      2322.2900        95.2775         4.0176
    3239.71920        -0.0011         0.0000         3.1791         1.3661       -0.41640       119.9770         0.0902         5.6939         5.6939        39.8664       0.007000         2.8383         2.8383       356.1445      2318.5381        95.2820         4.0176
    3239.87160        -0.0054         0.0000         3.1563         1.3622       -0.41520       118.1811        -0.0026         5.7073         5.7073        40.6146      -0.001200         2.8587         2.8587       356.1577      2319.0422        95.2854         4.0177
    3240.02400        -0.0051         0.0000         3.1195         1.3704       -0.41770       118.2906         0.2435         5.7696         5.7696        41.1289       0.026900         2.8433         2.8433       356.1999      2312.2256        95.3025         4.0178
    3240.17640        -0.0015         0.0000         3.0986         1.3780       -0.42000       116.5974         0.2025         5.4733         5.4733        42.7722       0.115700         2.8115         2.8115       356.1439      2309.3313        95.3067         4.0178
    3240.32880        -0.0056         0.0000         3.0483         1.3625       -0.41530       114.8497         0.0808         5.7586         5.7586        45.0445       0.008700         2.8181         2.8181       356.1024      2308.0029        95.3106         4.0179
    3240.48120         0.0434         0.0000         2.9887         1.3714       -0.41800       113.1508        -0.0718         5.5941         5.5941        45.5957      -0.014000         2.7920         2.7920       355.6932      2313.4084        95.3185         4.0179
    3240.63360        -0.0067         0.0000         2.9640         1.3599       -0.41450       112.3314         0.1210         5.4178         5.4178        45.8296      -0.010700         2.8054         2.8054       355.6924      2316.9790        95.3195         4.0180
    3240.78600        -0.0060         0.0000         2.9532         1.3691       -0.41730       110.8923         0.0634         5.5015         5.5015        45.3096       0.027900         2.7584         2.7584       355.5126      2316.3335        95.3282         4.0180
    3240.93840        -0.0046         0.0000         2.9076         1.3583       -0.41400       109.5258         0.1542         5.5353         5.5353        44.2231       0.067500         2.7902         2.7902       355.3989      2316.9727        95.3301         4.0180
    3241.09080         0.0123         0.0000         2.8909         1.3514       -0.41190       107.8434         0.0322         5.2767         5.2767        43.1843       0.033500         2.7458         2.7458       355.2757      2313.0330        95.3352         4.0181
    3241.24320         0.0617         0.0000         2.8634         1.3547       -0.41290       108.0000        -0.0809         5.5426         5.5426        44.4337      -0.088000         2.7520         2.7520       355.2677      2316.1687        95.3451         4.0182
    3241.39560         0.0061         0.0000         2.8334         1.3583       -0.41400       109.1954         0.0487         5.3551         5.3551        46.3011      -0.040200         2.7106         2.7106       355.3549      2302.5361        95.3568         4.0183
    3241.54800         0.1025         0.0000         2.8516         1.3415       -0.40890       110.7292        -0.1340         5.5640         5.5640        48.9460      -0.046700         2.6903         2.6903       355.4734      2317.6030        95.3629         4.0183
    3241.70040        -0.0121         0.0000         2.8725         1.3425       -0.40920       112.0352        -0.0651         5.4973         5.4973        52.3296      -0.045300         2.6957         2.6957       355.7242      2311.2307        95.3622         4.0183
    3241.85280         0.0559         0.0000         2.9205         1.3461       -0.41030       112.8449        -0.0880         5.4632         5.4632        55.0893       0.005700         2.7030         2.7030       355.9770      2304.3940        95.3687         4.0184
    3242.00520         0.0048         0.0000         2.9454         1.3468       -0.41050       113.3431        -0.3413         5.2468         5.2468        56.0997       0.042500         2.6695         2.6695       356.1657      2311.2239        95.3766         4.0185
    3242.15760        -0.0040         0.0000         2.9671         1.3438       -0.40960       111.3741         0.0246         5.3727         5.3727        54.6369      -0.033700         2.6661         2.6661       356.0872      2300.9673        95.3839         4.0185
    3242.31000        -0.0037         0.0000         2.9282         1.3301       -0.40540       110.5332         0.0757         5.1526         5.1526        52.3668       0.010100         2.6459         2.6459       355.9835      2313.5842        95.3854         4.0185
    3242.46240        -0.0001         0.0000         2.9106         1.3409       -0.40870       110.1017         0.0803         5.4427         5.4427        49.0116       0.076600         2.6775         2.6775       355.9795      2308.8384        95.3904         4.0186
    3242.61480        -0.0017         0.0000         2.9030         1.3356       -0.40710       109.2353         0.0025         5.3442         5.3442        46.2382       0.062200         2.7026         2.7026       355.8644      2303.7063        95.3979         4.0186
    3242.76720        -0.0041         0.0000         2.8574         1.3491       -0.41120       109.6596         0.0398         5.3203         5.3203        43.5666      -0.052600         2.7166         2.7166       356.0511      2315.7551        95.4069         4.0187
    3242.91960        -0.0073         0.0000         2.8565         1.3481       -0.41090       111.4473        -0.0184         5.4069         5.4069        43.3453       0.058700         2.6912         2.6912       356.2260      2317.4355        95.4099         4.0187
    3243.07200        -0.0070         0.0000         2.9052         1.3491       -0.41120       113.4727         0.0375         5.4847         5.4847        43.5564       0.036200         2.7017         2.7017       356.3065      2306.4895        95.4184         4.0188
    3243.22440        -0.0038         0.0000         2.9715         1.3451       -0.41000       115.6761        -0.0263         5.3052         5.3052        44.0696      -0.064500         2.6659         2.6659       356.4105      2315.9702        95.4244         4.0189
    3243.37680         0.0799         0.0799         3.0724         1.3527       -0.41230       115.7607         0.1101         5.3245         5.3245        44.7311      -0.001500         2.6159         2.6159       356.4582      2295.8164        95.4357         4.0190
    3243.52920        -0.0037        -0.0037         3.1273         1.3609       -0.41480       117.0597         0.0106         5.3024         5.3024        44.7928      -0.013300         2.6197         2.6197       356.3006      2314.0273        95.4399         4.0190
    3243.68160         0.0329         0.0329         3.1246         1.3783       -0.42010       114.8766         0.0344         5.1931         5.1931        44.4471       0.000000         2.6097         2.6097       356.1443      2320.2690        95.4470         4.0191
