~Version Information Block
VERS .                 2.00:  CWLS LOG ASCII STANDARD - VERSION 2.00
WRAP .                   NO:  One line per depth step
~Well Information Block
#MNEM.UNIT        Data Type   Information
#---------- ----------------  -----------
STRT .M          3460.08960:  START DEPTH
STOP .M          3530.04120:  STOP DEPTH
STEP .M             0.15240:  STEP
NULL .              -999.25:  NULL VALUE
COMP .              Statoil:  COMPANY
WELL .          NO_15/9-F-5:  WELL
FLD  .                Volve:  FIELD
LOC  .                Volve:  LOCATION
CTRY .               Norway:  COUNTRY
STAT .                     :  STATE
CNTY .                     :  COUNTY
SRVC .         Schlumberger:  SERVICE COMPANY
DATE .           11/04/2015:  DATE
API  .                     :  API NUMBER
UWI  .             15/9-F-5:  UNIQUE WELL ID
LATI .     58° 26' 29.66" N:  LATITUDE
LONG .      1° 53' 14.99" E:  LONGITUDE
~Curve Information Block
#MNEM.UNIT         API CODE   Curve Description
#---------- ----------------  -----------------
DEPTH.M                    :  Depth Index
CCLC .V                    :  (PSTP-B)                (1in)                   CCL Computed Amplitude
CVEL .M/SEC                 :  (WLWorkflow)            (1in)                   Cable Velocity
FBEF .UA                   :  (RST-D)                 (6in)                   Far Effective Beam Curre
FCOR .                     :  (RST-D)                 (6in)                   Far Carbon/Oxygen Ratio
FERD .                     :  (RST-D)                 (6in)                   Far IC Mode Capture Opti
FIRD .                     :  (RST-D)                 (6in)                   Far Inelastic Optimizati
GR   .GAPI                 :  (PSTP-B)                (6in)                   Gamma Ray
NCOR .                     :  (RST-D)                 (6in)                   Near Carbon/Oxygen Ratio
NERD .                     :  (RST-D)                 (6in)                   Near IC Mode Capture Opt
NIRD .                     :  (RST-D)                 (6in)                   Near Inelastic Optimizat
RB_PCMS.DEG                  :  (PCMS-A)                (6in)                   Relative Bearing
TENS .LBF                  :  (WLWorkflow)            (1in)                   Cable Tension
WPRE .BAR                  :  (PSTP-B)                (6in)                   Well Pressure
WTEP .DEGC                 :  (PSTP-B)                (6in)                   Well Temperature
~Parameter Information Block
#MNEM.UNIT            Value   Description
#---------- ----------------  -----------
APD  .M                  54:  Elevation of Depth Reference (LMF) Above Permanent Datum
CLAB .              Country:  :County Label
ECF  .M             -999.25:  Elevation of Casing Flange above Permanent Datum
EDF  .M                  54:  Elevation of Drill Floor Above Permanent Datum
EGL  .M                 -91:  Elevation of Ground Level Above Permanent Datum
EKB  .M             -999.25:  Elevation of Kelly Bushing Above Permanent Datum
EPD  .M                   0:  Elevation of Permanent Datum (PDAT) above Mean Sea Level
FL1  .            North Sea:  Field Location Line 1
FL2  .     Norwegian Sector:  Field Location Line 2
LMF  .                   DF:  Logging Measured From
LUL  .                 NOBO:  Logging Unit Location
LUN  .          ONCC-A 3837:  Logging Unit Number
PDAT .                  MSL:  Local Permanent Datum
RIGN .      Maersk Inspirer:  Rig Name
RIGTYP.               Jackup:  Rig Type
SON  .           C2TQ-00038:  Service Order Number
TAPE_NAME.     RST_IC_Pass_4___04Nov15_021221.las:  
TOOL_STRING.              UNKNOWN:  
WN   .             15/9-F-5:  WELL NAME
PROJECT.     SLEIPNER_OST@st-vlinapp01:  
SET  .        RSTD_1115_IC4:  
~Other Information Block
# 
~A       DEPTH           CCLC           CVEL           FBEF           FCOR           FERD           FIRD             GR           NCOR           NERD           NIRD        RB_PCMS           TENS           WPRE           WTEP 
# ...
    3487.52160      -0.005430    -0.00901433       127.5888      -0.045070         6.3096         6.3096       126.2381       0.077480         4.2343         4.2343       351.6119      3972.7810       359.0300        84.5833
    3487.67400      -0.005310    -0.00916250       127.6400       0.212580         6.1635         6.1635       122.2967       0.083870         4.2147         4.2147       351.7263      3928.1675       359.0418        84.5786
    3487.82640       0.008480    -0.00912667       126.2639       0.119830         6.0117         6.0117       121.9472      -0.025480         4.1993         4.1993       351.8155      3910.0930       359.0519        84.5623
    3487.97880      -0.020950    -0.00898100       126.3685       0.091280         6.0078         6.0078       120.6932       0.069450         4.2026         4.2026       351.8160      3978.5945       359.0622        84.5449
    3488.13120      -0.006890    -0.00900583       126.2005       0.128640         6.1307         6.1307       118.1333       0.111430         4.2010         4.2010       351.6837      3960.1826       359.0773        84.5389
    3488.28360      -0.001180    -0.00903817       125.6105       0.135380         6.0944         6.0944       116.9347       0.013970         4.1940         4.1940       351.5626      3843.2798       359.0861        84.5260
    3488.43600      -0.001210    -0.00910233       125.6506       0.232360         6.1263         6.1263       120.1861       0.058920         4.2021         4.2021       351.3868      3989.3562       359.0965        84.5133
    3488.58840      -0.006350    -0.00910217       125.8900       0.050260         6.0604         6.0604       122.8015      -0.027100         4.1797         4.1797       351.3849      3966.8325       359.1089        84.5016
    3488.74080       0.009220    -0.00895233       126.1700       0.050390         6.0675         6.0675       120.8268       0.036010         4.1798         4.1798       351.4016      4070.5122       359.1190        84.4775
    3488.89320       0.057340    -0.00898567       126.6652       0.214060         6.0811         6.0811       122.4409       0.094100         4.1813         4.1813       351.4156      4202.2256       359.1328        84.4632
    3489.04560      -0.014500    -0.00923367       125.8540       0.139160         6.0626         6.0626       125.7971       0.015770         4.1837         4.1837       351.5296      4083.1621       359.1407        84.4503
    3489.19800      -0.004520    -0.00925317       126.1601       0.154460         5.9895         5.9895       125.2456       0.031750         4.2160         4.2160       351.6367      4126.9775       359.1533        84.4266
    3489.35040      -0.004100    -0.00945917       126.5343       0.021140         5.9835         5.9835       120.1681       0.043520         4.2296         4.2296       351.7039      4098.5796       359.1655        84.4117
    3489.50280       0.005430    -0.00949383       126.2416       0.133800         5.9648         5.9648       119.9530       0.018480         4.2110         4.2110       351.9499      4140.6006       359.1729        84.3932
    3489.65520      -0.004450    -0.00954100       126.9361       0.046250         5.9562         5.9562       119.8890      -0.026890         4.2101         4.2101       351.8692      4107.5361       359.1878        84.3838
    3489.80760      -0.005310    -0.00944817       127.2334       0.089880         5.9450         5.9450       120.5723       0.055470         4.2153         4.2153       351.8462      4031.1707       359.1985        84.3723
    3489.96000      -0.004130    -0.00922300       127.2974       0.000250         5.9399         5.9399       122.7701       0.044040         4.2126         4.2126       351.8364      4017.7854       359.2102        84.3573
    3490.11240      -0.018270    -0.00909717       126.9283       0.115580         5.9308         5.9308       123.4708       0.023580         4.1723         4.1723       351.7437      3950.9294       359.2206        84.3455
    3490.26480      -0.003300    -0.00919267       128.5497       0.110820         5.9217         5.9217       123.6376       0.009050         4.1868         4.1868       351.7469      3965.8342       359.2352        84.3397
    3490.41720       0.001560    -0.00932400       129.1118       0.104530         5.9495         5.9495       124.5534       0.020410         4.1789         4.1789       351.7614      3951.6826       359.2433        84.3148
    3490.56960      -0.003520    -0.00907200       129.7826       0.052200         5.9108         5.9108       125.9120       0.068320         4.1888         4.1888       351.7668      3972.2617       359.2565        84.2947
    3490.72200      -0.003340    -0.00910217       129.4837       0.146540         5.8997         5.8997       125.6562       0.070880         4.1711         4.1711       351.7535      3953.0471       359.2686        84.2783
    3490.87440       0.006200    -0.00916267       128.3544       0.013320         5.8896         5.8896       126.6004      -0.014660         4.1246         4.1246       351.8192      3925.1191       359.2793        84.2510
    3491.02680       0.020710    -0.00883133       128.2592       0.087740         5.8609         5.8609       128.4643       0.043400         4.1510         4.1510       351.9860      3948.4880       359.2907        84.2280
    3491.17920       0.001940    -0.00903483       127.6997       0.119560         5.7589         5.7589       127.8684      -0.001980         4.1522         4.1522       351.9662      4020.3416       359.2987        84.2043
    3491.33160      -0.003000    -0.00916917       128.4186       0.061450         5.7574         5.7574       127.3474       0.032010         4.1685         4.1685       351.9884      3990.2192       359.3149        84.1926
    3491.48400      -0.001780    -0.00919267       128.0873      -0.032860         5.7333         5.7333       124.3167       0.118900         4.1824         4.1824       352.0421      3972.6191       359.3255        84.1897
    3491.63640       0.018110    -0.00915083       128.0469       0.136650         5.7072         5.7072       123.2823       0.058810         4.2038         4.2038       352.0309      4076.4111       359.3348        84.1745
    3491.78880       0.072670    -0.00935500       127.2012       0.196010         5.6080         5.6080       123.0900       0.074700         4.2193         4.2193       352.0251      4095.6345       359.3475        84.1584
    3491.94120       0.001080    -0.00943483       127.9759       0.098100         5.7266         5.7266       124.3513       0.078260         4.1634         4.1634       352.0317      4108.9048       359.3600        84.1352
    3492.09360       0.026490    -0.00977967       128.2543       0.070100         5.7400         5.7400       124.0819       0.027050         4.1578         4.1578       352.0430      4036.1252       359.3719        84.1188
    3492.24600       0.013000    -0.00978883       127.5728       0.066800         5.5677         5.5677       128.2924      -0.063970         4.1313         4.1313       352.0526      4066.0720       359.3823        84.1172
    3492.39840       0.004040    -0.00923133       130.2636       0.033360         5.6572         5.6572       131.4106       0.074000         4.0975         4.0975       352.2905      4089.2432       359.3934        84.1071
    3492.55080      -0.003750    -0.00937017       133.4032       0.113010         5.7414         5.7414       138.0296      -0.003210         4.1214         4.1214       352.3593      4009.5776       359.4031        84.0895
    3492.70320      -0.404310    -0.00910217       140.8460       0.075430         5.8349         5.8349       140.4066       0.067750         4.1219         4.1219       352.3382      3788.6196       359.4146        84.0728
    3492.85560       0.700450    -0.00880367       138.8779      -0.158720         5.8920         5.8920       144.8847       0.084580         4.1182         4.1182       352.2928      3877.5676       359.4264        84.0499
