~Version Information Block
VERS .                 2.00:  CWLS LOG ASCII STANDARD - VERSION 2.00
WRAP .                   NO:  One line per depth step
~Well Information Block
#MNEM.UNIT        Data Type   Information
#---------- ----------------  -----------
STRT .M          3451.70760:  START DEPTH
STOP .M          3790.03560:  STOP DEPTH
STEP .M             0.15240:  STEP
NULL .              -999.25:  NULL VALUE
COMP .              Statoil:  COMPANY
WELL .        NO_15/9-F-1_C:  WELL
FLD  .                Volve:  FIELD
LOC  .            North Sea:  LOCATION
CTRY .               Norway:  COUNTRY
STAT .                     :  STATE
CNTY .                     :  COUNTY
SRVC .         Schlumberger:  SERVICE COMPANY
DATE .          27-Nov-2014:  DATE
API  .                     :  API NUMBER
UWI  .           15/9-F-1 C:  UNIQUE WELL ID
LATI .     58° 26' 29.91" N:  LATITUDE
LONG .      1° 53' 14.71" E:  LONGITUDE
~Curve Information Block
#MNEM.UNIT         API CODE   Curve Description
#---------- ----------------  -----------------
DEPTH.M                    :  DEPTH (BOREHOLE)
CVEL .M/SEC                 :  Cable Velocity
DFRB .DEG                  :  Calibrated Relative Bearing
FBEF .UA                   :  RST Far Effective Beam Current
FCOR .                     :  RST Far Carbon/Oxygen Ratio
FERD .                     :  RST Far IC Mode Capture Optimization
FIRD .                     :  RST Far Inelastic Optimization Resolution
GR   .GAPI                 :  Gamma Ray
NCOR .                     :  RST Near Carbon/Oxygen Ratio
NERD .                     :  RST Near IC Mode Capture Optimization
NIRD .                     :  RST Near Inelastic Optimization Resolution
PFC1 .IN                   :  PFCS CaliperX
PFC2 .IN                   :  PFCS CaliperY
TENS .LBF                  :  Cable Tension
~Parameter Information Block
#MNEM.UNIT            Value   Description
#---------- ----------------  -----------
APD  .M           54.900002:  Elevation of Depth Reference (LMF) above Permanent Datum
EPD  .C3                  0:  Elevation of Permanent Datum above Mean Sea Level
LMF  .                   KB:  Logging Measured From (Name of Logging Elevation Reference)
PDAT .                  MSL:  Permanent Datum
RUN  .                Run 1:  RUN NUMBER
TAPE_NAME.     Statoil_Volve_15-9-F-1 C_PLT-RST_28Nov14_ConCu_R1L18Up_IC2.las:  
TOOL_STRING.              UNKNOWN:  
WN   .           15/9-F-1 C:  WELL
PROJECT.     SLEIPNER_OST@st-vlinapp01:  
SET  .        RSTD_1114_IC2:  
~Other Information Block
# 
~A       DEPTH           CVEL           DFRB           FBEF           FCOR           FERD           FIRD             GR           NCOR           NERD           NIRD           PFC1           PFC2           TENS 
# ...
    3742.94400     -0.0089833       351.3390       115.8592        -0.0020         5.5672         5.5672        17.2447         0.0145         7.0310         7.0310         6.2194         6.0837      4425.2363
    3743.09640     -0.0090067       351.3390       115.9178         0.1088         5.6429         5.6429        17.5811         0.1128         6.9901         6.9901         6.2025         6.0823      4456.6260
    3743.24880     -0.0081250       352.7500       116.2334         0.1031         5.6804         5.6804        17.3646         0.0084         7.0073         7.0073         6.1905         6.0834      4424.1875
    3743.40120     -0.0072583       352.7500       115.7238         0.0294         5.6940         5.6940        16.7230         0.0834         6.9909         6.9909         6.2020         6.0834      4400.8726
    3743.55360     -0.0069217       352.7500       115.2655         0.1637         5.7777         5.7777        15.9092         0.0635         7.0173         7.0173         6.2092         6.0839      4471.4580
    3743.70600     -0.0071683       352.7500       115.9701         0.1612         5.7042         5.7042        15.6701         0.0868         7.0424         7.0424         6.2193         6.1079      4433.1675
    3743.85840     -0.0070683       352.7500       114.7851         0.1056         5.7155         5.7155        14.6780        -0.0476         7.0996         7.0996         6.2219         6.1153      4421.1294
    3744.01080     -0.0077367       352.7500       115.2868         0.1737         5.6481         5.6481        14.7437         0.0384         7.0646         7.0646         6.2227         6.1129      4442.8438
    3744.16320     -0.0089783       352.7500       114.9135         0.0449         5.5783         5.5783        14.7756        -0.0671         7.0436         7.0436         6.2227         6.1041      4375.8105
    3744.31560     -0.0076050       352.7500       115.5638         0.0841         5.4799         5.4799        14.0484         0.0706         6.9924         6.9924         6.2228         6.1039      4436.6958
    3744.46800     -0.0072483       352.7500       115.2478         0.0321         5.2940         5.2940        13.6985         0.0763         7.0509         7.0509         6.2236         6.0840      4373.0161
    3744.62040     -0.0073083       352.7500       115.6113         0.2110         5.3382         5.3382        13.9290        -0.0031         6.9983         6.9983         6.2224         6.0876      4427.1250
    3744.77280     -0.0072850       352.7500       114.6841         0.1378         5.4315         5.4315        14.6346         0.0029         7.0618         7.0618         6.2224         6.0890      4427.1860
    3744.92520     -0.0073800       352.7500       115.0813         0.1251         5.4214         5.4214        15.0806        -0.0231         7.0993         7.0993         6.2220         6.0844      4416.3267
    3745.07760     -0.0082800       352.7500       115.7760         0.0914         5.4717         5.4717        15.3078         0.0949         7.1150         7.1150         6.2222         6.0834      4437.3525
    3745.23000     -0.0090167       352.7500       117.8302        -0.0382         5.3503         5.3503        14.6709         0.0890         7.1139         7.1139         6.2219         6.0834      4456.7256
    3745.38240     -0.0091350       352.7500       118.4755         0.2056         5.3550         5.3550        14.3085        -0.1386         7.0926         7.0926         6.2219         6.0837      4379.4302
    3745.53480     -0.0082217       352.7500       118.2116        -0.0396         5.3787         5.3787        14.5651         0.0593         7.0340         7.0340         6.2219         6.0834      4457.2964
    3745.68720     -0.0072567       352.7500       117.5849         0.0928         5.5447         5.5447        14.6633         0.1205         7.1047         7.1047         6.2219         6.0883      4403.1172
    3745.83960     -0.0073167       352.7500       116.9246         0.0675         5.5447         5.5447        16.0250        -0.0154         7.1365         7.1365         6.2219         6.0834      4373.6265
    3745.99200     -0.0071950       352.7500       117.0260         0.0705         5.5425         5.5425        17.0210         0.0440         7.0996         7.0996         6.2219         6.0834      4460.9087
    3746.14440     -0.0072250       352.7500       117.3894         0.0034         5.5386         5.5386        17.3708         0.0490         7.0956         7.0956         6.2219         6.0748      4403.5112
    3746.29680     -0.0072300       352.7500       116.6202         0.0756         5.3530         5.3530        16.7581         0.0526         7.0942         7.0942         6.2219         6.0539      4452.1455
    3746.44920     -0.0073400       352.7500       117.5150         0.0814         5.2388         5.2388        16.4861         0.1105         7.1054         7.1054         6.2219         6.0574      4390.6338
    3746.60160     -0.0088250       352.7500       118.5250         0.0398         5.1690         5.1690        15.9554         0.0731         7.0920         7.0920         6.2219         6.0606      4376.5474
    3746.75400     -0.0089167       352.7500       117.6008         0.0194         5.1761         5.1761        16.0068         0.0112         7.1165         7.1165         6.2220         6.0575      4470.8589
    3746.90640     -0.0089917       352.7500       118.0709         0.1390         5.1188         5.1188        16.2903         0.0990         7.2219         7.2219         6.2221         6.0721      4396.8862
    3747.05880     -0.0084417       352.7500       117.8853        -0.0923         5.1560         5.1560        16.2527        -0.0480         7.2058         7.2058         6.2220         6.0715      4366.0039
    3747.21120     -0.0071083       352.7500       119.0023         0.1003         5.1608         5.1608        15.8040         0.0035         7.1986         7.1986         6.2220         6.0624      4500.0747
    3747.36360     -0.0071317       352.7500       119.5931         0.1114         4.9423         4.9423        15.4427         0.0325         7.1553         7.1553         6.2219         6.0788      4408.6265
    3747.51600     -0.0070067       352.7500       119.3185         0.1255         4.9416         4.9416        15.4805         0.0799         7.2455         7.2455         6.2220         6.0810      4403.1753
    3747.66840     -0.0071133       352.7500       117.4676         0.0203         4.9567         4.9567        15.8070         0.0547         7.1865         7.1865         6.2219         6.0834      4477.9971
    3747.82080     -0.0069617       352.7500       116.7541        -0.0058         5.0499         5.0499        16.1149         0.0058         7.0715         7.0715         6.2219         6.0834      4493.2158
    3747.97320     -0.0076633       352.7500       115.9173        -0.0039         5.1487         5.1487        16.7524         0.0022         7.1516         7.1516         6.2220         6.0834      4483.3696
    3748.12560     -0.0088733       352.7500       116.2572         0.1042         5.1795         5.1795        16.7927         0.0307         7.1818         7.1818         6.2221         6.0834      4484.2920
    3748.27800     -0.0088633       352.7500       116.1380         0.0407         5.1886         5.1886        16.4115         0.0477         7.0588         7.0588         6.2223         6.0814      4476.8296
    3748.43040     -0.0082000       352.7500       116.1405        -0.1035         5.2460         5.2460        16.9568         0.0671         7.1240         7.1240         6.2221         6.0734      4447.3574
    3748.58280     -0.0072233       352.7500       116.3910         0.0498         5.2306         5.2306        17.1227         0.0380         7.1083         7.1083         6.2219         6.0539      4367.3071
    3748.73520     -0.0068933       351.3390       116.2683         0.1054         5.1483         5.1483        16.4093         0.0701         7.0803         7.0803         6.2219         6.0577      4530.4590
