~Version Information Block
VERS .                 2.00:  CWLS LOG ASCII STANDARD - VERSION 2.00
WRAP .                  YES:  Multiple lines per depth step
~Well Information Block
#MNEM.UNIT        Data Type   Information
#---------- ----------------  -----------
STRT .M          3437.38200:  START DEPTH
STOP .M          3636.11160:  STOP DEPTH
STEP .M             0.15240:  STEP
NULL .              -999.25:  NULL VALUE
COMP .                     :  COMPANY
WELL .          NO_15/9-F-5:  WELL
FLD  .                     :  FIELD
LOC  .                     :  LOCATION
CTRY .                     :  COUNTRY
STAT .                     :  STATE
CNTY .                     :  COUNTY
SRVC .                     :  SERVICE COMPANY
DATE .                     :  DATE
API  .                     :  API NUMBER
UWI  .                     :  UNIQUE WELL ID
~Curve Information Block
#MNEM.UNIT         API CODE   Curve Description
#---------- ----------------  -----------------
DEPTH.M                    :  
BSAL .PPM                  :  (RST-D)                 (6in)                   Borehole Salinity Depths
CCLC .V                    :  (PSTP-B)                (1in)                   CCL Computed Amplitude D
CIRF .                     :  (RST-D)                 (6in)                   Capture to Inelastic Rat
CIRN .                     :  (RST-D)                 (6in)                   Capture to Inelastic Rat
CVEL .M/SEC                 :  (WLWorkflow)            (1in)                   Cable Velocity Depthshif
DSIG .CU                   :  (RST-D)                 (6in)                   Sigma Difference Depthsh
DSIG21.                     :  SIGM_1 -RSTD_0912_OW.SAT201SI_SIGR_1
FBEF .UA                   :  (RST-D)                 (6in)                   Far Effective Beam Curre
GR   .GAPI                 :  (PSTP-B)                (6in)                   Gamma Ray Depthshifted
IRAT .                     :  (RST-D)                 (6in)                   Inelastic Ratio Depthshi
RB_PCMS.DEG                  :  (PCMS-A)                (6in)                   Relative Bearing Depthsh
RSCF .                     :  (RST-D)                 (6in)                   Far Detector Effective U
RSCN .                     :  (RST-D)                 (6in)                   Near Detector Effective
SFFA .CU                   :  (RST-D)                 (6in)                   Sigma Formation Far Appa
SIBF .CU                   :  (RST-D)                 (6in)                   Sigma Borehole Fluid Dep
SIGM .CU                   :  (RST-D)                 (6in)                   Formation Sigma (Neutron
TENS .LBF                  :  (WLWorkflow)            (1in)                   Cable Tension Depthshift
TPHI .V/V                  :  (RST-D)                 (6in)                   Thermal Decay Porosity D
WPRE .BAR                  :  (PSTP-B)                (6in)                   Well Pressure Depthshift
WTEP .DEGC                 :  (PSTP-B)                (6in)                   Well Temperature Depthsh
~Parameter Information Block
#MNEM.UNIT            Value   Description
#---------- ----------------  -----------
PROJECT.     SLEIPNER_OST@st-vlinapp01:  
SET  .     RSTD_1115_SIG1_DS:  
~Other Information Block
~Ascii Log Data
# ...
    3441.34440 
     -999.2500         0.0008      -999.2500    -999.250000   -999.2500000 
     -999.2500      -999.2500      -999.2500        41.5320    -999.250000 
      355.4880      -999.2500      -999.2500      -999.2500      -999.2500 
     -999.2500      -999.2500    -999.250000       358.4827        83.7324
    3441.49680 
     -999.2500         0.0237      -999.2500    -999.250000   -999.2500000 
     -999.2500      -999.2500      -999.2500        40.7598    -999.250000 
      355.5807      -999.2500      -999.2500      -999.2500      -999.2500 
     -999.2500      -999.2500    -999.250000       358.4959        83.7341
    3441.64920 
     -999.2500         0.0346      -999.2500    -999.250000   -999.2500000 
     -999.2500      -999.2500      -999.2500        43.9153    -999.250000 
      355.8304      -999.2500      -999.2500      -999.2500      -999.2500 
     -999.2500      -999.2500    -999.250000       358.5049        83.7367
    3441.80160 
     -999.2500        -0.0973      -999.2500    -999.250000   -999.2500000 
     -999.2500      -999.2500      -999.2500        43.4863    -999.250000 
      355.9289      -999.2500      -999.2500      -999.2500      -999.2500 
     -999.2500      -999.2500    -999.250000       358.5159        83.7366
    3441.95400 
     -999.2500        -0.0113      -999.2500    -999.250000   -999.2500000 
     -999.2500      -999.2500      -999.2500        43.5389    -999.250000 
      355.9548      -999.2500      -999.2500      -999.2500      -999.2500 
     -999.2500      -999.2500    -999.250000       358.5267        83.7431
    3442.10640 
     -999.2500         0.0235      -999.2500    -999.250000   -999.2500000 
     -999.2500      -999.2500      -999.2500        43.7963    -999.250000 
      355.9624      -999.2500      -999.2500      -999.2500      -999.2500 
     -999.2500      -999.2500    -999.250000       358.5380        83.7449
    3442.25880 
     -999.2500        -0.0136      -999.2500    -999.250000   -999.2500000 
     -999.2500      -999.2500      -999.2500        44.2254    -999.250000 
      355.9196      -999.2500      -999.2500      -999.2500      -999.2500 
     -999.2500      -999.2500    -999.250000       358.5494        83.7471
    3442.41120 
     -999.2500        -0.0788      -999.2500    -999.250000   -999.2500000 
     -999.2500      -999.2500      -999.2500        41.1528    -999.250000 
      355.7622      -999.2500      -999.2500      -999.2500      -999.2500 
     -999.2500      -999.2500    -999.250000       358.5601        83.7513
    3442.56360 
     -999.2500         0.0326      -999.2500    -999.250000   -999.2500000 
     -999.2500      -999.2500      -999.2500        40.7238    -999.250000 
      355.5779      -999.2500      -999.2500      -999.2500      -999.2500 
     -999.2500      -999.2500    -999.250000       358.5690        83.7557
    3442.71600 
     -999.2500         0.1303      -999.2500    -999.250000   -999.2500000 
     -999.2500      -999.2500      -999.2500        40.3916    -999.250000 
      355.4225      -999.2500      -999.2500      -999.2500      -999.2500 
     -999.2500      -999.2500    -999.250000       358.5823        83.7590
    3442.86840 
     -999.2500         0.0051      -999.2500    -999.250000   -999.2500000 
     -999.2500      -999.2500      -999.2500        41.0781    -999.250000 
      355.1966      -999.2500      -999.2500      -999.2500      -999.2500 
     -999.2500      -999.2500    -999.250000       358.5905        83.7616
    3443.02080 
     -999.2500        -0.0341      -999.2500    -999.250000   -999.2500000 
     -999.2500      -999.2500      -999.2500        42.1936    -999.250000 
      355.1063      -999.2500      -999.2500      -999.2500      -999.2500 
     -999.2500      -999.2500    -999.250000       358.6032        83.7629
    3443.17320 
     -999.2500        -0.0094      -999.2500    -999.250000   -999.2500000 
     -999.2500      -999.2500      -999.2500        43.9126    -999.250000 
      354.9671      -999.2500      -999.2500      -999.2500      -999.2500 
     -999.2500      -999.2500    -999.250000       358.6137        83.7641
    3443.32560 
    59408.9883        -0.0193         1.0083       0.416560   -999.2500000 
     -999.2500      -999.2500       108.1831        43.4835       0.308150 
      354.7420         3.2133         4.2452        32.5805        43.2060 
     -999.2500      -999.2500       0.361940       358.6219        83.7660
    3443.47800 
    62648.4297         0.1856         1.0891       0.429490   -999.2500000 
     -999.2500      -999.2500       104.3889        41.9888       0.309670 
      354.5539         3.5348         4.2952        30.3987        44.3975 
     -999.2500      -999.2500       0.341460       358.6361        83.7673
    3443.63040 
    54626.4609         0.0653         1.0881       0.436090   -999.2500000 
     -999.2500      -999.2500       113.5563        39.9293       0.313780 
      354.3886         3.3492         4.4814        31.1339        41.4550 
     -999.2500      -999.2500       0.343720       358.6432        83.7704
    3443.78280 
    56782.8203         0.0327         1.1301       0.452270   -999.2500000 
     -999.2500      -999.2500       105.3267        38.0415       0.312660 
      354.1145         3.5878         4.3318        30.7353        42.2433 
     -999.2500      -999.2500       0.347420       358.6551        83.7671
    3443.93520 
    59394.6406        -0.0525         1.0771       0.464300   -999.2500000 
     -999.2500      -999.2500       106.5281        35.7246       0.311750 
      354.0550         3.4371         4.7451        31.0539        43.2007 
     -999.2500      -999.2500       0.367340       358.6680        83.7676
    3444.08760 
    61636.3125         0.0065         1.0067       0.439150   -999.2500000 
     -999.2500      -999.2500       111.3208        35.4672       0.305680 
      354.3099         3.1156         4.4482        35.0293        44.0247 
     -999.2500      -999.2500       0.379240       358.6741        83.7685
    3444.24000 
    59575.6914         0.0335         0.9010       0.412560   -999.2500000 
        3.1822      -999.2500       106.4538        34.3240       0.303260 
      354.2323         2.9616         4.3148        34.3401        43.2672 
       33.1789      -999.2500       0.383700       358.6918        83.7673
    3444.39240 
    60193.4805        -0.0586         0.9821       0.422230   -999.2500000 
        4.1811      -999.2500       106.2820        34.1524       0.307680 
      354.1584         3.4084         4.7520        31.9785        43.4941 
       30.6322      -999.2500       0.374050       358.6964        83.7698
    3444.54480 
    59624.5312         0.1549         1.0971       0.447090   -999.2500000 
        4.8178      -999.2500       102.6061        31.8355       0.303990 
      354.2221         3.7184         4.7231        29.4412        43.2851 
       28.0064      -999.2500       0.351350       358.7086        83.7685
    3444.69720 
    57842.5781         0.0562         1.2759       0.448020   -999.2500000 
        4.6945      -999.2500       108.0722        29.7761       0.299590 
      354.1446         4.2245         5.0418        28.2188        42.6314 
       26.4424      -999.2500       0.326290       358.7206        83.7711
    3444.84960 
    57456.1094         0.0103         1.2102       0.401500   -999.2500000 
        4.6896      -999.2500       105.8404        28.1457       0.296730 
      354.2512         4.2640         4.7260        28.4543        42.4898 
       25.6255      -999.2500       0.302160       358.7310        83.7729
    3445.00200 
    57180.4219        -0.3042         1.1064       0.417840   -999.2500000 
        4.6091      -999.2500       103.8895        28.6605       0.308390 
      354.1803         3.9144         4.7411        26.8792        42.3889 
       24.5803      -999.2500       0.287020       358.7448        83.7750
    3445.15440 
    56891.3789        -0.0058         1.4442       0.495790   -999.2500000 
        4.4161      -999.2500       100.3824        27.6308       0.320570 
      353.9650         5.0461         5.1251        25.0457        42.2830 
       23.3587      -999.2500       0.267780       358.7485        83.7762
