~Version Information Block
VERS .                 2.00:  CWLS LOG ASCII STANDARD - VERSION 2.00
WRAP .                   NO:  One line per depth step
~Well Information Block
#MNEM.UNIT        Data Type   Information
#---------- ----------------  -----------
STRT .M          3451.70760:  START DEPTH
STOP .M          3790.03560:  STOP DEPTH
STEP .M             0.15240:  STEP
NULL .              -999.25:  NULL VALUE
COMP .              Statoil:  COMPANY
WELL .        NO_15/9-F-1_C:  WELL
FLD  .                Volve:  FIELD
LOC  .            North Sea:  LOCATION
CTRY .               Norway:  COUNTRY
STAT .                     :  STATE
CNTY .                     :  COUNTY
SRVC .         Schlumberger:  SERVICE COMPANY
DATE .          27-Nov-2014:  DATE
API  .                     :  API NUMBER
UWI  .           15/9-F-1 C:  UNIQUE WELL ID
LATI .     58° 26' 29.91" N:  LATITUDE
LONG .      1° 53' 14.71" E:  LONGITUDE
~Curve Information Block
#MNEM.UNIT         API CODE   Curve Description
#---------- ----------------  -----------------
DEPTH.M                    :  DEPTH (BOREHOLE)
CVEL .M/SEC                 :  Cable Velocity
DFRB .DEG                  :  Calibrated Relative Bearing
FBEF .UA                   :  RST Far Effective Beam Current
FCOR .                     :  RST Far Carbon/Oxygen Ratio
FERD .                     :  RST Far IC Mode Capture Optimization
FIRD .                     :  RST Far Inelastic Optimization Resolution
GR   .GAPI                 :  Gamma Ray
NCOR .                     :  RST Near Carbon/Oxygen Ratio
NERD .                     :  RST Near IC Mode Capture Optimization
NIRD .                     :  RST Near Inelastic Optimization Resolution
PFC1 .IN                   :  PFCS CaliperX
PFC2 .IN                   :  PFCS CaliperY
TENS .LBF                  :  Cable Tension
~Parameter Information Block
#MNEM.UNIT            Value   Description
#---------- ----------------  -----------
APD  .M           54.900002:  Elevation of Depth Reference (LMF) above Permanent Datum
EPD  .C3                  0:  Elevation of Permanent Datum above Mean Sea Level
LMF  .                   KB:  Logging Measured From (Name of Logging Elevation Reference)
PDAT .                  MSL:  Permanent Datum
RUN  .                Run 1:  RUN NUMBER
TAPE_NAME.     Statoil_Volve_15-9-F-1 C_PLT-RST_28Nov14_ConCu_R1L18Up_IC2.las:  
TOOL_STRING.              UNKNOWN:  
WN   .           15/9-F-1 C:  WELL
PROJECT.     SLEIPNER_OST@st-vlinapp01:  
SET  .        RSTD_1114_IC2:  
~Other Information Block
# 
~A       DEPTH           CVEL           DFRB           FBEF           FCOR           FERD           FIRD             GR           NCOR           NERD           NIRD           PFC1           PFC2           TENS 
# ...
    3493.31280     -0.0084067       355.5720       108.1469         0.2171         5.0388         5.0388        35.0358         0.8981         6.9291         6.9291         6.2218         6.0239      4187.2393
    3493.46520     -0.0085733       355.5720       108.7676         0.2171         5.0944         5.0944        33.3595         0.7354         6.8970         6.8970         6.2219         6.0186      4086.4084
    3493.61760     -0.0088733       355.5720       108.6408         0.1633         4.9911         4.9911        29.2535         0.7562         6.8966         6.8966         6.2219         6.0186      3998.2617
    3493.77000     -0.0081100       355.5720       108.8382         0.1263         4.8872         4.8872        25.0863         0.8058         6.8747         6.8747         6.2219         6.0186      4413.1826
    3493.92240     -0.0081817       356.9830       109.0033         0.0731         4.9138         4.9138        26.1254         0.7081         6.9249         6.9249         6.2219         6.0186      4352.2773
    3494.07480     -0.0081250       356.9830       108.5993         0.0914         4.8864         4.8864        27.9055         0.7426         6.9077         6.9077         6.2219         6.0187      4326.5786
    3494.22720     -0.0082500       358.3940       108.4807         0.1541         4.9190         4.9190        29.6079         0.6376         6.8794         6.8794         6.2212         6.0201      4316.1123
    3494.37960     -0.0083733       358.3940       108.5862         0.1068         4.9799         4.9799        31.0455         0.7759         6.8766         6.8766         6.2217         6.0195      4243.6973
    3494.53200     -0.0083167       358.3940       109.5858         0.1576         5.0883         5.0883        32.4982         0.7173         6.8733         6.8733         6.2213         6.0191      4178.5615
    3494.68440     -0.0083767       358.3940       109.3097         0.1714         5.1869         5.1869        32.6513         0.7531         6.8895         6.8895         6.2217         6.0186      4146.0591
    3494.83680     -0.0081150       358.3940       108.6584         0.2386         5.1962         5.1962        32.2130         0.6466         6.8562         6.8562         6.2219         6.0186      4279.3218
    3494.98920     -0.0083033       358.3940       108.8631         0.0682         5.1755         5.1755        32.1931         0.7486         6.8754         6.8754         6.2219         6.0186      4178.1558
    3495.14160     -0.0082983       358.3940       109.3928         0.1003         5.2126         5.2126        32.0651         0.6562         6.8299         6.8299         6.2219         6.0186      4236.1450
    3495.29400     -0.0082933       358.3940       108.6288         0.0632         5.2959         5.2959        32.0784         0.7569         6.7784         6.7784         6.2219         6.0186      4270.6123
    3495.44640     -0.0083200       358.3940       109.1801         0.2256         5.3266         5.3266        31.5535         0.7428         6.7939         6.7939         6.2216         6.0186      4181.6108
    3495.59880     -0.0084217       358.3940       108.8557         0.2499         5.3581         5.3581        30.9610         0.6633         6.8092         6.8092         6.2217         6.0186      4102.5259
    3495.75120     -0.0082300       358.3940       107.4526         0.1881         5.3150         5.3150        29.8845         0.6283         6.8107         6.8107         6.2218         6.0186      4269.0503
    3495.90360     -0.0083767       358.3940       108.0326         0.1750         5.2283         5.2283        28.8243         0.7828         6.8098         6.8098         6.2218         6.0186      4141.0513
    3496.05600     -0.0081250       358.3940       107.9774         0.0930         5.3084         5.3084        27.6262         0.6829         6.8452         6.8452         6.2219         6.0186      4239.3965
    3496.20840     -0.0083100       358.3940       108.5373         0.1508         5.2506         5.2506        28.6607         0.7833         6.7673         6.7673         6.2219         6.0186      4233.9424
    3496.36080     -0.0085483       358.3940       107.8595         0.2664         5.2781         5.2781        31.0028         0.6020         6.7701         6.7701         6.2219         6.0186      4134.7568
    3496.51320     -0.0080950       356.9830       107.9145         0.1386         5.2910         5.2910        32.1819         0.7033         6.7569         6.7569         6.2216         6.0186      4361.0176
    3496.66560     -0.0081950       356.9830       109.3886         0.1711         5.3274         5.3274        33.0723         0.7648         6.7554         6.7554         6.2205         6.0186      4277.6919
    3496.81800     -0.0081700       356.9830       110.9007        -0.0779         5.2917         5.2917        36.0862         0.8829         6.7322         6.7322         6.2219         6.0186      4236.8896
    3496.97040     -0.0080800       358.3940       111.0175         0.1707         5.2838         5.2838        38.3092         0.7351         6.7509         6.7509         6.2217         6.0186      4271.7319
    3497.12280     -0.0082017       358.3940       111.9829         0.1029         5.2507         5.2507        39.6882         0.7464         6.7648         6.7648         6.2219         6.0186      4240.6904
    3497.27520     -0.0083500       358.3940       112.8984         0.1442         5.1952         5.1952        43.1274         0.7573         6.7644         6.7644         6.2219         6.0186      4221.7466
    3497.42760     -0.0083050       358.3940       112.9609         0.0986         5.1594         5.1594        47.6762         0.7882         6.7713         6.7713         6.2219         6.0186      4255.3525
    3497.58000     -0.0082433       356.9830       112.7410         0.1479         5.1684         5.1684        49.4852         0.7215         6.7649         6.7649         6.2218         6.0186      4245.9282
    3497.73240     -0.0082117       356.9830       112.1628         0.2228         5.0649         5.0649        50.3429         0.8451         6.7129         6.7129         6.2219         6.0186      4281.9639
    3497.88480     -0.0081867       358.3940       112.3676         0.0891         5.0692         5.0692        50.1892         0.6748         6.7535         6.7535         6.2219         6.0186      4228.0107
    3498.03720     -0.0083150       358.3940       111.4464         0.0829         5.1207         5.1207        48.2557         0.6220         6.7390         6.7390         6.2219         6.0186      4130.9199
    3498.18960     -0.0083683       358.3940       111.6958         0.0751         5.1669         5.1669        45.8638         0.6254         6.7742         6.7742         6.2219         6.0186      4075.7629
    3498.34200     -0.0080800       358.3940       111.7204         0.0303         5.1021         5.1021        44.0787         0.8645         6.7989         6.7989         6.2218         6.0186      4304.9189
    3498.49440     -0.0081700       356.9830       109.7616         0.2376         5.1943         5.1943        41.6805         0.5841         6.7564         6.7564         6.2219         6.0186      4223.6929
    3498.64680     -0.0083283       356.9830       109.3731         0.1370         5.1293         5.1293        39.3851         0.7059         6.7134         6.7134         6.2218         6.0186      4170.9746
    3498.79920     -0.0086433       356.9830       108.4220         0.1570         5.0616         5.0616        40.2386         0.6201         6.7354         6.7354         6.2219         6.0186      4039.8684
    3498.95160     -0.0081917       358.3940       109.2025         0.1640         5.0351         5.0351        41.5773         0.7478         6.7649         6.7649         6.2218         6.0186      4356.1270
    3499.10400     -0.0081133       358.3940       109.0443         0.1384         4.8827         4.8827        42.9880         1.0006         6.7507         6.7507         6.2219         6.0194      4312.1089
