~Version Information Block
VERS .                 2.00:  CWLS LOG ASCII STANDARD - VERSION 2.00
WRAP .                   NO:  One line per depth step
~Well Information Block
#MNEM.UNIT        Data Type   Information
#---------- ----------------  -----------
STRT .M          3201.31440:  START DEPTH
STOP .M          3410.40720:  STOP DEPTH
STEP .M             0.15240:  STEP
NULL .              -999.25:  NULL VALUE
COMP .              Statoil:  COMPANY
WELL .          NO_15/9-F-4:  WELL
FLD  .                VOLVE:  FIELD
LOC  .            North Sea:  LOCATION
CTRY .                     :  COUNTRY
STAT .                     :  STATE
CNTY .                     :  COUNTY
SRVC .         Schlumberger:  SERVICE COMPANY
DATE .          13-Sep-2012:  DATE
API  .                     :  API NUMBER
UWI  .             15/9-F-4:  UNIQUE WELL ID
~Curve Information Block
#MNEM.UNIT         API CODE   Curve Description
#---------- ----------------  -----------------
DEPTH.M                    :  DEPTH (BOREHOLE)
CCLC .V                    :  CCL
CCLD .V                    :  CCL Discriminated Amplitude
CRRA .                     :  Near-Far Count Rate Ratio
CVEL .M/MIN                 :  Cable Velocity
DEVI .DEG                  :  Hole Deviation
FBEF .UA                   :  RST Far Effective Beam Current
FCOR .                     :  RST Far Carbon/Oxygen Ratio
FERD .                     :  RST Far IC Mode Capture Optimization Resolution Degradation Factor
FIRD .                     :  RST Far Inelastic Optimization Resolution Degradation Factor
GR   .GAPI                 :  Gamma Ray
NCOR .                     :  RST Near Carbon/Oxygen Ratio
NERD .                     :  RST Near IC Mode Capture Optimization Resolution Degradation Factor
NIRD .                     :  RST Near Inelastic Optimization Resolution Degradation Factor
RB_PCMS.DEG                  :  Relative Bearing
TENS .LBF                  :  Cable Tension
WPRE .PSI                  :  Well Pressure
WTEP .DEGC                 :  Well Temperature
WTPE .MS                   :  Well Temperature Period
~Parameter Information Block
#MNEM.UNIT            Value   Description
#---------- ----------------  -----------
APD  .M                  54:  Elevation of Depth Reference (LMF) above Permanent Datum
RUN  .                    1:  RUN NUMBER
PROJECT.     SLEIPNER_OST@st-vlinapp01:  
SET  .        RSTD_0912_IC2:  
~Other Information Block
# 
~A       DEPTH           CCLC           CCLD           CRRA           CVEL           DEVI           FBEF           FCOR           FERD           FIRD             GR           NCOR           NERD           NIRD        RB_PCMS           TENS           WPRE           WTEP           WTPE 
# ...
    3364.83960       -0.01310        0.00000         2.7847       -0.46020        55.8266       108.6652         0.0596         4.6893         4.6893        31.0629    -0.10740000         2.3668         2.3668       356.2528      2321.1445      5000.2510        83.1559         3.9106
    3364.99200       -0.02050        0.00000         2.8190       -0.45680        55.8261       108.6353        -0.0521         4.7455         4.7455        30.5934    -0.02250000         2.3537         2.3537       356.2484      2320.7500      5000.3765        83.1430         3.9105
    3365.14440       -0.04340        0.00000         2.7973       -0.46220        55.8376       109.7667        -0.0438         4.7781         4.7781        30.0252    -0.02930000         2.3970         2.3970       356.1736      2316.3108      5000.4893        83.1206         3.9103
    3365.29680       -0.03070        0.00000         2.8182       -0.45610        55.8574       110.8697         0.0097         4.6841         4.6841        29.5824    -0.03490000         2.3659         2.3659       356.0313      2326.7734      5000.6294        83.1019         3.9101
    3365.44920       -0.01180        0.00000         2.8454       -0.45500        55.8705       110.4829        -0.0069         4.6945         4.6945        28.8073    -0.04710000         2.3765         2.3765       356.0089      2319.8582      5000.7256        83.0811         3.9100
    3365.60160       -0.01390        0.00000         2.8278       -0.47240        55.9018       110.9267        -0.0081         4.5990         4.5990        28.2169     0.00390000         2.3669         2.3669       356.0973      2321.6919      5000.8613        83.0630         3.9098
    3365.75400       -0.01060        0.00000         2.8338       -0.46430        55.9316       111.7480        -0.1141         4.5199         4.5199        28.3796    -0.02180000         2.3806         2.3806       356.1093      2315.7297      5000.9761        83.0328         3.9095
    3365.90640       -0.01120        0.00000         2.8593       -0.47140        55.9470       111.9362         0.0676         4.5946         4.5946        29.0092     0.01530000         2.3788         2.3788       356.1884      2314.7080      5001.1006        83.0150         3.9094
    3366.05880       -0.01030        0.00000         2.8545       -0.46120        55.9099       111.7808        -0.0464         4.5251         4.5251        29.8109     0.02980000         2.3959         2.3959       356.3140      2334.1560      5001.1953        83.0033         3.9093
    3366.21120       -0.01050        0.00000         2.8534       -0.46590        55.9228       111.6095        -0.0303         4.5288         4.5288        30.0029    -0.04770000         2.4282         2.4282       356.3050      2317.3853      5001.2920        82.9557         3.9089
    3366.36360       -0.00830        0.00000         2.8513       -0.46900        55.8992       111.4449         0.0307         4.5296         4.5296        30.7246    -0.00450000         2.4420         2.4420       356.3481      2327.2466      5001.4814        82.9463         3.9088
    3366.51600       -0.01050        0.00000         2.8507       -0.46470        55.9253       111.1889        -0.1354         4.5334         4.5334        30.3838    -0.03640000         2.4396         2.4396       356.4129      2326.2358      5001.5420        82.9257         3.9086
    3366.66840       -0.01070        0.00000         2.8710       -0.46510        55.9502       109.7084         0.0171         4.4832         4.4832        29.8021     0.02910000         2.3800         2.3800       356.6222      2329.9053      5001.7041        82.9093         3.9084
    3366.82080       -0.00690        0.00000         2.8241       -0.45890        55.9610       110.2861         0.0031         4.4770         4.4770        29.6969    -0.02620000         2.3824         2.3824       356.6916      2328.7947      5001.8149        82.8871         3.9083
    3366.97320       -0.00450        0.00000         2.8331       -0.46350        55.9696       110.8733         0.0449         4.5415         4.5415        29.9752     0.01970000         2.3983         2.3983       356.6959      2325.1797      5001.9199        82.8656         3.9081
    3367.12560       -0.00270        0.00000         2.8379       -0.46330        55.9718       110.0882        -0.1536         4.6281         4.6281        30.3374     0.03950000         2.3403         2.3403       356.7248      2326.1116      5002.0444        82.8348         3.9078
    3367.27800       -0.00260        0.00000         2.8164       -0.47210        55.9623       110.4848         0.0286         4.6234         4.6234        31.2205     0.02460000         2.3900         2.3900       356.7829      2336.9829      5002.1592        82.7977         3.9075
    3367.43040       -0.00250        0.00000         2.8205       -0.46950        55.9502       110.1217        -0.0356         4.7412         4.7412        31.7248     0.04450000         2.3947         2.3947       356.8690      2315.9275      5002.2739        82.7961         3.9074
    3367.58280       -0.00160        0.00000         2.8172       -0.46800        55.9336       110.8011        -0.1825         4.6793         4.6793        31.9948    -0.01010000         2.3927         2.3927       356.9055      2323.7620      5002.3618        82.7589         3.9071
    3367.73520       -0.08000        0.00000         2.8420       -0.46720        55.9199       109.2944        -0.0628         4.7541         4.7541        31.5066    -0.03940000         2.4317         2.4317       356.8819      2321.9382      5002.5347        82.7471         3.9070
    3367.88760       -0.00450        0.00000         2.8199       -0.46720        55.9066       109.1794        -0.0169         4.6815         4.6815        31.2906    -0.00180000         2.4232         2.4232       356.7592      2324.5254      5002.6265        82.6954         3.9066
    3368.04000       -0.00910        0.00000         2.8302       -0.46820        55.8841       110.7058        -0.0315         4.8187         4.8187        31.2409     0.02900000         2.4153         2.4153       356.6185      2334.7065      5002.7471        82.6751         3.9064
    3368.19240       -0.01170        0.00000         2.8683       -0.46680        55.8562       111.4460        -0.1060         4.8124         4.8124        31.8644     0.06410000         2.3962         2.3962       356.5897      2316.4316      5002.8584        82.6361         3.9060
    3368.34480       -0.01050        0.00000         2.8963       -0.45850        55.8414       111.4905        -0.0567         4.7277         4.7277        32.4901    -0.00300000         2.4419         2.4419       356.5983      2338.2668      5003.0098        82.6053         3.9058
    3368.49720       -0.00970        0.00000         2.8795       -0.46480        55.8224       112.6975        -0.0484         4.7793         4.7793        33.2950    -0.01100000         2.4048         2.4048       356.6383      2319.3582      5003.1270        82.5759         3.9055
    3368.64960       -0.00880        0.00000         2.9082       -0.46200        55.8315       111.8050        -0.0868         4.6869         4.6869        33.7761    -0.03700000         2.4031         2.4031       356.6567      2324.3582      5003.2495        82.5421         3.9052
    3368.80200       -0.07660        0.00000         2.8684       -0.46850        55.7402       111.7856        -0.1962         4.7675         4.7675        33.9836    -0.03440000         2.4156         2.4156       356.6551      2331.5615      5003.3721        82.5033         3.9049
    3368.95440       -0.08880        0.00000         2.8527       -0.46560        55.7728       111.7725        -0.1577         4.8256         4.8256        33.8783    -0.01810000         2.4394         2.4394       356.6176      2331.3501      5003.4868        82.4694         3.9046
    3369.10680        0.13350        0.00000         2.8662       -0.46310        55.7634       112.0259        -0.0063         4.8198         4.8198        33.5441     0.05600000         2.4712         2.4712       356.4642      2334.5891      5003.5835        82.4490         3.9044
