~Version Information Block
VERS .                 2.00:  CWLS LOG ASCII STANDARD - VERSION 2.00
WRAP .                  YES:  Multiple lines per depth step
~Well Information Block
#MNEM.UNIT        Data Type   Information
#---------- ----------------  -----------
STRT .M          3437.38200:  START DEPTH
STOP .M          3636.11160:  STOP DEPTH
STEP .M             0.15240:  STEP
NULL .              -999.25:  NULL VALUE
COMP .                     :  COMPANY
WELL .          NO_15/9-F-5:  WELL
FLD  .                     :  FIELD
LOC  .                     :  LOCATION
CTRY .                     :  COUNTRY
STAT .                     :  STATE
CNTY .                     :  COUNTY
SRVC .                     :  SERVICE COMPANY
DATE .                     :  DATE
API  .                     :  API NUMBER
UWI  .                     :  UNIQUE WELL ID
~Curve Information Block
#MNEM.UNIT         API CODE   Curve Description
#---------- ----------------  -----------------
DEPTH.M                    :  
BSAL .PPM                  :  (RST-D)                 (6in)                   Borehole Salinity Depths
CCLC .V                    :  (PSTP-B)                (1in)                   CCL Computed Amplitude D
CIRF .                     :  (RST-D)                 (6in)                   Capture to Inelastic Rat
CIRN .                     :  (RST-D)                 (6in)                   Capture to Inelastic Rat
CVEL .M/SEC                 :  (WLWorkflow)            (1in)                   Cable Velocity Depthshif
DSIG .CU                   :  (RST-D)                 (6in)                   Sigma Difference Depthsh
DSIG21.                     :  SIGM_1 -RSTD_0912_OW.SAT201SI_SIGR_1
FBEF .UA                   :  (RST-D)                 (6in)                   Far Effective Beam Curre
GR   .GAPI                 :  (PSTP-B)                (6in)                   Gamma Ray Depthshifted
IRAT .                     :  (RST-D)                 (6in)                   Inelastic Ratio Depthshi
RB_PCMS.DEG                  :  (PCMS-A)                (6in)                   Relative Bearing Depthsh
RSCF .                     :  (RST-D)                 (6in)                   Far Detector Effective U
RSCN .                     :  (RST-D)                 (6in)                   Near Detector Effective
SFFA .CU                   :  (RST-D)                 (6in)                   Sigma Formation Far Appa
SIBF .CU                   :  (RST-D)                 (6in)                   Sigma Borehole Fluid Dep
SIGM .CU                   :  (RST-D)                 (6in)                   Formation Sigma (Neutron
TENS .LBF                  :  (WLWorkflow)            (1in)                   Cable Tension Depthshift
TPHI .V/V                  :  (RST-D)                 (6in)                   Thermal Decay Porosity D
WPRE .BAR                  :  (PSTP-B)                (6in)                   Well Pressure Depthshift
WTEP .DEGC                 :  (PSTP-B)                (6in)                   Well Temperature Depthsh
~Parameter Information Block
#MNEM.UNIT            Value   Description
#---------- ----------------  -----------
PROJECT.     SLEIPNER_OST@st-vlinapp01:  
SET  .     RSTD_1115_SIG1_DS:  
~Other Information Block
~Ascii Log Data
# ...
    3540.40440 
    35559.9375        -0.0373         2.5220       0.779645     -0.0771706 
       -0.7814         0.4335       106.2737        17.3463       0.320100 
      353.5645         8.3278         7.9245        16.3323        34.5718 
       14.6000      3980.1870       0.210588       364.9902        80.7629
    3540.55680 
    35998.2695         0.0505         2.4400       0.756987     -0.0778876 
       -0.7868         0.4190       106.4610        18.7983       0.320679 
      353.3216         8.1899         7.8659        16.4064        34.7283 
       14.5385      3997.8413       0.211503       365.0018        80.7612
    3540.70920 
    35907.5938         0.0515         2.4502       0.777201     -0.0779843 
       -0.7290         0.5120       106.7881        19.2014       0.319301 
      353.2153         8.1857         7.9610        16.2365        34.6959 
       14.4014      3991.2002       0.214189       365.0102        80.7563
    3540.86160 
    35757.2656         0.0166         2.5532       0.784430     -0.0771953 
       -0.6810         0.7243       109.0928        19.3708       0.321739 
      353.2482         8.1759         7.8628        15.9060        34.6422 
       14.2496      3982.5339       0.214281       365.0195        80.7469
    3541.01400 
    35907.0508        -0.0349         2.5313       0.801926     -0.0776511 
       -0.5620         0.6598       106.4392        18.2266       0.324262 
      353.2643         8.1177         7.8763        15.9399        34.6957 
       14.1520      3943.4553       0.213437       365.0296        80.7301
    3541.16640 
    35431.1016        -0.0176         2.5113       0.799619     -0.0777694 
       -0.4130         0.5224       104.5439        17.0266       0.323760 
      353.3201         8.2396         7.8158        15.9445        34.5258 
       14.1194      3987.2112       0.211902       365.0380        80.7163
    3541.31880 
    35240.0430         0.0490         2.5911       0.794197     -0.0767040 
       -0.2771         0.3089       107.2940        16.5451       0.320798 
      353.2905         8.4083         7.8115        15.8092        34.4576 
       14.0940      4024.1448       0.211764       365.0497        80.7082
    3541.47120 
    35520.3789         0.0382         2.6281       0.805210     -0.0771256 
       -0.2428         0.0900       109.4604        15.7456       0.316922 
      353.2382         8.3329         7.8554        15.8593        34.5576 
       14.0881      3979.6157       0.211399       365.0586        80.7038
    3541.62360 
    35717.0469         0.0134         2.5886       0.796562     -0.0774255 
       -0.2242         0.1295       107.6333        15.2958       0.316907 
      353.2426         8.4162         7.9931        15.9273        34.6278 
       14.0722      3957.4773       0.210816       365.0688        80.6963
    3541.77600 
    36091.2266        -0.0172         2.5852       0.789073     -0.0773726 
       -0.2247         0.2243       106.4814        16.3555       0.319014 
      353.2235         8.4163         7.9148        15.7626        34.7615 
       14.1068      3985.1763       0.208228       365.0773        80.6898
    3541.92840 
    36380.1953         0.0006         2.5611       0.786468     -0.0774716 
       -0.2661         0.3174       107.0735        17.7719       0.320509 
      353.1717         8.3240         7.8903        15.9565        34.8647 
       14.1084      4025.1333       0.205445       365.0880        80.6916
    3542.08080 
    36590.4961         0.0462         2.5382       0.774763     -0.0774746 
       -0.3386         0.3032       109.5798        19.1735       0.321167 
      353.1549         8.1959         7.8687        15.9320        34.9398 
       14.1995      4049.9724       0.203250       365.0976        80.6812
    3542.23320 
    36480.2852         0.0344         2.5362       0.773633     -0.0779175 
       -0.4239         0.4335       111.3991        21.6193       0.319923 
      353.1502         7.9333         7.5738        16.0309        34.9005 
       14.3295      3988.7253       0.203790       365.1054        80.6644
    3542.38560 
    36525.0273        -0.0230         2.5115       0.767741     -0.0774262 
       -0.4365         0.5469       110.2184        24.9585       0.319035 
      353.1298         7.9027         7.5628        16.3363        34.9164 
       14.4416      3989.0171       0.207565       365.1166        80.6491
    3542.53800 
    36600.3555        -0.0708         2.4740       0.767121     -0.0776443 
       -0.3410         0.6019       106.9402        29.2793       0.318211 
      353.1041         8.0364         7.7431        16.2673        34.9434 
       14.5750      4030.7722       0.212880       365.1269        80.6335
    3542.69040 
    36624.5625        -0.0439         2.4563       0.770805     -0.0775131 
       -0.3517         0.7581       107.8447        36.1030       0.316488 
      353.1730         8.0117         7.8751        16.4229        34.9520 
       14.7019      3987.5667       0.218180       365.1360        80.6190
    3542.84280 
    36711.6602         0.0263         2.4637       0.763175     -0.0775435 
       -0.3688         0.9943       111.0055        46.0619       0.315708 
      353.3218         8.0009         8.0427        16.7126        34.9831 
       14.9390      3939.9607       0.220099       365.1444        80.6124
    3542.99520 
    37042.3516         0.0097         2.4549       0.770661     -0.0779814 
       -0.3754         1.0911       110.3227        59.0217       0.313633 
      353.3467         7.8019         7.7281        16.9785        35.1014 
       15.1081      3982.4661       0.218914       365.1536        80.6049
    3543.14760 
    37228.8477        -0.0357         2.4846       0.760160     -0.0775201 
       -0.3757         0.7346       110.0149        70.2236       0.312591 
      353.2975         7.7710         7.5154        16.9299        35.1680 
       15.0849      3984.9341       0.216119       365.1630        80.5986
    3543.30000 
    36927.9727        -0.0187         2.5275       0.758555     -0.0773326 
       -0.3505         0.4366       108.9691        77.4343       0.311731 
      353.3678         7.9887         7.5968        16.6407        35.0605 
       15.0182      3977.9270       0.213592       365.1703        80.5950
    3543.45240 
    37048.8008        -0.0282         2.4872       0.760705     -0.0771946 
       -0.3043         0.3834       110.4767        80.3350       0.312089 
      353.5318         7.7686         7.4706        16.7707        35.1037 
       14.9897      3972.4563       0.212760       365.1818        80.5880
    3543.60480 
    37218.1797        -0.0316         2.4537       0.750385     -0.0775898 
       -0.2519         0.5585       111.8487        79.8010       0.314558 
      353.5932         7.5573         7.2512        16.8456        35.1642 
       15.0447      3990.6360       0.212459       365.1910        80.5758
    3543.75720 
    36859.8438         0.0062         2.4417       0.755264     -0.0780385 
       -0.2382         0.7802       110.6908        78.2217       0.317789 
      353.5685         7.5110         7.1150        16.8065        35.0361 
       15.1251      4045.9246       0.211498       365.2003        80.5439
    3543.90960 
    36311.2891        -0.0026         2.3881       0.750339     -0.0774344 
       -0.0982         0.8692       109.4223        79.8064       0.319922 
      353.6011         7.4236         7.1698        17.0091        34.8401 
       15.2255      4007.5479       0.208368       365.2097        80.4844
    3544.06200 
    36311.1719        -0.0330         2.3577       0.733969     -0.0770992 
       -0.0024         1.0400       107.8122        83.3007       0.319108 
      353.5943         7.5597         7.4242        17.1521        34.8400 
       15.2691      3978.8501       0.203012       365.2199        80.4493
    3544.21440 
    36604.5820         0.0114         2.4135       0.726923     -0.0773555 
       -0.0778         1.0238       107.7982        84.9532       0.318461 
      353.4369         7.8252         7.4821        16.9434        34.9449 
       15.1422      4014.1272       0.197747       365.2310        80.4499
