~Version Information Block
VERS .                 2.00:  CWLS LOG ASCII STANDARD - VERSION 2.00
WRAP .                   NO:  One line per depth step
~Well Information Block
#MNEM.UNIT        Data Type   Information
#---------- ----------------  -----------
STRT .M          3454.45080:  START DEPTH
STOP .M          3788.05440:  STOP DEPTH
STEP .M             0.15240:  STEP
NULL .              -999.25:  NULL VALUE
COMP .              Statoil:  COMPANY
WELL .        NO_15/9-F-1_C:  WELL
FLD  .                Volve:  FIELD
LOC  .            North Sea:  LOCATION
CTRY .               Norway:  COUNTRY
STAT .                     :  STATE
CNTY .                     :  COUNTY
SRVC .         Schlumberger:  SERVICE COMPANY
DATE .          27-Nov-2014:  DATE
API  .                     :  API NUMBER
UWI  .           15/9-F-1 C:  UNIQUE WELL ID
LATI .     58° 26' 29.91" N:  LATITUDE
LONG .      1° 53' 14.71" E:  LONGITUDE
~Curve Information Block
#MNEM.UNIT         API CODE   Curve Description
#---------- ----------------  -----------------
DEPTH.M                    :  DEPTH (BOREHOLE)
CRRA .                     :  Near/Far Count Rate Ratio
CVEL .M/SEC                 :  Cable Velocity
DFRB .DEG                  :  Calibrated Relative Bearing
FBEF .UA                   :  RST Far Effective Beam Current
FCOR .                     :  RST Far Carbon/Oxygen Ratio
FERD .                     :  RST Far IC Mode Capture Optimization
FIRD .                     :  RST Far Inelastic Optimization Resolution
GR   .GAPI                 :  Gamma Ray
NCOR .                     :  RST Near Carbon/Oxygen Ratio
NERD .                     :  RST Near IC Mode Capture Optimization
NIRD .                     :  RST Near Inelastic Optimization Resolution
PFC1 .IN                   :  PFCS CaliperX
PFC2 .IN                   :  PFCS CaliperY
TENS .LBF                  :  Cable Tension
~Parameter Information Block
#MNEM.UNIT            Value   Description
#---------- ----------------  -----------
APD  .M           54.900002:  Elevation of Depth Reference (LMF) above Permanent Datum
EPD  .C3                  0:  Elevation of Permanent Datum above Mean Sea Level
LMF  .                   KB:  Logging Measured From (Name of Logging Elevation Reference)
PDAT .                  MSL:  Permanent Datum
RUN  .                Run 1:  RUN NUMBER
TAPE_NAME.     Statoil_Volve_15-9-F-1 C_PLT-RST_28Nov14_ConCu_R1L17Up_IC1.las:  
TOOL_STRING.              UNKNOWN:  
WN   .           15/9-F-1 C:  WELL
PROJECT.     SLEIPNER_OST@st-vlinapp01:  
SET  .        RSTD_1114_IC1:  
~Other Information Block
# 
~A       DEPTH           CRRA           CVEL           DFRB           FBEF           FCOR           FERD           FIRD             GR           NCOR           NERD           NIRD           PFC1           PFC2           TENS 
# ...
    3783.63480         2.7423      -0.009352       327.3520       117.7865      -999.2500         5.2157         5.2157        22.7783      -999.2500         7.0759         7.0759         6.1949         6.0510      4705.3457
    3783.78720         2.7423      -0.008395       327.3520       117.7865      -999.2500         5.2157         5.2157        22.7783      -999.2500         7.0759         7.0759         6.1978         6.0514      4757.2202
    3783.93960         2.7423      -0.009855       327.3520       117.7865      -999.2500         5.2157         5.2157        22.7783      -999.2500         7.0759         7.0759         6.1958         6.0510      4756.2461
    3784.09200         2.7423      -0.009882       327.3520       117.7865      -999.2500         5.2157         5.2157        22.7783      -999.2500         7.0759         7.0759         6.1906         6.0510      4734.7617
    3784.24440         2.7423      -0.008818       327.3520       117.7865      -999.2500         5.2157         5.2157        22.7783      -999.2500         7.0759         7.0759         6.1905         6.0510      4790.7881
    3784.39680         2.7423      -0.009847       327.3520       117.7865      -999.2500         5.2157         5.2157        22.7783      -999.2500         7.0759         7.0759         6.2002         6.0529      4733.0000
    3784.54920         2.7423      -0.009207       327.3520       117.7865      -999.2500         5.2157         5.2157        22.7783      -999.2500         7.0759         7.0759         6.2070         6.0791      4727.1016
    3784.70160         2.7423      -0.008447       327.3520       117.7865      -999.2500         5.2157         5.2157        22.7783      -999.2500         7.0759         7.0759         6.1975         6.0510      4738.5645
    3784.85400         2.7423      -0.009438       327.3520       117.7865      -999.2500         5.2157         5.2157        22.7783      -999.2500         7.0759         7.0759         6.2052         6.0510      4670.1475
    3785.00640         2.7423      -0.009250       327.3520       117.7865      -999.2500         5.2157         5.2157        22.7783      -999.2500         7.0759         7.0759         6.2185         6.0510      4758.1797
    3785.15880         2.7423      -0.008422       327.3520       117.7865      -999.2500         5.2157         5.2157        22.7783      -999.2500         7.0759         7.0759         6.2016         6.0510      4721.8535
    3785.31120         2.7423      -0.009715       327.3520       117.7865      -999.2500         5.2157         5.2157        22.7783      -999.2500         7.0759         7.0759         6.1908         6.0522      4697.8530
    3785.46360         2.7423      -0.009298       327.3520       117.7865      -999.2500         5.2157         5.2157        22.7783      -999.2500         7.0759         7.0759         6.1914         6.0598      4723.2148
    3785.61600         2.7423      -0.010033       327.3520       117.7865      -999.2500         5.2157         5.2157        22.7783      -999.2500         7.0759         7.0759         6.1918         6.0637      4662.8726
    3785.76840         2.7423      -0.009678       327.3520       117.7865      -999.2500         5.2157         5.2157        22.7783      -999.2500         7.0759         7.0759         6.2017         6.0834      4846.8633
    3785.92080         2.7423      -0.008630       325.9410       117.7865      -999.2500         5.2157         5.2157        22.7783      -999.2500         7.0759         7.0759         6.2042         6.0834      4908.7520
    3786.07320         2.7423      -0.008977       325.9410       117.7865      -999.2500         5.2157         5.2157        22.7783      -999.2500         7.0759         7.0759         6.2201         6.0834      4918.1846
    3786.22560         2.7423      -0.009475       325.9410       117.7865      -999.2500         5.2157         5.2157        22.7783      -999.2500         7.0759         7.0759         6.2218         6.0834      4875.9502
    3786.37800         2.7423      -0.009420       325.9410       117.7865      -999.2500         5.2157         5.2157        22.7783      -999.2500         7.0759         7.0759         6.2219         6.0859      4945.5269
    3786.53040         2.7423      -0.009077       325.9410       117.7865      -999.2500         5.2157         5.2157        22.7783      -999.2500         7.0759         7.0759         6.2219         6.0835      4863.7241
    3786.68280         2.7423      -0.009142       325.9410       117.7865      -999.2500         5.2157         5.2157        22.7783      -999.2500         7.0759         7.0759         6.2219         6.0835      4851.4419
    3786.83520         2.7423      -0.009522       325.9410       117.7865      -999.2500         5.2157         5.2157        22.7783      -999.2500         7.0759         7.0759         6.2219         6.0834      4790.0337
    3786.98760         2.7423      -0.009263       325.9410       117.7865      -999.2500         5.2157         5.2157        22.7783      -999.2500         7.0759         7.0759         6.2219         6.0808      4832.4897
    3787.14000         2.7423      -0.009075       324.5300       117.7865      -999.2500         5.2157         5.2157        22.7783      -999.2500         7.0759         7.0759         6.2219         6.0532      4932.5742
    3787.29240         2.7423      -0.008912       324.5300       117.7865      -999.2500         5.2157         5.2157        22.7783      -999.2500         7.0759         7.0759         6.2219         6.0556      4835.7944
    3787.44480         2.7423      -0.008682       324.5300       117.7865      -999.2500         5.2157         5.2157        22.7783      -999.2500         7.0759         7.0759         6.2205         6.0520      4740.8687
    3787.59720         2.7423      -0.009815       324.5300       117.7865      -999.2500         5.2157         5.2157        22.7783      -999.2500         7.0759         7.0759         6.2210         6.0510      4905.2031
    3787.74960         2.7423      -0.007625       324.5300       117.7865      -999.2500         5.2157         5.2157        22.7783      -999.2500         7.0759         7.0759         6.2210         6.0510      4831.7520
    3787.90200         2.7423      -0.006107       324.5300       117.7865      -999.2500         5.2157         5.2157        22.7783      -999.2500         7.0759         7.0759         6.2210         6.0510      4792.4878
    3788.05440         2.7423      -0.006337       324.5300       117.7865      -999.2500         5.2157         5.2157        22.7783      -999.2500         7.0759         7.0759         6.2210         6.0510      4805.6621
