~Version Information Block
VERS .                 2.00:  CWLS LOG ASCII STANDARD - VERSION 2.00
WRAP .                   NO:  One line per depth step
~Well Information Block
#MNEM.UNIT        Data Type   Information
#---------- ----------------  -----------
STRT .M          3454.60320:  START DEPTH
STOP .M          3792.47400:  STOP DEPTH
STEP .M             0.15240:  STEP
NULL .              -999.25:  NULL VALUE
COMP .              Statoil:  COMPANY
WELL .        NO_15/9-F-1_C:  WELL
FLD  .                Volve:  FIELD
LOC  .            North Sea:  LOCATION
CTRY .               Norway:  COUNTRY
STAT .                     :  STATE
CNTY .                     :  COUNTY
SRVC .         Schlumberger:  SERVICE COMPANY
DATE .          27-Nov-2014:  DATE
API  .                     :  API NUMBER
UWI  .           15/9-F-1 C:  UNIQUE WELL ID
LATI .     58° 26' 29.91" N:  LATITUDE
LONG .      1° 53' 14.71" E:  LONGITUDE
~Curve Information Block
#MNEM.UNIT         API CODE   Curve Description
#---------- ----------------  -----------------
DEPTH.M                    :  DEPTH (BOREHOLE)
CVEL .M/SEC                 :  Cable Velocity
DFRB .DEG                  :  Calibrated Relative Bearing
FBEF .UA                   :  RST Far Effective Beam Current
FCOR .                     :  RST Far Carbon/Oxygen Ratio
FERD .                     :  RST Far IC Mode Capture Optimization
FIRD .                     :  RST Far Inelastic Optimization Resolution
GR   .GAPI                 :  Gamma Ray
NCOR .                     :  RST Near Carbon/Oxygen Ratio
NERD .                     :  RST Near IC Mode Capture Optimization
NIRD .                     :  RST Near Inelastic Optimization Resolution
PFC1 .IN                   :  PFCS CaliperX
PFC2 .IN                   :  PFCS CaliperY
TENS .LBF                  :  Cable Tension
~Parameter Information Block
#MNEM.UNIT            Value   Description
#---------- ----------------  -----------
APD  .M           54.900002:  Elevation of Depth Reference (LMF) above Permanent Datum
EPD  .C3                  0:  Elevation of Permanent Datum above Mean Sea Level
LMF  .                   KB:  Logging Measured From (Name of Logging Elevation Reference)
PDAT .                  MSL:  Permanent Datum
RUN  .                Run 1:  RUN NUMBER
TAPE_NAME.     ConCu_R1L19Up_S012_PFCS_PILS_DEFT_RST_PCMS_PSTP.las:  
TOOL_STRING.              UNKNOWN:  
WN   .           15/9-F-1 C:  WELL
PROJECT.     SLEIPNER_OST@st-vlinapp01:  
SET  .        RSTD_1114_IC3:  
~Other Information Block
# 
~A       DEPTH           CVEL           DFRB           FBEF           FCOR           FERD           FIRD             GR           NCOR           NERD           NIRD           PFC1           PFC2           TENS 
    3454.60320      -0.007803       358.3940       112.7828         0.1151         4.9878         4.9878        35.7793         0.7589         6.7565         6.7565         6.1911         6.0456      4249.9390
    3454.75560      -0.007803       358.3940       112.7828         0.1151         4.9878         4.9878        35.7793         0.7589         6.7565         6.7565         6.1911         6.0456      4249.9390
    3454.90800      -0.007803       358.3940       112.7828         0.1151         4.9878         4.9878        35.7793         0.7589         6.7565         6.7565         6.1911         6.0456      4249.9390
    3455.06040      -0.007803       358.3940       112.7828         0.1151         4.9878         4.9878        35.7793         0.7589         6.7565         6.7565         6.1911         6.0456      4249.9390
    3455.21280      -0.007803       358.3940       112.7828         0.1151         4.9878         4.9878        35.7793         0.7589         6.7565         6.7565         6.1911         6.0456      4249.9390
    3455.36520      -0.007803       358.3940       112.7828         0.1151         4.9878         4.9878        35.7793         0.7589         6.7565         6.7565         6.1911         6.0456      4249.9390
    3455.51760      -0.007803       358.3940       112.7828         0.1151         4.9878         4.9878        35.7793         0.7589         6.7565         6.7565         6.1911         6.0456      4249.9390
    3455.67000      -0.007803       358.3940       112.7828         0.1151         4.9878         4.9878        35.7793         0.7589         6.7565         6.7565         6.1911         6.0456      4249.9390
    3455.82240      -0.007803       358.3940       112.7828         0.1151         4.9878         4.9878        35.7793         0.7589         6.7565         6.7565         6.1911         6.0456      4249.9390
    3455.97480      -0.007803       358.3940       112.7828         0.1151         4.9878         4.9878        35.7793         0.7589         6.7565         6.7565         6.1911         6.0456      4249.9390
    3456.12720      -0.007803       358.3940       112.7828         0.1151         4.9878         4.9878        35.7793         0.7589         6.7565         6.7565         6.1911         6.0456      4249.9390
    3456.27960      -0.007803       358.3940       112.7828         0.1151         4.9878         4.9878        35.7793         0.7589         6.7565         6.7565         6.1911         6.0456      4249.9390
    3456.43200      -0.007803       358.3940       112.7828         0.1151         4.9878         4.9878        35.7793         0.7589         6.7565         6.7565         6.1911         6.0456      4249.9390
    3456.58440      -0.007803       358.3940       112.7828         0.1151         4.9878         4.9878        35.7793         0.7589         6.7565         6.7565         6.1911         6.0456      4249.9390
    3456.73680      -0.007803       358.3940       112.7828         0.1151         4.9878         4.9878        35.7793         0.7589         6.7565         6.7565         6.1911         6.0456      4249.9390
    3456.88920      -0.007803       358.3940       112.7828         0.1151         4.9878         4.9878        35.7793         0.7589         6.7565         6.7565         6.1911         6.0456      4249.9390
    3457.04160      -0.007803       358.3940       112.7828         0.1151         4.9878         4.9878        35.7793         0.7589         6.7565         6.7565         6.1911         6.0456      4249.9390
    3457.19400      -0.007803       358.3940       112.7828         0.1151         4.9878         4.9878        35.7793         0.7589         6.7565         6.7565         6.1911         6.0456      4249.9390
    3457.34640      -0.007803       358.3940       112.7828         0.1151         4.9878         4.9878        35.7793         0.7589         6.7565         6.7565         6.1911         6.0456      4249.9390
    3457.49880      -0.007803       358.3940       112.7828         0.1151         4.9878         4.9878        35.7793         0.7589         6.7565         6.7565         6.1911         6.0456      4249.9390
    3457.65120      -0.007803       358.3940       112.7828         0.1151         4.9878         4.9878        35.7793         0.7589         6.7565         6.7565         6.1911         6.0456      4249.9390
    3457.80360      -0.007803       358.3940       112.7828         0.1151         4.9878         4.9878        35.7793         0.7589         6.7565         6.7565         6.1911         6.0456      4249.9390
    3457.95600      -0.007803       358.3940       112.7828         0.1151         4.9878         4.9878        35.7793         0.7589         6.7565         6.7565         6.1911         6.0456      4249.9390
    3458.10840      -0.007803       358.3940       112.7828         0.1151         4.9878         4.9878        35.7793         0.7589         6.7565         6.7565         6.1911         6.0456      4249.9390
    3458.26080      -0.007803       358.3940       112.7828         0.1151         4.9878         4.9878        35.7793         0.7589         6.7565         6.7565         6.1911         6.0456      4249.9390
    3458.41320      -0.007803       358.3940       112.7828         0.1151         4.9878         4.9878        35.7793         0.7589         6.7565         6.7565         6.1911         6.0456      4249.9390
    3458.56560      -0.007803       358.3940       112.7828         0.1151         4.9878         4.9878        35.7793         0.7589         6.7565         6.7565         6.1911         6.0456      4249.9390
    3458.71800      -0.007803       358.3940       112.7828         0.1151         4.9878         4.9878        35.7793         0.7589         6.7565         6.7565         6.1911         6.0456      4249.9390
    3458.87040      -0.007803       358.3940       112.7828         0.1151         4.9878         4.9878        35.7793         0.7589         6.7565         6.7565         6.1911         6.0456      4249.9390
    3459.02280      -0.007803       358.3940       112.7828         0.1151         4.9878         4.9878        35.7793         0.7589         6.7565         6.7565         6.1911         6.0456      4249.9390
    3459.17520      -0.007803       358.3940       112.7828         0.1151         4.9878         4.9878        35.7793         0.7589         6.7565         6.7565         6.1911         6.0456      4249.9390
    3459.32760      -0.007803       358.3940       112.7828         0.1151         4.9878         4.9878        35.7793         0.7589         6.7565         6.7565         6.1911         6.0456      4249.9390
    3459.48000      -0.007803       358.3940       112.7828         0.1151         4.9878         4.9878        35.7793         0.7589         6.7565         6.7565         6.1911         6.0456      4249.9390
    3459.63240      -0.007803       358.3940       112.7828         0.1151         4.9878         4.9878        35.7793         0.7589         6.7565         6.7565         6.1911         6.0456      4249.9390
    3459.78480      -0.007803       358.3940       112.7828         0.1151         4.9878         4.9878        35.7793         0.7589         6.7565         6.7565         6.1911         6.0456      4249.9390
    3459.93720      -0.007803       358.3940       112.7828         0.1151         4.9878         4.9878        35.7793         0.7589         6.7565         6.7565         6.1911         6.0456      4249.9390
    3460.08960      -0.007803       358.3940       112.7828         0.1151         4.9878         4.9878        35.7793         0.7589         6.7565         6.7565         6.1911         6.0456      4249.9390
    3460.24200      -0.007803       358.3940       112.7828         0.1151         4.9878         4.9878        35.7793         0.7589         6.7565         6.7565         6.1911         6.0456      4249.9390
    3460.39440      -0.007803       358.3940       112.7828         0.1151         4.9878         4.9878        35.7793         0.7589         6.7565         6.7565         6.1911         6.0456      4249.9390
