~Version Information Block
VERS .                 2.00:  CWLS LOG ASCII STANDARD - VERSION 2.00
WRAP .                   NO:  One line per depth step
~Well Information Block
#MNEM.UNIT        Data Type   Information
#---------- ----------------  -----------
STRT .M          3201.31440:  START DEPTH
STOP .M          3410.40720:  STOP DEPTH
STEP .M             0.15240:  STEP
NULL .              -999.25:  NULL VALUE
COMP .              Statoil:  COMPANY
WELL .          NO_15/9-F-4:  WELL
FLD  .                VOLVE:  FIELD
LOC  .            North Sea:  LOCATION
CTRY .                     :  COUNTRY
STAT .                     :  STATE
CNTY .                     :  COUNTY
SRVC .         Schlumberger:  SERVICE COMPANY
DATE .          13-Sep-2012:  DATE
API  .                     :  API NUMBER
UWI  .             15/9-F-4:  UNIQUE WELL ID
~Curve Information Block
#MNEM.UNIT         API CODE   Curve Description
#---------- ----------------  -----------------
DEPTH.M                    :  DEPTH (BOREHOLE)
CCLC .V                    :  CCL
CCLD .V                    :  CCL Discriminated Amplitude
CRRA .                     :  Near-Far Count Rate Ratio
CVEL .M/MIN                 :  Cable Velocity
DEVI .DEG                  :  Hole Deviation
FBEF .UA                   :  RST Far Effective Beam Current
FCOR .                     :  RST Far Carbon/Oxygen Ratio
FERD .                     :  RST Far IC Mode Capture Optimization Resolution Degradation Factor
FIRD .                     :  RST Far Inelastic Optimization Resolution Degradation Factor
GR   .GAPI                 :  Gamma Ray
NCOR .                     :  RST Near Carbon/Oxygen Ratio
NERD .                     :  RST Near IC Mode Capture Optimization Resolution Degradation Factor
NIRD .                     :  RST Near Inelastic Optimization Resolution Degradation Factor
RB_PCMS.DEG                  :  Relative Bearing
TENS .LBF                  :  Cable Tension
WPRE .PSI                  :  Well Pressure
WTEP .DEGC                 :  Well Temperature
WTPE .MS                   :  Well Temperature Period
~Parameter Information Block
#MNEM.UNIT            Value   Description
#---------- ----------------  -----------
APD  .M                  54:  Elevation of Depth Reference (LMF) above Permanent Datum
RUN  .                    1:  RUN NUMBER
PROJECT.     SLEIPNER_OST@st-vlinapp01:  
SET  .        RSTD_0912_IC2:  
~Other Information Block
# 
~A       DEPTH           CCLC           CCLD           CRRA           CVEL           DEVI           FBEF           FCOR           FERD           FIRD             GR           NCOR           NERD           NIRD        RB_PCMS           TENS           WPRE           WTEP           WTPE 
# ...
    3294.12600       -0.00410        0.00000         2.8348       -0.39580        53.9330       111.3479         0.0605         5.7997         5.7997        30.5825     0.04080000         2.7301         2.7301       357.5408      2299.8333      4942.8999        96.2652         4.0263
    3294.27840       -0.00340        0.00000         2.8458       -0.38630        53.9370       111.8911         0.0575         5.8612         5.8612        30.3810     0.03100000         2.7951         2.7951       357.4795      2297.9944      4943.0454        96.2681         4.0263
    3294.43080       -0.02210        0.00000         2.8583       -0.38880        53.9439       111.2272        -0.0654         5.8919         5.8919        30.1784    -0.06650000         2.8429         2.8429       357.4356      2296.9038      4943.1460        96.2744         4.0264
    3294.58320       -0.00300        0.00000         2.8456       -0.38970        53.9569       112.3980         0.0837         5.7783         5.7783        30.0357    -0.00380000         2.8722         2.8722       357.4594      2300.6724      4943.2617        96.2746         4.0264
    3294.73560       -0.00950        0.00000         2.8580       -0.38800        53.9781       111.4030        -0.0270         5.6750         5.6750        29.9293    -0.00590000         2.9073         2.9073       357.3939      2288.5537      4943.4004        96.2762         4.0264
    3294.88800       -0.00840        0.00000         2.8585       -0.39440        53.9881       111.8111        -0.0987         5.7922         5.7922        29.9533    -0.03730000         2.8816         2.8816       357.3641      2287.8645      4943.5327        96.2824         4.0264
    3295.04040       -0.01190        0.00000         2.8559       -0.37510        53.9808       112.1507        -0.0509         5.7884         5.7884        29.6271    -0.00210000         2.8423         2.8423       357.4570      2286.8394      4943.6929        96.2850         4.0265
    3295.19280        0.06280        0.00000         2.8781       -0.37830        53.9830       112.1356        -0.1867         5.7349         5.7349        29.4251    -0.00070000         2.8085         2.8085       357.6013      2287.4395      4943.7852        96.2898         4.0265
    3295.34520        0.23940        0.00000         2.8876       -0.37380        53.9998       111.9879        -0.0700         5.7531         5.7531        29.3219    -0.00320000         2.9003         2.9003       357.6942      2287.3645      4943.9121        96.2907         4.0265
    3295.49760        0.00100        0.00000         2.8647       -0.37250        54.0064       112.1973         0.0329         5.7108         5.7108        29.1330     0.08710000         2.8754         2.8754       357.5011      2291.7480      4944.0312        96.2915         4.0265
    3295.65000        0.00070        0.00000         2.8714       -0.36990        54.0343       112.5781        -0.0774         5.6763         5.6763        28.9969     0.02260000         2.9322         2.9322       357.3064      2290.7419      4944.1230        96.2942         4.0265
    3295.80240       -0.00090        0.00000         2.8790       -0.36890        54.0531       112.2306        -0.1325         5.6569         5.6569        29.2694    -0.04150000         2.9506         2.9506       357.3259      2294.8433      4944.3047        96.2980         4.0266
    3295.95480       -0.00230        0.00000         2.8735       -0.37120        54.0724       112.4956        -0.0178         5.7392         5.7392        29.2999     0.06070000         2.9129         2.9129       357.2209      2293.1272      4944.4146        96.3023         4.0266
    3296.10720       -0.00630        0.00000         2.8753       -0.36600        54.1003       112.1620         0.0307         5.7437         5.7437        29.5126    -0.09450000         2.9442         2.9442       357.2246      2305.4731      4944.5342        96.3042         4.0266
    3296.25960       -0.00640        0.00000         2.8761       -0.36900        54.1187       111.8522        -0.1098         5.6716         5.6716        29.5659    -0.00080000         2.9242         2.9242       357.3322      2302.2637      4944.6401        96.3061         4.0266
    3296.41200        0.03760        0.00000         2.8548       -0.36640        54.1397       111.5855         0.0967         5.6100         5.6100        30.1310    -0.02300000         2.9215         2.9215       357.3793      2304.8743      4944.7578        96.3083         4.0267
    3296.56440       -0.00480        0.00000         2.8647       -0.37460        54.1510       111.1685         0.0290         5.7521         5.7521        29.1917     0.09420000         2.8946         2.8946       357.3969      2301.1172      4944.8711        96.3107         4.0267
    3296.71680       -0.00640        0.00000         2.8502       -0.37700        54.1615       111.3361         0.0184         5.8041         5.8041        29.4863    -0.03710000         2.8483         2.8483       357.3376      2307.2202      4945.0288        96.3146         4.0267
    3296.86920       -0.00970        0.00000         2.8570       -0.36230        54.1742       111.9445        -0.1175         5.9277         5.9277        29.2114     0.04630000         2.8373         2.8373       357.2065      2299.3308      4945.1313        96.3162         4.0267
    3297.02160        0.12190        0.00000         2.8684       -0.36770        54.1855       112.1195        -0.0732         5.8097         5.8097        29.2799    -0.03380000         2.8595         2.8595       357.1613      2302.3245      4945.2559        96.3187         4.0268
    3297.17400        0.11390        0.00000         2.8661       -0.36200        54.1913       112.4848        -0.1205         5.8449         5.8449        29.3167    -0.02450000         2.9286         2.9286       357.2052      2303.6084      4945.3887        96.3171         4.0267
    3297.32640       -0.00680        0.00000         2.8733       -0.35810        54.1980       113.3287        -0.0472         5.8372         5.8372        29.6505     0.01960000         2.9078         2.9078       357.2851      2297.3179      4945.5000        96.3204         4.0268
    3297.47880       -0.00570        0.00000         2.8913       -0.36280        54.2154       113.5355         0.0303         5.6959         5.6959        29.1572     0.00780000         2.8935         2.8935       357.3409      2306.3706      4945.6367        96.3211         4.0268
    3297.63120       -0.00710        0.00000         2.8996       -0.35240        54.2263       113.7526         0.0493         5.6794         5.6794        29.2704    -0.00380000         2.7987         2.7987       357.2142      2306.4082      4945.7485        96.3223         4.0268
    3297.78360       -0.00870        0.00000         2.8946       -0.35350        54.2372       113.4055         0.1400         5.5690         5.5690        28.8240     0.08640000         2.8293         2.8293       356.9581      2310.9873      4945.8628        96.3247         4.0268
    3297.93600        0.16600        0.00000         2.8896       -0.34930        54.2508       113.6083         0.0622         5.5879         5.5879        28.6085    -0.12020000         2.8297         2.8297       356.7470      2312.8855      4945.9985        96.3253         4.0268
    3298.08840       -0.00740        0.00000         2.8945       -0.35870        54.2564       113.6803        -0.0468         5.5324         5.5324        29.3002    -0.00340000         2.7900         2.7900       356.7771      2299.9216      4946.1064        96.3282         4.0268
    3298.24080       -0.00770        0.00000         2.9084       -0.35290        54.2640       114.1530        -0.0241         5.4734         5.4734        30.0413    -0.05120000         2.8307         2.8307       356.7559      2300.9102      4946.2539        96.3312         4.0269
    3298.39320       -0.00710        0.00000         2.9222       -0.35670        54.2771       113.6460        -0.0087         5.3800         5.3800        30.7962     0.03580000         2.8494         2.8494       356.8237      2298.9636      4946.3613        96.3285         4.0268
