~Version Information Block
VERS .                 2.00:  CWLS LOG ASCII STANDARD - VERSION 2.00
WRAP .                   NO:  One line per depth step
~Well Information Block
#MNEM.UNIT        Data Type   Information
#---------- ----------------  -----------
STRT .M          3454.60320:  START DEPTH
STOP .M          3792.47400:  STOP DEPTH
STEP .M             0.15240:  STEP
NULL .              -999.25:  NULL VALUE
COMP .              Statoil:  COMPANY
WELL .        NO_15/9-F-1_C:  WELL
FLD  .                Volve:  FIELD
LOC  .            North Sea:  LOCATION
CTRY .               Norway:  COUNTRY
STAT .                     :  STATE
CNTY .                     :  COUNTY
SRVC .         Schlumberger:  SERVICE COMPANY
DATE .          27-Nov-2014:  DATE
API  .                     :  API NUMBER
UWI  .           15/9-F-1 C:  UNIQUE WELL ID
LATI .     58° 26' 29.91" N:  LATITUDE
LONG .      1° 53' 14.71" E:  LONGITUDE
~Curve Information Block
#MNEM.UNIT         API CODE   Curve Description
#---------- ----------------  -----------------
DEPTH.M                    :  DEPTH (BOREHOLE)
CVEL .M/SEC                 :  Cable Velocity
DFRB .DEG                  :  Calibrated Relative Bearing
FBEF .UA                   :  RST Far Effective Beam Current
FCOR .                     :  RST Far Carbon/Oxygen Ratio
FERD .                     :  RST Far IC Mode Capture Optimization
FIRD .                     :  RST Far Inelastic Optimization Resolution
GR   .GAPI                 :  Gamma Ray
NCOR .                     :  RST Near Carbon/Oxygen Ratio
NERD .                     :  RST Near IC Mode Capture Optimization
NIRD .                     :  RST Near Inelastic Optimization Resolution
PFC1 .IN                   :  PFCS CaliperX
PFC2 .IN                   :  PFCS CaliperY
TENS .LBF                  :  Cable Tension
~Parameter Information Block
#MNEM.UNIT            Value   Description
#---------- ----------------  -----------
APD  .M           54.900002:  Elevation of Depth Reference (LMF) above Permanent Datum
EPD  .C3                  0:  Elevation of Permanent Datum above Mean Sea Level
LMF  .                   KB:  Logging Measured From (Name of Logging Elevation Reference)
PDAT .                  MSL:  Permanent Datum
RUN  .                Run 1:  RUN NUMBER
TAPE_NAME.     ConCu_R1L19Up_S012_PFCS_PILS_DEFT_RST_PCMS_PSTP.las:  
TOOL_STRING.              UNKNOWN:  
WN   .           15/9-F-1 C:  WELL
PROJECT.     SLEIPNER_OST@st-vlinapp01:  
SET  .        RSTD_1114_IC3:  
~Other Information Block
# 
~A       DEPTH           CVEL           DFRB           FBEF           FCOR           FERD           FIRD             GR           NCOR           NERD           NIRD           PFC1           PFC2           TENS 
# ...
    3478.37760      -0.007803       358.3940       106.5651        -0.1371         5.0512         5.0512        56.9369         0.7311         6.8512         6.8512         6.1911         6.0456      4249.9390
    3478.53000      -0.007803       358.3940       106.2425        -0.0233         5.0684         5.0684        58.0434         0.7137         6.8692         6.8692         6.1911         6.0456      4249.9390
    3478.68240      -0.007803       358.3940       106.6864         0.1670         4.9789         4.9789        55.7480         0.7857         6.8849         6.8849         6.1905         6.0445      4249.9390
    3478.83480      -0.007803       358.3940       105.7707         0.1153         4.9645         4.9645        52.6440         0.7297         6.8194         6.8194         6.1905         6.0451      4249.9390
    3478.98720      -0.007803       358.3940       107.3658         0.0378         4.9074         4.9074        50.1127         0.7705         6.8480         6.8480         6.1905         6.0432      4249.9390
    3479.13960      -0.007803       358.3940       106.4754         0.1794         4.8984         4.8984        49.4606         0.5652         6.8977         6.8977         6.1905         6.0454      4249.9390
    3479.29200      -0.007752       358.3940       106.8451         0.2027         4.9235         4.9235        49.3287         0.6747         6.8984         6.8984         6.1920         6.0226      4187.2349
    3479.44440      -0.007907       358.3940       107.2652         0.1155         4.8586         4.8586        48.6672         0.8154         6.8864         6.8864         6.1905         6.0194      4127.7622
    3479.59680      -0.008037       358.3940       106.4061         0.3382         4.8919         4.8919        48.6301         0.6846         6.9527         6.9527         6.1905         6.0191      4062.7578
    3479.74920      -0.008145       358.3940       105.8393         0.3763         4.8990         4.8990        48.6836         0.7795         6.9575         6.9575         6.1905         6.0189      3968.8821
    3479.90160      -0.007782       359.8050       106.4611         0.2199         4.7885         4.7885        48.3311         0.9664         6.9828         6.9828         6.1953         6.0226      4271.2349
    3480.05400      -0.007952       358.3940       106.1083         0.1880         4.9412         4.9412        47.7150         0.6905         7.0039         7.0039         6.1946         6.0235      4158.0728
    3480.20640      -0.007725       358.3940       106.2852         0.1691         4.8384         4.8384        47.2986         0.8861         7.0001         7.0001         6.1905         6.0215      4221.3018
    3480.35880      -0.007930       358.3940       105.5881         0.2216         4.9967         4.9967        46.5373         0.6830         6.9634         6.9634         6.1914         6.0189      4168.5850
    3480.51120      -0.007952       358.3940       106.7974        -0.0348         4.9480         4.9480        46.3938         0.6578         6.9586         6.9586         6.1908         6.0129      4162.7363
    3480.66360      -0.007898       358.3940       108.3057         0.2841         5.0340         5.0340        47.0207         0.7126         6.9563         6.9563         6.1908         6.0115      4095.0933
    3480.81600      -0.007698       358.3940       108.6758         0.3191         5.0882         5.0882        48.7652         0.6435         6.9878         6.9878         6.1905         5.9959      4164.0439
    3480.96840      -0.007695       358.3940       108.9750         0.1067         5.0422         5.0422        46.5370         0.8693         6.9018         6.9018         6.2094         6.0010      4156.4429
    3481.12080      -0.007755       358.3940       108.5653         0.2164         5.1336         5.1336        42.9390         0.7637         6.9221         6.9221         6.1917         5.9961      4205.5967
    3481.27320      -0.007892       358.3940       107.4887         0.1973         5.1610         5.1610        38.6303         0.8024         6.8937         6.8937         6.1919         6.0018      4177.9727
    3481.42560      -0.007835       358.3940       107.2858         0.0416         5.1170         5.1170        33.4569         0.7517         6.8741         6.8741         6.1915         5.9977      4156.9146
    3481.57800      -0.007880       358.3940       107.7301         0.1814         5.3290         5.3290        28.7754         0.6692         6.8000         6.8000         6.1905         5.9969      4175.1626
    3481.73040      -0.007747       358.3940       109.1536         0.1695         5.3871         5.3871        27.4941         0.7480         6.7827         6.7827         6.1905         5.9947      4204.5898
    3481.88280      -0.007965       358.3940       110.2009         0.0497         5.3943         5.3943        28.2002         0.7646         6.7825         6.7825         6.1907         5.9929      4098.1284
    3482.03520      -0.007808       358.3940       109.2532         0.1632         5.4374         5.4374        29.0938         0.6789         6.7434         6.7434         6.1906         6.0121      4302.0923
    3482.18760      -0.007803       358.3940       109.3485         0.2092         5.4643         5.4643        30.7046         0.9106         6.7307         6.7307         6.1906         6.0141      4214.2778
    3482.34000      -0.007950       358.3940       111.1884         0.1555         5.4317         5.4317        31.4831         0.6326         6.7772         6.7772         6.1907         6.0153      4133.3516
    3482.49240      -0.007905       358.3940       112.5566         0.2096         5.3726         5.3726        32.6540         0.6501         6.7607         6.7607         6.1906         6.0161      4102.8535
    3482.64480      -0.007630       358.3940       113.1941         0.1550         5.4087         5.4087        32.8946         0.6778         6.7068         6.7068         6.1905         6.0162      4261.5312
    3482.79720      -0.007600       358.3940       113.5271         0.0605         5.4204         5.4204        35.1163         0.7503         6.7947         6.7947         6.1906         6.0143      4209.6646
    3482.94960      -0.007907       358.3940       112.8621         0.1930         5.4153         5.4153        39.0745         0.7576         6.7886         6.7886         6.1905         6.0186      4144.9653
    3483.10200      -0.007905       358.3940       113.0815         0.2307         5.5650         5.5650        43.2385         0.7002         6.7953         6.7953         6.1905         6.0186      4053.9072
    3483.25440      -0.008057       358.3940       113.0345         0.0587         5.5333         5.5333        46.5026         0.7502         6.7495         6.7495         6.1914         5.9972      3986.3640
    3483.40680      -0.007698       358.3940       113.2611         0.2861         5.6820         5.6820        48.5737         0.6635         6.8079         6.8079         6.1924         5.9945      4265.7466
    3483.55920      -0.007522       358.3940       112.8152         0.0586         5.5873         5.5873        48.4961         0.7476         6.8032         6.8032         6.1905         5.9941      4273.0034
    3483.71160      -0.007790       358.3940       113.1364         0.1574         5.5037         5.5037        44.4252         0.5928         6.7030         6.7030         6.1904         6.0022      4214.5034
    3483.86400      -0.007717       356.9830       113.2537         0.0743         5.3919         5.3919        39.5404         0.9250         6.7146         6.7146         6.1904         5.9980      4249.0576
    3484.01640      -0.007682       356.9830       113.4401         0.0688         5.3506         5.3506        35.8050         0.6783         6.7310         6.7310         6.1904         6.0111      4220.9297
    3484.16880      -0.007698       356.9830       113.6526         0.0474         5.4106         5.4106        34.6055         0.8383         6.7945         6.7945         6.1905         6.0128      4151.5049
