~Version Information Block
VERS .                 2.00:  CWLS LOG ASCII STANDARD - VERSION 2.00
WRAP .                   NO:  One line per depth step
~Well Information Block
#MNEM.UNIT        Data Type   Information
#---------- ----------------  -----------
STRT .M          3457.23500:  START DEPTH
STOP .M          3635.08580:  STOP DEPTH
STEP .M             0.15240:  STEP
NULL .              -999.25:  NULL VALUE
COMP .                     :  COMPANY
WELL .          NO_15/9-F-5:  WELL
FLD  .                     :  FIELD
LOC  .                     :  LOCATION
CTRY .                     :  COUNTRY
STAT .                     :  STATE
CNTY .                     :  COUNTY
SRVC .                     :  SERVICE COMPANY
DATE .                     :  DATE
API  .                     :  API NUMBER
UWI  .                     :  UNIQUE WELL ID
~Curve Information Block
#MNEM.UNIT         API CODE   Curve Description
#---------- ----------------  -----------------
DEPTH.M                    :  
SAT201IC_BHOF.                     :  
SAT201IC_BVW.                     :  
SAT201IC_CRRA.                     :  Near-Far Count Rate Ratio
SAT201IC_FBEF.UA                   :  RST Far Effective Beam Current
SAT201IC_FCOR.                     :  
SAT201IC_GR.GAPI                 :  Gamma Ray
SAT201IC_NCOR.                     :  
SAT201IC_SO.                     :  
SAT201IC_SW.                     :  
SAT201IC_WPRE.PSI                  :  Well Pressure
SAT201IC_WTEP.DEGC                 :  Well Temperature
SAT201SI_BSAL.PPM                  :  Borehole Salinity
SAT201SI_GR.GAPI                 :  Gamma Ray
SAT201SI_IRAT.                     :  RST Inelastic Ratio
SAT201SI_RSCF.                     :  RST Far Detector Effective Unregulated Capture Count Rate
SAT201SI_RSCN.                     :  RST Near Detector Effective Unregulated Capture Count Rate
SAT201SI_SIGR.CU                   :  Formation Sigma (Neutron Capture Cross Section)
SAT201SI_TPHI.V/V                  :  Thermal Decay Porosity
~Parameter Information Block
#MNEM.UNIT            Value   Description
#---------- ----------------  -----------
CUR_INT_BOT.M           3635.2382:  
PROJECT.     SLEIPNER_OST@st-vlinapp01:  
SET  .            RSTD_0912:  
~Other Information Block
# 
~A       DEPTH  SAT201IC_BHOF   SAT201IC_BVW  SAT201IC_CRRA  SAT201IC_FBEF  SAT201IC_FCOR    SAT201IC_GR  SAT201IC_NCOR    SAT201IC_SO    SAT201IC_SW  SAT201IC_WPRE  SAT201IC_WTEP  SAT201SI_BSAL    SAT201SI_GR  SAT201SI_IRAT  SAT201SI_RSCF  SAT201SI_RSCN  SAT201SI_SIGR  SAT201SI_TPHI 
# ...
    3585.40340     -0.0520100       0.067800         2.9008       112.7526      0.0216700        52.5302     -0.0049000       0.125100         0.3291      5108.0854        83.0264     37357.3008        32.8648       0.322800         8.3775         8.9538        17.9351       0.239400
    3585.55580     -0.0522800       0.059350         2.9242       114.3194      0.0244600        52.3904     -0.0131000       0.130500         0.2740      5108.1904        83.0066     37029.8008        32.0215       0.319800         8.4856         8.8474        18.3044       0.253000
    3585.70820     -0.0523000       0.044570         2.9777       116.1813      0.0145700        52.5558     -0.0152500       0.106100         0.2104      5108.2998        82.9756     36743.3008        30.2461       0.319100         8.1045         8.9149        18.6854       0.268200
    3585.86060     -0.0525800       0.022530         3.0268       116.9159      0.0135100        52.9424     -0.0132800       0.107800         0.1228      5108.4199        82.9363     36639.0977        30.3875       0.316800         7.5048         8.3442        19.1026       0.276600
    3586.01300     -0.0524900       0.001380         3.0283       116.1974      0.0197700        52.1953     -0.0055300       0.137500         0.0077      5108.5405        82.9050     36347.9023        29.6774       0.314300         7.2690         8.2625        19.9955       0.278300
    3586.16540     -0.0520200       0.000000         3.0015       116.0437      0.0217300        51.0815     -0.0042000       0.169100         0.0000      5108.6455        82.8625     37312.3008        30.8916       0.314700         7.1465         7.7410        20.1343       0.269000
    3586.31780     -0.0518500       0.000000         3.0063       115.8597      0.0069000        50.2289     -0.0015500       0.121100         0.0000      5108.7935        82.8342     37915.7969        30.4478       0.319400         7.2963         8.4296        19.6026       0.257700
    3586.47020     -0.0520100       0.000000         3.0088       112.6468      0.0208300        48.9632     -0.0014300       0.151600         0.0000      5108.8970        82.7885     38276.6016        30.8028       0.325900         8.0481         8.2354        18.4630       0.240200
    3586.62260     -0.0524800       0.000000         2.9685       109.2006      0.0359600        48.1581     -0.0100800       0.205500         0.0000      5109.0103        82.7639     38210.5000        29.2050       0.334300         8.5184         8.6102        17.6155       0.227800
    3586.77500   -999.2500000    -999.250000         2.8895       107.7665      0.0364600        47.6155     -0.0209600    -999.250000      -999.2500      5109.1167        82.7205     37987.3008        29.2430       0.334400         8.9303         8.7660        17.1168       0.217100
    3586.92740   -999.2500000    -999.250000         2.8497       107.3671      0.0299100        48.1142     -0.0150000    -999.250000      -999.2500      5109.2261        82.6817     38031.1992        29.0655       0.339200         8.6910         8.6762        17.2340       0.211200
    3587.07980   -999.2500000    -999.250000         2.8109       108.7294      0.0340800        50.3125     -0.0056800    -999.250000      -999.2500      5109.3403        82.6387     37253.5000        31.7286       0.332900         8.7191         8.4072        17.1253       0.213400
    3587.23220   -999.2500000    -999.250000         2.8306       110.1096      0.0377400        51.9129     -0.0046300    -999.250000      -999.2500      5109.4644        82.5997     36857.3984        33.8590       0.325900         8.7710         8.6835        16.8999       0.218600
    3587.38460     -0.0537500       0.000000         2.8480       115.7867      0.0291600        52.9771      0.0013700       0.168600         0.0000      5109.5713        82.5515     36531.1016        34.0556       0.310500         8.2508         8.4697        16.8485       0.228600
    3587.53700     -0.0534500       0.000000         3.0574       117.7361      0.0291700        54.2390      0.0025600       0.151200         0.0000      5109.6870        82.5231     35967.8008        35.3491       0.304800         8.3015         8.2733        17.2424       0.233400
    3587.68940     -0.0527400       0.000000         3.1212       119.5086      0.0352700        55.3145     -0.0050500       0.156400         0.0000      5109.7783        82.4678     36417.7031        36.3255       0.308400         7.4010         7.6138        17.4120       0.237700
    3587.84180     -0.0515400       0.000000         3.1584       116.9681      0.0408800        55.1456     -0.0181900       0.167400         0.0000      5109.8657        82.4389     35237.5977        35.6851       0.319600         8.4969         8.9497        17.2388       0.228800
    3587.99420     -0.0498700       0.000000         3.0029       111.5080      0.0261600        55.1346     -0.0198500       0.131600         0.0000      5109.9834        82.3930     34744.7031        35.3300       0.327600         9.3906         9.2262        16.6816       0.211400
    3588.14660     -0.0487500       0.000000         2.8874       111.1101      0.0371200        54.6763     -0.0156100       0.160100         0.0000      5110.0903        82.3405     35041.5000        36.7313       0.329100         9.5856         8.7487        16.4904       0.187900
    3588.29900     -0.0486000       0.000000         2.8839       110.1634      0.0425700        54.5061     -0.0121300       0.177800         0.0000      5110.2119        82.2974     35425.5977        33.9795       0.331200         9.8213         9.0688        16.0723       0.174200
    3588.45140     -0.0492600       0.000000         2.9002       107.4375      0.0600000        52.8062     -0.0049200       0.232300         0.0000      5110.3403        82.2493     35268.9023        32.0583       0.331000        10.0156         9.2470        16.1167       0.170200
    3588.60380     -0.0507200       0.000000         2.8446       105.9781      0.0670000        51.2903      0.0040100       0.272800         0.0000      5110.4370        82.1903     35639.8984        31.0469       0.334700        10.5566         9.4104        15.9243       0.180000
    3588.75620     -0.0521700       0.000000         2.8008       106.6247      0.0782800        50.7795      0.0007500       0.334900         0.0000      5110.5479        82.1568     36641.8008        31.2942       0.332400         9.5006         8.8382        16.2326       0.195800
    3588.90860     -0.0535900       0.000000         2.8137       107.5367      0.0735200        50.4473      0.0068800       0.301600         0.0000      5110.6396        82.0971     36641.3984        29.5189       0.328000         9.1476         9.0344        16.3388       0.217900
    3589.06100     -0.0541900       0.000000         2.8104       109.9370      0.0599100        51.3311      0.0122200       0.243200         0.0000      5110.7744        82.0435     37179.7969        31.2942       0.322900         8.8591         9.0407        16.9135       0.237200
    3589.21340     -0.0545200       0.000000         2.8553       111.7849      0.0447100        52.8991      0.0115200       0.189200         0.0000      5110.8662        81.9893     37490.5000        32.5941       0.322600         8.6768         9.0751        17.2225       0.253100
    3589.36580     -0.0546800       0.000000         2.8750       113.2138      0.0428200        54.8857      0.0101700       0.177500         0.0000      5110.9604        81.9273     37414.7969        35.8119       0.319800         8.1370         8.7178        17.7912       0.262400
    3589.51820     -0.0541400       0.028910         2.8984       114.1306      0.0419200        57.7561      0.0131700       0.170900         0.1232      5111.0688        81.8567     37498.7969        38.4053       0.319900         8.3509         8.8301        18.0589       0.269300
    3589.67060     -0.0536900       0.072900         2.9173       116.8898      0.0340200        61.5885      0.0069900       0.149700         0.2916      5111.1802        81.8132     37053.6016        43.1100       0.320900         7.8698         8.7826        18.4133       0.280900
