#------------------------------------------------------------------------------
#
#   Created by   : las_export
#   Created on   : 2009-06-18 13:07:55
#   Project      : VOLVE
#   User         : TONYG
#   Interpreters : *
#
#------------------------------------------------------------------------------
~VERSION INFORMATION
VERS. 2.0 : CWLS Log ASCII Standard - version 2.0
WRAP.  NO : One line per depth step

~WELL INFORMATION
#MNEMONIC   .UNIT                                           VALUE :DESCRIPTION
#------------------------------------------------------------------------------
STRT        .M                                       2560.0412 :START DEPTH
STOP        .M                                       3222.0668 :STOP DEPTH
STEP        .M                                          0.1524 :STEP
NULL        .                                        -999.2500 :NULL VALUE
COMP        .                                                  :COMPANY
WELL        .                                      15/9-F-15 C :WELL
FLD         .                                            VOLVE :FIELD
LOC         .                                          UNKNOWN :LOCATION
CNTY        .                                          UNKNOWN :COUNTY
STAT        .                                          UNKNOWN :STATE
CTRY        .                                           Norway :COUNTRY
SRVC        .                                          UNKNOWN :SERVICE COMPANY
DATE        .                                          UNKNOWN :LOG DATE
UWI         .                                   NO 15/9-F-15 C :UNIQUE WELL ID
XCOORD      .M                                   435053.550000 :SURFACE X
YCOORD      .M                                  6478560.360000 :SURFACE Y
LAT         .                                        58.441585 :LATITUDE
LON         .                                         1.887541 :LONGITUDE
ELEV        .M                                         54.9000 :SURFACE ELEV
ELEV_TYPE   .                                               KB :ELEV TYPE

~CURVE INFORMATION
#MNEMONIC   .UNIT          API CODE       : CURVE DESCRIPTION
#------------------------------------------------------------------------------
DEPTH       .M                            : Measured Depth
DT          .us/ft         UNKNOWN        : DT:UNKNOWN:rC:NONE:v1
GR          .API           UNKNOWN        : GR:UNKNOWN:rC:NONE:v1
~A     DEPTH           DT           GR 
# ...
  2803.88120  -999.250000    13.322461 
  2804.03360  -999.250000    13.478712 
  2804.18600  -999.250000    12.382396 
  2804.33840  -999.250000    12.660246 
  2804.49080  -999.250000    12.604669 
  2804.64320  -999.250000    13.446358 
  2804.79560  -999.250000    13.559099 
  2804.94800  -999.250000    14.478239 
  2805.10040  -999.250000    14.336353 
  2805.25280  -999.250000    15.363718 
  2805.40520  -999.250000    14.296287 
  2805.55760  -999.250000    13.702482 
  2805.71000  -999.250000    12.509573 
  2805.86240  -999.250000    12.853265 
  2806.01480  -999.250000    12.190618 
  2806.16720  -999.250000    13.445746 
  2806.31960  -999.250000    13.581621 
  2806.47200  -999.250000    15.057311 
  2806.62440  -999.250000    13.713051 
  2806.77680  -999.250000    14.662941 
  2806.92920  -999.250000    15.138885 
  2807.08160  -999.250000    16.952428 
  2807.23400  -999.250000    16.638339 
  2807.38640  -999.250000    16.132726 
  2807.53880  -999.250000    15.564093 
  2807.69120  -999.250000    16.004233 
  2807.84360  -999.250000    19.074703 
  2807.99600  -999.250000    19.783007 
  2808.14840  -999.250000    19.309361 
  2808.30080  -999.250000    16.119074 
  2808.45320  -999.250000    15.586704 
  2808.60560  -999.250000    15.179622 
  2808.75800  -999.250000    14.401132 
  2808.91040  -999.250000    12.319636 
  2809.06280  -999.250000    11.412022 
  2809.21520  -999.250000    12.250972 
  2809.36760  -999.250000    12.340120 
  2809.52000  -999.250000    11.675607 
  2809.67240  -999.250000    12.829196 
  2809.82480  -999.250000    18.712780 
  2809.97720  -999.250000    24.523574 
  2810.12960  -999.250000    27.246775 
  2810.28200  -999.250000    25.287957 
  2810.43440  -999.250000    22.508615 
  2810.58680  -999.250000    20.647200 
  2810.73920  -999.250000    21.106652 
  2810.89160  -999.250000    24.182638 
  2811.04400  -999.250000    28.148485 
  2811.19640  -999.250000    26.725816 
  2811.34880  -999.250000    21.748266 
  2811.50120  -999.250000    15.848405 
  2811.65360  -999.250000    13.555189 
  2811.80600  -999.250000    13.636640 
  2811.95840  -999.250000    13.274607 
  2812.11080  -999.250000    13.164705 
  2812.26320  -999.250000    11.857642 
  2812.41560  -999.250000    12.075138 
  2812.56800  -999.250000    13.173043 
  2812.72040  -999.250000    15.904532 
  2812.87280  -999.250000    17.394497 
  2813.02520  -999.250000    16.643133 
  2813.17760  -999.250000    16.299613 
  2813.33000  -999.250000    16.769437 
  2813.48240  -999.250000    18.389248 
  2813.63480  -999.250000    18.444652 
  2813.78720  -999.250000    18.106882 
  2813.93960  -999.250000    16.789535 
  2814.09200  -999.250000    16.925499 
  2814.24440  -999.250000    17.926001 
  2814.39680  -999.250000    17.988220 
  2814.54920  -999.250000    17.922180 
  2814.70160  -999.250000    15.939166 
  2814.85400  -999.250000    14.879268 
  2815.00640  -999.250000    14.112214 
  2815.15880  -999.250000    13.614587 
  2815.31120  -999.250000    14.427629 
  2815.46360  -999.250000    14.242771 
  2815.61600  -999.250000    15.097675 
  2815.76840  -999.250000    19.127460 
  2815.92080  -999.250000    24.760212 
  2816.07320  -999.250000    28.193672 
  2816.22560  -999.250000    26.426091 
  2816.37800  -999.250000    22.025594 
  2816.53040  -999.250000    19.928696 
  2816.68280  -999.250000    20.350126 
  2816.83520  -999.250000    21.150515 
  2816.98760  -999.250000    22.970651 
  2817.14000  -999.250000    24.284268 
  2817.29240  -999.250000    26.303544 
  2817.44480  -999.250000    27.229345 
  2817.59720  -999.250000    27.853620 
  2817.74960  -999.250000    26.916294 
  2817.90200  -999.250000    25.370014 
  2818.05440  -999.250000    23.412891 
  2818.20680  -999.250000    22.899728 
  2818.35920  -999.250000    23.179101 
  2818.51160  -999.250000    25.812279 
  2818.66400  -999.250000    26.653880 
  2818.81640  -999.250000    27.141324 
  2818.96880  -999.250000    26.309034 
  2819.12120  -999.250000    27.254065 
  2819.27360  -999.250000    27.343042 
  2819.42600  -999.250000    27.723260 
  2819.57840  -999.250000    28.947008 
  2819.73080  -999.250000    27.597299 
  2819.88320  -999.250000    24.026056 
  2820.03560  -999.250000    18.384730 
  2820.18800  -999.250000    16.269729 
  2820.34040  -999.250000    14.969504 
  2820.49280  -999.250000    14.404494 
  2820.64520  -999.250000    13.336826 
  2820.79760  -999.250000    13.945780 
  2820.95000  -999.250000    14.624658 
  2821.10240  -999.250000    14.373655 
  2821.25480  -999.250000    13.687161 
  2821.40720  -999.250000    13.943914 
  2821.55960  -999.250000    13.221329 
  2821.71200  -999.250000    12.749311 
  2821.86440  -999.250000    11.873161 
  2822.01680  -999.250000    13.427128 
  2822.16920  -999.250000    14.529931 
  2822.32160  -999.250000    16.316629 
  2822.47400  -999.250000    17.261487 
  2822.62640  -999.250000    17.820875 
  2822.77880  -999.250000    16.197072 
  2822.93120  -999.250000    15.218707 
  2823.08360  -999.250000    14.257119 
  2823.23600  -999.250000    14.798906 
  2823.38840  -999.250000    15.947935 
  2823.54080  -999.250000    15.796739 
  2823.69320  -999.250000    15.161912 
  2823.84560  -999.250000    13.936381 
  2823.99800  -999.250000    13.763115 
  2824.15040  -999.250000    14.434378 
  2824.30280  -999.250000    14.691654 
  2824.45520  -999.250000    15.020026 
  2824.60760  -999.250000    15.518907 
  2824.76000  -999.250000    15.791873 
  2824.91240  -999.250000    16.279128 
  2825.06480  -999.250000    15.936327 
  2825.21720  -999.250000    15.353346 
  2825.36960  -999.250000    15.154206 
  2825.52200  -999.250000    15.589895 
  2825.67440  -999.250000    16.978319 
  2825.82680  -999.250000    17.309513 
  2825.97920  -999.250000    16.951364 
  2826.13160  -999.250000    14.421509 
  2826.28400  -999.250000    13.900665 
  2826.43640  -999.250000    14.195441 
  2826.58880  -999.250000    15.289000 
  2826.74120  -999.250000    15.083200 
  2826.89360  -999.250000    14.465586 
  2827.04600  -999.250000    16.470580 
  2827.19840  -999.250000    17.154235 
  2827.35080  -999.250000    16.749386 
  2827.50320  -999.250000    15.053687 
  2827.65560  -999.250000    14.713552 
  2827.80800  -999.250000    14.643800 
  2827.96040  -999.250000    14.629435 
  2828.11280  -999.250000    14.684038 
  2828.26520  -999.250000    15.193274 
  2828.41760  -999.250000    14.632191 
  2828.57000  -999.250000    14.166900 
  2828.72240  -999.250000    14.324828 
  2828.87480  -999.250000    15.298399 
  2829.02720  -999.250000    16.188827 
  2829.17960  -999.250000    15.318685 
  2829.33200  -999.250000    13.532055 
  2829.48440  -999.250000    12.922145 
  2829.63680  -999.250000    14.025014 
  2829.78920  -999.250000    15.845134 
  2829.94160  -999.250000    17.431482 
  2830.09400  -999.250000    20.987621 
  2830.24640  -999.250000    23.387026 
  2830.39880  -999.250000    25.925624 
  2830.55120  -999.250000    23.518514 
  2830.70360  -999.250000    21.164141 
  2830.85600  -999.250000    18.829818 
  2831.00840  -999.250000    19.481679 
  2831.16080  -999.250000    21.271132 
  2831.31320  -999.250000    21.684487 
  2831.46560  -999.250000    21.468317 
  2831.61800  -999.250000    20.746621 
  2831.77040  -999.250000    18.741798 
  2831.92280  -999.250000    16.769329 
  2832.07520  -999.250000    14.405035 
  2832.22760  -999.250000    14.210762 
  2832.38000  -999.250000    13.959973 
  2832.53240  -999.250000    15.744002 
  2832.68480  -999.250000    16.079907 
  2832.83720  -999.250000    16.065713 
  2832.98960  -999.250000    15.032507 
  2833.14200  -999.250000    13.907739 
  2833.29440  -999.250000    12.449481 
  2833.44680  -999.250000    12.237932 
  2833.59920  -999.250000    13.077251 
  2833.75160  -999.250000    15.104209 
  2833.90400  -999.250000    15.478568 
  2834.05640  -999.250000    14.926427 
  2834.20880  -999.250000    14.329081 
