~Version Information Block
VERS .                 2.00:  CWLS LOG ASCII STANDARD - VERSION 2.00
WRAP .                   NO:  One line per depth step
~Well Information Block
#MNEM.UNIT        Data Type   Information
#---------- ----------------  -----------
STRT .M          3445.30680:  START DEPTH
STOP .M          3639.15960:  STOP DEPTH
STEP .M             0.15240:  STEP
NULL .              -999.25:  NULL VALUE
COMP .              Statoil:  COMPANY
WELL .          NO_15/9-F-5:  WELL
FLD  .                VOLVE:  FIELD
LOC  .            North Sea:  LOCATION
CTRY .                     :  COUNTRY
STAT .                     :  STATE
CNTY .                     :  COUNTY
SRVC .         Schlumberger:  SERVICE COMPANY
DATE .          16-Sep-2012:  DATE
API  .                     :  API NUMBER
UWI  .             15/9-F-5:  UNIQUE WELL ID
~Curve Information Block
#MNEM.UNIT         API CODE   Curve Description
#---------- ----------------  -----------------
DEPTH.M                    :  DEPTH (BOREHOLE)
CCLC .V                    :  CCL
CRRA .                     :  Near-Far Count Rate Ratio
CVEL .M/MIN                 :  Cable Velocity
FBEF .UA                   :  RST Far Effective Beam Current
FCOR .                     :  RST Far Carbon/Oxygen Ratio
FERD .                     :  RST Far IC Mode Capture Optimization Resolution Degradation Factor
FIRD .                     :  RST Far Inelastic Optimization Resolution Degradation Factor
GR   .GAPI                 :  Gamma Ray
NCOR .                     :  RST Near Carbon/Oxygen Ratio
NERD .                     :  RST Near IC Mode Capture Optimization Resolution Degradation Factor
NIRD .                     :  RST Near Inelastic Optimization Resolution Degradation Factor
RB_PCMS.DEG                  :  Relative Bearing
TENS .LBF                  :  Cable Tension
~Parameter Information Block
#MNEM.UNIT            Value   Description
#---------- ----------------  -----------
APD  .M           54.900002:  Elevation of Depth Reference (LMF) above Permanent Datum
RUN  .                Run 1:  RUN NUMBER
PROJECT.     SLEIPNER_OST@st-vlinapp01:  
SET  .        RSTD_0912_IC3:  
~Other Information Block
# 
~A       DEPTH           CCLC           CRRA           CVEL           FBEF           FCOR           FERD           FIRD             GR           NCOR           NERD           NIRD        RB_PCMS           TENS 
# ...
    3582.00960         0.0061         2.8847       -0.49540       113.7333    -0.04880000         4.5847         4.5847        51.5478      -0.082400         2.2343         2.2343         7.8993      2812.5220
    3582.16200         0.0048         2.9102       -0.50040       113.7193     0.02700000         4.5770         4.5770        52.4436      -0.069000         2.1776         2.1776         7.9004      2810.4072
    3582.31440         0.0056         2.8937       -0.49950       114.8130     0.01390000         4.6708         4.6708        53.4557       0.035800         2.1665         2.1665         7.9658      2812.2712
    3582.46680        -0.0011         2.9275       -0.50020       114.7063    -0.00240000         4.7923         4.7923        54.6231      -0.074300         2.1725         2.1725         7.9754      2800.8044
    3582.61920        -0.1576         2.9337       -0.49370       114.5148    -0.03790000         4.8907         4.8907        55.7145      -0.004600         2.2120         2.2120         8.0256      2819.2456
    3582.77160        -0.0041         2.9273       -0.51110       114.4232     0.01940000         4.8821         4.8821        56.5920       0.040700         2.1376         2.1376         8.1098      2801.6309
    3582.92400        -0.0050         2.9226       -0.50380       114.8580    -0.00150000         5.0590         5.0590        57.5645      -0.089100         2.1112         2.1112         8.2015      2795.1912
    3583.07640         0.0579         2.9330       -0.50440       114.5014    -0.07420000         4.8120         4.8120        59.5312      -0.091900         2.1398         2.1398         8.2909      2798.1177
    3583.22880        -0.0053         2.9250       -0.50590       115.6022     0.03230000         4.6723         4.6723        59.7466       0.013000         2.1738         2.1738         8.3067      2800.7317
    3583.38120         0.1678         2.9498       -0.50440       115.6878     0.03850000         4.6366         4.6366        60.5674      -0.076400         2.1763         2.1763         8.3487      2795.8015
    3583.53360        -0.0101         2.9632       -0.50660       115.1689     0.09250000         4.5384         4.5384        61.1431      -0.073300         2.1465         2.1465         8.3715      2800.9854
    3583.68600        -0.0032         2.9499       -0.50760       115.4227     0.06360000         4.5976         4.5976        61.6123      -0.042200         2.1234         2.1234         8.5670      2793.7815
    3583.83840         0.2865         2.9707       -0.51010       116.5937     0.05460000         4.6045         4.6045        62.9367       0.016400         2.1039         2.1039         8.6181      2810.2937
    3583.99080         0.0044         2.9897       -0.50600       116.1336    -0.00800000         4.6454         4.6454        62.9470      -0.052200         2.1451         2.1451         8.6483      2810.3545
    3584.14320         0.0030         2.9770       -0.50970       116.8595     0.01040000         4.6626         4.6626        63.5771      -0.016500         2.1486         2.1486         8.7633      2805.3545
    3584.29560         0.0019         3.0040       -0.50980       115.5752    -0.10220000         4.5938         4.5938        63.8537      -0.041900         2.0868         2.0868         8.7895      2796.8401
    3584.44800         0.0021         2.9577       -0.50870       114.1604     0.08320000         4.5769         4.5769        64.3723      -0.000700         2.1594         2.1594         8.8388      2805.6074
    3584.60040        -0.1002         2.9384       -0.51260       114.3310    -0.02510000         4.4773         4.4773        63.0560       0.073600         2.1139         2.1139         8.8374      2797.7866
    3584.75280        -0.0000         2.9230       -0.51020       113.0265    -0.06020000         4.5033         4.5033        63.3274       0.018500         2.0953         2.0953         8.8342      2798.1116
    3584.90520        -0.0075         2.9040       -0.50930       112.8613     0.07460000         4.6453         4.6453        61.7288      -0.008400         2.1057         2.1057         8.7731      2806.8594
    3585.05760        -0.0017         2.9366       -0.50360       111.7612     0.11950000         4.7263         4.7263        60.0590       0.050400         2.0845         2.0845         8.7356      2800.0923
    3585.21000        -0.0663         2.9175       -0.51380       111.2553     0.05770000         4.7480         4.7480        58.4106       0.011800         2.0834         2.0834         8.6750      2811.0676
    3585.36240        -0.0046         2.9011       -0.49220       112.1310    -0.06570000         4.6922         4.6922        56.3279      -0.040700         2.0941         2.0941         8.5716      2809.7927
    3585.51480        -0.0090         2.9026       -0.49130       113.5528     0.10570000         4.7399         4.7399        54.4515      -0.014800         2.1227         2.1227         8.4362      2801.4695
    3585.66720        -0.0075         2.9396       -0.49060       114.4784     0.01980000         4.7120         4.7120        54.2674      -0.064800         2.1128         2.1128         8.4676      2813.9929
    3585.81960        -0.0081         2.9548       -0.48590       115.1457     0.12940000         4.7807         4.7807        53.3744      -0.133000         2.1426         2.1426         8.4119      2806.3674
    3585.97200        -0.0077         3.0056       -0.48570       118.0657    -0.22210000         4.7362         4.7362        53.6956       0.009400         2.1489         2.1489         8.3745      2797.0107
    3586.12440         0.0209         3.0731       -0.48200       115.5879    -0.07020000         4.6536         4.6536        54.1946      -0.044300         2.1622         2.1622         8.3288      2804.5422
    3586.27680        -0.0059         2.9897       -0.48660       116.0189     0.05600000         4.6129         4.6129        53.8972       0.004200         2.1411         2.1411         8.1969      2799.5161
    3586.42920        -0.0060         2.9938       -0.48410       115.6633    -0.10930000         4.5897         4.5897        52.9916      -0.014700         2.1719         2.1719         8.2140      2795.2993
    3586.58160        -0.0067         2.9906       -0.48590       115.0316    -0.19480000         4.6027         4.6027        53.0173      -0.000100         2.1879         2.1879         8.2865      2806.8516
    3586.73400         0.0736         2.9974       -0.48630       111.9244    -0.19090000         4.5743         4.5743        51.6429       0.007300         2.1700         2.1700         8.3333      2805.2163
    3586.88640         0.0967         2.9510       -0.48570       109.6590     0.14640000         4.4937         4.4937        51.5258      -0.028100         2.1498         2.1498         8.4480      2811.5674
    3587.03880        -0.0015         2.8847       -0.48950       107.5455    -0.05070000         4.4463         4.4463        51.0717      -0.047500         2.1223         2.1223         8.2173      2802.9001
    3587.19120        -0.0041         2.8310       -0.48630       108.0101    -0.10260000         4.4438         4.4438        51.9792       0.014200         2.1082         2.1082         8.1795      2811.9539
    3587.34360        -0.0060         2.8263       -0.48770       109.2088    -0.01790000         4.6301         4.6301        52.9643       0.043400         2.0875         2.0875         8.2547      2819.8679
    3587.49600        -0.0050         2.8365       -0.48460       111.5843     0.14100000         4.6671         4.6671        54.4026       0.010500         2.1025         2.1025         8.3922      2811.5549
    3587.64840         0.0622         2.9026       -0.48670       114.3562    -0.08210000         4.7411         4.7411        54.2764      -0.013400         2.0841         2.0841         8.4817      2801.6042
    3587.80080         0.0987         2.9693       -0.49590       119.6973     0.10850000         4.9102         4.9102        55.2190       0.016300         2.0800         2.0800         8.4813      2828.8193
