~Version Information Block
VERS .                 2.00:  CWLS LOG ASCII STANDARD - VERSION 2.00
WRAP .                   NO:  One line per depth step
~Well Information Block
#MNEM.UNIT        Data Type   Information
#---------- ----------------  -----------
STRT .M          3445.30680:  START DEPTH
STOP .M          3635.80680:  STOP DEPTH
STEP .M             0.15240:  STEP
NULL .              -999.25:  NULL VALUE
COMP .              Statoil:  COMPANY
WELL .          NO_15/9-F-5:  WELL
FLD  .                VOLVE:  FIELD
LOC  .            North Sea:  LOCATION
CTRY .                     :  COUNTRY
STAT .                     :  STATE
CNTY .                     :  COUNTY
SRVC .         Schlumberger:  SERVICE COMPANY
DATE .          16-Sep-2012:  DATE
API  .                     :  API NUMBER
UWI  .             15/9-F-5:  UNIQUE WELL ID
~Curve Information Block
#MNEM.UNIT         API CODE   Curve Description
#---------- ----------------  -----------------
DEPTH.M                    :  DEPTH (BOREHOLE)
CCLC .V                    :  CCL
CCLD .V                    :  CCL Discriminated Amplitude
CRRA .                     :  Near-Far Count Rate Ratio
CS   .F/MN                 :  Cable Speed
CVEL .M/MIN                 :  Cable Velocity
DEVI .DEG                  :  Hole Deviation
FBEF .UA                   :  RST Far Effective Beam Current
FCOR .                     :  RST Far Carbon/Oxygen Ratio
FERD .                     :  RST Far IC Mode Capture Optimization Resolution Degradation Factor
FIRD .                     :  RST Far Inelastic Optimization Resolution Degradation Factor
GR   .GAPI                 :  Gamma Ray
NCOR .                     :  RST Near Carbon/Oxygen Ratio
NERD .                     :  RST Near IC Mode Capture Optimization Resolution Degradation Factor
NIRD .                     :  RST Near Inelastic Optimization Resolution Degradation Factor
RB_PCMS.DEG                  :  Relative Bearing
TENS .LBF                  :  Cable Tension
WPRE .PSI                  :  Well Pressure
WTEP .DEGC                 :  Well Temperature
~Parameter Information Block
#MNEM.UNIT            Value   Description
#---------- ----------------  -----------
APD  .M           54.900002:  Elevation of Depth Reference (LMF) above Permanent Datum
RUN  .                Run 1:  RUN NUMBER
PROJECT.     SLEIPNER_OST@st-vlinapp01:  
SET  .        RSTD_0912_IC1:  
~Other Information Block
# 
~A       DEPTH           CCLC           CCLD           CRRA             CS           CVEL           DEVI           FBEF           FCOR           FERD           FIRD             GR           NCOR           NERD           NIRD        RB_PCMS           TENS           WPRE           WTEP 
# ...
    3507.18120         0.0168         0.0000         2.8499         1.6506      -0.503200        49.6124       111.1531     0.11060000         5.9018         5.9018        20.0924      -0.058000         2.7157         2.7157         8.1362      2712.2087      5041.6353        94.3714
    3507.33360        -0.0071         0.0000         2.8482         1.6270      -0.498700        49.6374       111.9782     0.11730000         5.9591         5.9591        20.0211       0.029000         2.7476         2.7476         8.1298      2719.0183      5041.7578        94.3575
    3507.48600        -0.0076         0.0000         2.8702         1.6467      -0.496900        49.6630       111.7042     0.15750000         5.9412         5.9412        20.3038      -0.031400         2.7106         2.7106         8.1087      2713.7573      5041.9106        94.3387
    3507.63840        -0.0091         0.0000         2.8628         1.6411      -0.498200        49.6579       111.9808     0.20260000         6.0181         6.0181        20.1350       0.064800         2.7013         2.7013         8.1086      2715.4963      5042.0552        94.3233
    3507.79080        -0.0137         0.0000         2.8637         1.6273      -0.500000        49.6851       111.8228     0.11090000         5.9871         5.9871        20.0625       0.010400         2.7120         2.7120         8.1863      2712.8250      5042.1855        94.3013
    3507.94320        -0.0079         0.0000         2.8499         1.6407      -0.499200        49.7028       112.2751     0.06410000         6.0024         6.0024        20.0893       0.074500         2.7035         2.7035         8.0627      2722.7166      5042.3364        94.2837
    3508.09560        -0.0264         0.0000         2.8724         1.6132      -0.494600        49.6994       111.8867     0.06670000         5.9165         5.9165        19.9933      -0.013700         2.6550         2.6550         7.9183      2723.9099      5042.4648        94.2711
    3508.24800        -0.0649         0.0000         2.8691         1.6250      -0.491900        49.7138       111.7554    -0.11290000         5.9858         5.9858        20.0373       0.000600         2.7015         2.7015         7.7209      2727.9929      5042.5884        94.2560
    3508.40040        -0.0322         0.0000         2.8473         1.6056      -0.491300        49.7237       112.1358     0.11950000         5.9280         5.9280        20.0628      -0.026500         2.7216         2.7216         7.5283      2725.1758      5042.7246        94.2341
    3508.55280        -0.0070         0.0000         2.8692         1.5902      -0.487200        49.7330       112.2071    -0.08300000         5.8144         5.8144        20.1308       0.135700         2.7133         2.7133         7.5338      2725.6597      5042.8730        94.2230
    3508.70520        -0.0268         0.0000         2.8757         1.5958      -0.485500        49.7507       111.6307     0.02950000         5.7768         5.7768        20.2637       0.004000         2.7184         2.7184         7.6431      2720.1880      5042.9922        94.1972
    3508.85760        -0.0077         0.0000         2.8680         1.5981      -0.485600        49.7773       112.2425     0.04530000         5.6819         5.6819        20.8903      -0.008600         2.7510         2.7510         7.7014      2714.4487      5043.1836        94.1712
    3509.01000         0.0117         0.0000         2.8708         1.5623      -0.481300        49.7969       113.3094    -0.07410000         5.5615         5.5615        20.7751       0.035600         2.7359         2.7359         7.8004      2715.7114      5043.3237        94.1504
    3509.16240        -0.0079         0.0000         2.9069         1.5459      -0.475300        49.7943       112.9764     0.01830000         5.3717         5.3717        21.5942       0.004600         2.6988         2.6988         7.7949      2716.0864      5043.4624        94.1403
    3509.31480        -0.0059         0.0000         2.8985         1.5518      -0.474800        49.8111       113.2310     0.07170000         5.1732         5.1732        23.3148       0.058500         2.7070         2.7070         7.8149      2712.6179      5043.5571        94.1192
    3509.46720        -0.0068         0.0000         2.9112         1.5466      -0.472000        49.8153       113.5763     0.03500000         5.2461         5.2461        25.4688      -0.010700         2.7443         2.7443         7.9266      2716.0310      5043.7183        94.1057
    3509.61960        -0.0048         0.0000         2.9262         1.5574      -0.473400        49.8344       114.1401    -0.00100000         5.0796         5.0796        28.6118       0.009400         2.7603         2.7603         8.1170      2710.2725      5043.8574        94.0785
    3509.77200        -0.0043         0.0000         2.9311         1.4944      -0.468000        49.8282       114.3444    -0.19210000         5.2174         5.2174        32.2490       0.013200         2.7613         2.7613         8.1990      2738.4709      5043.9937        94.0661
    3509.92440        -0.0046         0.0000         2.9651         1.5253      -0.466100        49.8647       115.7999    -0.03830000         5.1695         5.1695        34.8771      -0.012300         2.7709         2.7709         8.2095      2730.5376      5044.1387        94.0473
    3510.07680         0.0463         0.0000         2.9988         1.5302      -0.462600        49.8828       115.6463     0.10120000         5.2628         5.2628        37.2482       0.007300         2.7903         2.7903         8.1184      2721.7771      5044.2881        94.0273
    3510.22920        -0.0098         0.0000         3.0131         1.5203      -0.465900        49.9124       115.1574     0.03410000         5.2998         5.2998        38.5388       0.029200         2.8093         2.8093         7.8634      2722.8916      5044.4243        94.0079
    3510.38160         0.1330         0.0000         2.9794         1.5509      -0.466900        49.9274       114.7143     0.11970000         5.3211         5.3211        39.3016       0.014400         2.7822         2.7822         7.7822      2711.9250      5044.5688        93.9900
    3510.53400        -0.0005         0.0000         2.9802         1.5354      -0.469800        49.9420       114.2505     0.02090000         5.3233         5.3233        39.5638      -0.014500         2.7738         2.7738         7.6172      2716.0308      5044.6826        93.9695
    3510.68640        -0.0012         0.0000         2.9650         1.5568      -0.472900        49.9456       114.3643     0.10770000         5.3555         5.3555        39.8403       0.094000         2.7364         2.7364         7.6111      2715.5432      5044.8398        93.9491
    3510.83880         0.0009         0.0000         2.9759         1.5676      -0.474100        49.9541       113.8967     0.05560000         5.3610         5.3610        39.3095      -0.008100         2.7116         2.7116         7.8139      2700.7405      5044.9990        93.9329
    3510.99120         0.0035         0.0000         2.9709         1.5410      -0.472300        49.9749       113.8645     0.08360000         5.3549         5.3549        39.2502      -0.020700         2.6992         2.6992         8.0147      2724.9417      5045.1729        93.9163
    3511.14360         0.0018         0.0000         2.9456         1.5522      -0.475900        49.9647       113.1109     0.09300000         5.3545         5.3545        38.4536       0.006600         2.6833         2.6833         8.0994      2716.4187      5045.2954        93.8936
    3511.29600         0.0015         0.0000         2.9431         1.5397      -0.475500        49.9732       113.2782     0.02900000         5.3498         5.3498        38.0746      -0.029100         2.7350         2.7350         8.0148      2720.0867      5045.4370        93.8742
    3511.44840        -0.0758         0.0000         2.9429         1.5623      -0.472700        49.9766       113.5624    -0.05420000         5.1460         5.1460        37.7640       0.010000         2.7744         2.7744         7.9923      2723.5657      5045.5796        93.8455
