~VERSION INFORMATION
VERS.                                   2:CWLS LOG ASCII STANDARD - VERSION 2.0
WRAP.                                  NO:ONE LINE PER DEPTH STEP
~WELL INFORMATION
#MNEM.UNIT              DATA              DESCRIPTION
#--------- ------------------------------ -------------------------------
 STRT.MS                           0.0000:START TIME
 STOP.MS                        4000.0000:STOP TIME
 STEP.MS                           1.0000:STEP
 NULL.                          -999.2500:NULL VALUE
 COMP.     STATOILHYDRO                  :COMPANY
 WELL.     15/9-F-15A                    :WELL
 FLD .     VOLVE                         :FIELD
 LOC .                                   :LOCATION
 PROV.     NORWAY                        :PROVINCE
 SRVC.     READ WELL SERVICES            :SERVICE COMPANY
 DATE.     17/02 2008                    :LOG DATE
 UWI .                                   :UNIQUE WELL ID
~CURVE INFORMATION
#MNEM.UNIT                                DESCRIPTION
#--------- ------------------------------ -------------------------------
TIME      .MS                            : TWO-WAY TRAVEL TIME FROM MSL, DERIVED FROM CALIBRATED SONIC
DT-EDIT   .US/F                          : UNCALIBRATED SONIC LOG (INPUT TO SYNTHETIC SEISMOGRAMS)
RHOB      .G/CC                          : DENSITY LOG
AC-IMP    .MSGC                          : ACOUSTIC IMPEDANCE LOG (M/S*G/CC)
RC        .                              : REFLECTION COEFFICIENT SERIES
RC-M      .                              : REFLECTION COEFFICIENT SERIES - MULTIPLES ONLY
RC-PM     .                              : REFLECTION COEFFICIENT SERIES - PRIMARIES & MULTIPLES
TMISS     .                              : TWO-WAY TRANSMISSION LOSS
# LOG CURVES
~A  TIME           DT-EDIT       RHOB-CKS     AC-IMP        RC            RC-M          RC-PM         TMISS
# ...
        819.0000       -999.2500          1.8000       3800.8905          0.0000          0.0000          0.0000         -1.2352
        820.0000       -999.2500          1.8000       3800.8903          0.0000          0.0000          0.0000         -1.2352
        821.0000       -999.2500          1.8000       3800.8905          0.0000          0.0000          0.0000         -1.2352
        822.0000       -999.2500          1.8000       3800.8903          0.0000          0.0000          0.0000         -1.2352
        823.0000       -999.2500          1.8000       3800.8903          0.0000          0.0000          0.0000         -1.2352
        824.0000       -999.2500          1.8000       3800.8903          0.0000          0.0000          0.0000         -1.2352
        825.0000       -999.2500          1.8000       3800.8905          0.0000          0.0000          0.0000         -1.2352
        826.0000       -999.2500          1.8000       3800.8905          0.0000          0.0000          0.0000         -1.2352
        827.0000       -999.2500          1.8000       3800.8903          0.0000          0.0000          0.0000         -1.2352
        828.0000       -999.2500          1.8000       3800.8903          0.0000          0.0000          0.0000         -1.2352
        829.0000       -999.2500          1.8000       3800.8903          0.0000          0.0000          0.0000         -1.2352
        830.0000       -999.2500          1.8000       3800.8905          0.0000          0.0000          0.0000         -1.2352
        831.0000       -999.2500          1.8000       3800.8903          0.0000          0.0000          0.0000         -1.2352
        832.0000       -999.2500          1.8000       3800.8905          0.0000          0.0000          0.0000         -1.2352
        833.0000       -999.2500          1.8000       3800.8903          0.0000          0.0000          0.0000         -1.2352
        834.0000       -999.2500          1.8000       3800.8902          0.0000          0.0000          0.0000         -1.2352
        835.0000       -999.2500          1.8000       3800.8905          0.0000          0.0000          0.0000         -1.2352
        836.0000       -999.2500          1.8000       3800.8903          0.0000          0.0000          0.0000         -1.2352
        837.0000       -999.2500          1.8000       3800.8905          0.0000          0.0000          0.0000         -1.2352
        838.0000       -999.2500          1.8000       3800.8903          0.0000          0.0000          0.0000         -1.2352
        839.0000       -999.2500          1.8000       3800.8905          0.0000          0.0000          0.0000         -1.2352
        840.0000       -999.2500          1.8000       3800.8905          0.0000          0.0000          0.0000         -1.2352
        841.0000       -999.2500          1.8000       3800.8905          0.0000          0.0000          0.0000         -1.2352
        842.0000       -999.2500          1.8000       3800.8905          0.0000          0.0000          0.0000         -1.2352
        843.0000       -999.2500          1.8000       3800.8903          0.0000          0.0000          0.0000         -1.2352
        844.0000       -999.2500          1.8000       3800.8905          0.0000          0.0000          0.0000         -1.2352
        845.0000       -999.2500          1.8000       3800.8903          0.0000          0.0000          0.0000         -1.2352
        846.0000       -999.2500          1.8000       3800.8907          0.0000          0.0000          0.0000         -1.2352
        847.0000       -999.2500          1.8000       3800.8903          0.0000          0.0000          0.0000         -1.2352
        848.0000       -999.2500          1.8000       3800.8905          0.0000          0.0000          0.0000         -1.2352
        849.0000       -999.2500          1.8000       3800.8905          0.0000          0.0000          0.0000         -1.2352
        850.0000       -999.2500          1.8000       3800.8905          0.0000          0.0000          0.0000         -1.2352
        851.0000       -999.2500          1.8000       3800.8903          0.0000          0.0000          0.0000         -1.2352
        852.0000       -999.2500          1.8000       3800.8905          0.0000          0.0000          0.0000         -1.2352
        853.0000       -999.2500          1.8000       3800.8905          0.0000          0.0000          0.0000         -1.2352
        854.0000       -999.2500          1.8000       3800.8903          0.0000          0.0000          0.0000         -1.2352
        855.0000       -999.2500          1.8000       3800.8903          0.0000          0.0000          0.0000         -1.2352
        856.0000       -999.2500          1.8000       3800.8905          0.0000          0.0000          0.0000         -1.2352
        857.0000       -999.2500          1.8000       3800.8903          0.0000          0.0000          0.0000         -1.2352
        858.0000       -999.2500          1.8000       3800.8905          0.0000          0.0000          0.0000         -1.2352
        859.0000       -999.2500          1.8000       3800.8905          0.0000          0.0000          0.0000         -1.2352
        860.0000       -999.2500          1.8000       3800.8903          0.0000          0.0000          0.0000         -1.2352
        861.0000       -999.2500          1.8000       3800.8905          0.0000          0.0000          0.0000         -1.2352
        862.0000       -999.2500          1.8000       3800.8903          0.0000          0.0000          0.0000         -1.2352
        863.0000       -999.2500          1.8000       3800.8903          0.0000          0.0000          0.0000         -1.2352
        864.0000       -999.2500          1.8000       3800.8903          0.0000          0.0000          0.0000         -1.2352
        865.0000       -999.2500          1.8000       3800.8903          0.0000          0.0000          0.0000         -1.2352
        866.0000       -999.2500          1.8000       3800.8905          0.0000          0.0000          0.0000         -1.2352
        867.0000       -999.2500          1.8000       3800.8905          0.0000          0.0000          0.0000         -1.2352
        868.0000       -999.2500          1.8000       3800.8905          0.0000          0.0000          0.0000         -1.2352
        869.0000       -999.2500          1.8000       3800.8905          0.0000          0.0000          0.0000         -1.2352
        870.0000       -999.2500          1.8000       3800.8903          0.0000          0.0000          0.0000         -1.2352
        871.0000       -999.2500          1.8000       3800.8905          0.0000          0.0000          0.0000         -1.2352
        872.0000       -999.2500          1.8000       3800.8903          0.0000          0.0000          0.0000         -1.2352
        873.0000       -999.2500          1.8000       3800.8903          0.0000          0.0000          0.0000         -1.2352
        874.0000       -999.2500          1.8000       3800.8905          0.0000          0.0000          0.0000         -1.2352
        875.0000       -999.2500          1.8000       3800.8905          0.0000          0.0000          0.0000         -1.2352
        876.0000       -999.2500          1.8000       3800.8905          0.0000          0.0000          0.0000         -1.2352
        877.0000       -999.2500          1.8000       3800.8903          0.0000          0.0000          0.0000         -1.2352
        878.0000       -999.2500          1.8000       3800.8905          0.0000          0.0000          0.0000         -1.2352
        879.0000       -999.2500          1.8000       3800.8903          0.0000          0.0000          0.0000         -1.2352
        880.0000       -999.2500          1.8000       3800.8903          0.0000          0.0000          0.0000         -1.2352
        881.0000       -999.2500          1.8000       3800.8901          0.0000          0.0000          0.0000         -1.2352
