~VERSION INFORMATION
VERS.                                   2:CWLS LOG ASCII STANDARD - VERSION 2.0
WRAP.                                  NO:ONE LINE PER DEPTH STEP
~WELL INFORMATION
#MNEM.UNIT              DATA              DESCRIPTION
#--------- ------------------------------ -------------------------------
 STRT.MS                           0.0000:START TIME
 STOP.MS                        4000.0000:STOP TIME
 STEP.MS                           1.0000:STEP
 NULL.                          -999.2500:NULL VALUE
 COMP.     STATOILHYDRO                  :COMPANY
 WELL.     15/9-F-15A                    :WELL
 FLD .     VOLVE                         :FIELD
 LOC .                                   :LOCATION
 PROV.     NORWAY                        :PROVINCE
 SRVC.     READ WELL SERVICES            :SERVICE COMPANY
 DATE.     17/02 2008                    :LOG DATE
 UWI .                                   :UNIQUE WELL ID
~CURVE INFORMATION
#MNEM.UNIT                                DESCRIPTION
#--------- ------------------------------ -------------------------------
TIME      .MS                            : TWO-WAY TRAVEL TIME FROM MSL, DERIVED FROM CALIBRATED SONIC
DT-EDIT   .US/F                          : UNCALIBRATED SONIC LOG (INPUT TO SYNTHETIC SEISMOGRAMS)
RHOB      .G/CC                          : DENSITY LOG
AC-IMP    .MSGC                          : ACOUSTIC IMPEDANCE LOG (M/S*G/CC)
RC        .                              : REFLECTION COEFFICIENT SERIES
RC-M      .                              : REFLECTION COEFFICIENT SERIES - MULTIPLES ONLY
RC-PM     .                              : REFLECTION COEFFICIENT SERIES - PRIMARIES & MULTIPLES
TMISS     .                              : TWO-WAY TRANSMISSION LOSS
# LOG CURVES
~A  TIME           DT-EDIT       RHOB-CKS     AC-IMP        RC            RC-M          RC-PM         TMISS
# ...
        504.0000       -999.2500          1.8000       3800.8903          0.0000          0.0000          0.0000         -1.2352
        505.0000       -999.2500          1.8000       3800.8903          0.0000          0.0000          0.0000         -1.2352
        506.0000       -999.2500          1.8000       3800.8905          0.0000          0.0000          0.0000         -1.2352
        507.0000       -999.2500          1.8000       3800.8905          0.0000          0.0000          0.0000         -1.2352
        508.0000       -999.2500          1.8000       3800.8905          0.0000          0.0000          0.0000         -1.2352
        509.0000       -999.2500          1.8000       3800.8903          0.0000          0.0000          0.0000         -1.2352
        510.0000       -999.2500          1.8000       3800.8903          0.0000          0.0000          0.0000         -1.2352
        511.0000       -999.2500          1.8000       3800.8903          0.0000          0.0000          0.0000         -1.2352
        512.0000       -999.2500          1.8000       3800.8903          0.0000          0.0000          0.0000         -1.2352
        513.0000       -999.2500          1.8000       3800.8903          0.0000          0.0000          0.0000         -1.2352
        514.0000       -999.2500          1.8000       3800.8903          0.0000          0.0000          0.0000         -1.2352
        515.0000       -999.2500          1.8000       3800.8903          0.0000          0.0000          0.0000         -1.2352
        516.0000       -999.2500          1.8000       3800.8905          0.0000          0.0000          0.0000         -1.2352
        517.0000       -999.2500          1.8000       3800.8905          0.0000          0.0000          0.0000         -1.2352
        518.0000       -999.2500          1.8000       3800.8903          0.0000          0.0000          0.0000         -1.2352
        519.0000       -999.2500          1.8000       3800.8903          0.0000          0.0000          0.0000         -1.2352
        520.0000       -999.2500          1.8000       3800.8903          0.0000          0.0000          0.0000         -1.2352
        521.0000       -999.2500          1.8000       3800.8903          0.0000          0.0000          0.0000         -1.2352
        522.0000       -999.2500          1.8000       3800.8903          0.0000          0.0000          0.0000         -1.2352
        523.0000       -999.2500          1.8000       3800.8903          0.0000          0.0000          0.0000         -1.2352
        524.0000       -999.2500          1.8000       3800.8905          0.0000          0.0000          0.0000         -1.2352
        525.0000       -999.2500          1.8000       3800.8903          0.0000          0.0000          0.0000         -1.2352
        526.0000       -999.2500          1.8000       3800.8903          0.0000          0.0000          0.0000         -1.2352
        527.0000       -999.2500          1.8000       3800.8903          0.0000          0.0000          0.0000         -1.2352
        528.0000       -999.2500          1.8000       3800.8903          0.0000          0.0000          0.0000         -1.2352
        529.0000       -999.2500          1.8000       3800.8903          0.0000          0.0000          0.0000         -1.2352
        530.0000       -999.2500          1.8000       3800.8903          0.0000          0.0000          0.0000         -1.2352
        531.0000       -999.2500          1.8000       3800.8903          0.0000          0.0000          0.0000         -1.2352
        532.0000       -999.2500          1.8000       3800.8903          0.0000          0.0000          0.0000         -1.2352
        533.0000       -999.2500          1.8000       3800.8903          0.0000          0.0000          0.0000         -1.2352
        534.0000       -999.2500          1.8000       3800.8903          0.0000          0.0000          0.0000         -1.2352
        535.0000       -999.2500          1.8000       3800.8905          0.0000          0.0000          0.0000         -1.2352
        536.0000       -999.2500          1.8000       3800.8905          0.0000          0.0000          0.0000         -1.2352
        537.0000       -999.2500          1.8000       3800.8903          0.0000          0.0000          0.0000         -1.2352
        538.0000       -999.2500          1.8000       3800.8903          0.0000          0.0000          0.0000         -1.2352
        539.0000       -999.2500          1.8000       3800.8905          0.0000          0.0000          0.0000         -1.2352
        540.0000       -999.2500          1.8000       3800.8905          0.0000          0.0000          0.0000         -1.2352
        541.0000       -999.2500          1.8000       3800.8903          0.0000          0.0000          0.0000         -1.2352
        542.0000       -999.2500          1.8000       3800.8903          0.0000          0.0000          0.0000         -1.2352
        543.0000       -999.2500          1.8000       3800.8905          0.0000          0.0000          0.0000         -1.2352
        544.0000       -999.2500          1.8000       3800.8903          0.0000          0.0000          0.0000         -1.2352
        545.0000       -999.2500          1.8000       3800.8903          0.0000          0.0000          0.0000         -1.2352
        546.0000       -999.2500          1.8000       3800.8905          0.0000          0.0000          0.0000         -1.2352
        547.0000       -999.2500          1.8000       3800.8903          0.0000          0.0000          0.0000         -1.2352
        548.0000       -999.2500          1.8000       3800.8903          0.0000          0.0000          0.0000         -1.2352
        549.0000       -999.2500          1.8000       3800.8903          0.0000          0.0000          0.0000         -1.2352
        550.0000       -999.2500          1.8000       3800.8903          0.0000          0.0000          0.0000         -1.2352
        551.0000       -999.2500          1.8000       3800.8903          0.0000          0.0000          0.0000         -1.2352
        552.0000       -999.2500          1.8000       3800.8903          0.0000          0.0000          0.0000         -1.2352
        553.0000       -999.2500          1.8000       3800.8903          0.0000          0.0000          0.0000         -1.2352
        554.0000       -999.2500          1.8000       3800.8903          0.0000          0.0000          0.0000         -1.2352
        555.0000       -999.2500          1.8000       3800.8903          0.0000          0.0000          0.0000         -1.2352
        556.0000       -999.2500          1.8000       3800.8905          0.0000          0.0000          0.0000         -1.2352
        557.0000       -999.2500          1.8000       3800.8903          0.0000          0.0000          0.0000         -1.2352
        558.0000       -999.2500          1.8000       3800.8907          0.0000          0.0000          0.0000         -1.2352
        559.0000       -999.2500          1.8000       3800.8907          0.0000          0.0000          0.0000         -1.2352
        560.0000       -999.2500          1.8000       3800.8903          0.0000          0.0000          0.0000         -1.2352
        561.0000       -999.2500          1.8000       3800.8905          0.0000          0.0000          0.0000         -1.2352
        562.0000       -999.2500          1.8000       3800.8903          0.0000          0.0000          0.0000         -1.2352
        563.0000       -999.2500          1.8000       3800.8903          0.0000          0.0000          0.0000         -1.2352
        564.0000       -999.2500          1.8000       3800.8903          0.0000          0.0000          0.0000         -1.2352
        565.0000       -999.2500          1.8000       3800.8905          0.0000          0.0000          0.0000         -1.2352
        566.0000       -999.2500          1.8000       3800.8905          0.0000          0.0000          0.0000         -1.2352
