~VERSION INFORMATION
VERS.                                   2:CWLS LOG ASCII STANDARD - VERSION 2.0
WRAP.                                  NO:ONE LINE PER DEPTH STEP
~WELL INFORMATION
#MNEM.UNIT              DATA              DESCRIPTION
#--------- ------------------------------ -------------------------------
 STRT.MS                           0.0000:START TIME
 STOP.MS                        4000.0000:STOP TIME
 STEP.MS                           1.0000:STEP
 NULL.                          -999.2500:NULL VALUE
 COMP.     STATOILHYDRO                  :COMPANY
 WELL.     15/9-F-15A                    :WELL
 FLD .     VOLVE                         :FIELD
 LOC .                                   :LOCATION
 PROV.     NORWAY                        :PROVINCE
 SRVC.     READ WELL SERVICES            :SERVICE COMPANY
 DATE.     17/02 2008                    :LOG DATE
 UWI .                                   :UNIQUE WELL ID
~CURVE INFORMATION
#MNEM.UNIT                                DESCRIPTION
#--------- ------------------------------ -------------------------------
TIME      .MS                            : TWO-WAY TRAVEL TIME FROM MSL, DERIVED FROM CALIBRATED SONIC
DT-EDIT   .US/F                          : UNCALIBRATED SONIC LOG (INPUT TO SYNTHETIC SEISMOGRAMS)
RHOB      .G/CC                          : DENSITY LOG
AC-IMP    .MSGC                          : ACOUSTIC IMPEDANCE LOG (M/S*G/CC)
RC        .                              : REFLECTION COEFFICIENT SERIES
RC-M      .                              : REFLECTION COEFFICIENT SERIES - MULTIPLES ONLY
RC-PM     .                              : REFLECTION COEFFICIENT SERIES - PRIMARIES & MULTIPLES
TMISS     .                              : TWO-WAY TRANSMISSION LOSS
# LOG CURVES
~A  TIME           DT-EDIT       RHOB-CKS     AC-IMP        RC            RC-M          RC-PM         TMISS
# ...
       2394.0000         99.5819          2.1530       6589.8904         -0.0048          0.0162          0.0127         -3.3628
       2395.0000        100.5781          2.1539       6527.3643         -0.0065         -0.0013         -0.0061         -3.3630
       2396.0000        100.9598          2.1343       6443.5313         -0.0086         -0.0002         -0.0067         -3.3634
       2397.0000        103.1477          2.1435       6334.0874         -0.0027          0.0103          0.0083         -3.3640
       2398.0000        103.1771          2.1325       6299.6576          0.0737         -0.0040          0.0516         -3.3641
       2399.0000         92.3330          2.2119       7301.6226          0.1522         -0.0006          0.1135         -3.4113
       2400.0000         76.8081          2.5006       9923.2209          0.0061          0.0192          0.0236         -3.6149
       2401.0000         74.0153          2.4394      10045.6113         -0.0213         -0.0062         -0.0218         -3.6152
       2402.0000         76.1121          2.4040       9626.9828          0.0237          0.0001          0.0174         -3.6192
       2403.0000         75.0012          2.4837      10093.6961         -0.0240          0.0154         -0.0021         -3.6240
       2404.0000         77.1459          2.4350       9620.7661          0.0192         -0.0160         -0.0020         -3.6290
       2405.0000         74.1033          2.4304       9996.4740          0.0263          0.0155          0.0347         -3.6322
       2406.0000         70.0952          2.4231      10536.5082         -0.0523         -0.0041         -0.0423         -3.6382
       2407.0000         76.0828          2.3688       9489.6316          0.0419         -0.0186          0.0119         -3.6620
       2408.0000         72.0512          2.4394      10319.4595         -0.0217          0.0051         -0.0107         -3.6773
       2409.0000         74.7569          2.4235       9881.1865         -0.0299         -0.0012         -0.0229         -3.6813
       2410.0000         77.9424          2.3799       9306.6256         -0.0183         -0.0017         -0.0150         -3.6891
       2411.0000         78.7691          2.3185       8971.6374          0.0759          0.0116          0.0667         -3.6921
       2412.0000         71.5400          2.4517      10445.5103          0.0449          0.0088          0.0412         -3.7422
       2413.0000         66.5456          2.4951      11428.3194         -0.0688          0.0197         -0.0298         -3.7598
       2414.0000         73.0548          2.3866       9957.2414          0.0056         -0.0089         -0.0049         -3.8010
       2415.0000         72.9865          2.4112      10069.3841          0.0303         -0.0097          0.0120         -3.8013
       2416.0000         69.7098          2.4467      10698.1895          0.0205         -0.0004          0.0142         -3.8092
       2417.0000         67.3587          2.4631      11145.4226         -0.0056         -0.0169         -0.0209         -3.8129
       2418.0000         68.1968          2.4661      11021.9026         -0.0513         -0.0046         -0.0413         -3.8131
       2419.0000         73.2785          2.3912       9946.0828          0.0543         -0.0080          0.0307         -3.8360
       2420.0000         67.4258          2.4529      11088.5438          0.0716          0.0041          0.0550         -3.8617
       2421.0000         61.7873          2.5946      12799.2760         -0.0238          0.0207          0.0038         -3.9064
       2422.0000         63.6652          2.5490      12203.3465         -0.0110         -0.0030         -0.0109         -3.9113
       2423.0000         64.4317          2.5233      11936.6485          0.0121          0.0005          0.0090         -3.9124
       2424.0000         62.9544          2.5257      12228.5862          0.0039          0.0084          0.0112         -3.9136
       2425.0000         63.2551          2.5576      12323.9071         -0.0110         -0.0104         -0.0182         -3.9138
       2426.0000         64.7417          2.5605      12054.7218         -0.0212          0.0037         -0.0113         -3.9148
       2427.0000         66.3870          2.5168      11555.3561         -0.0411         -0.0344         -0.0635         -3.9187
       2428.0000         70.0421          2.4458      10643.4723          0.0797         -0.0468          0.0095         -3.9334
       2429.0000         62.2001          2.5483      12487.6249         -0.0051          0.0089          0.0053         -3.9888
       2430.0000         62.9629          2.5534      12360.6752          0.0092         -0.0025          0.0039         -3.9890
       2431.0000         62.1107          2.5654      12589.1533         -0.0103          0.0015         -0.0057         -3.9897
       2432.0000         63.8554          2.5836      12332.1619          0.0323          0.0013          0.0239         -3.9906
       2433.0000         59.7402          2.5786      13156.1610         -0.0029         -0.0179         -0.0199         -3.9997
       2434.0000         60.3911          2.5914      13079.2888         -0.0005          0.0005          0.0002         -3.9998
       2435.0000         59.9246          2.5690      13066.9649         -0.0457          0.0061         -0.0259         -3.9998
       2436.0000         65.8501          2.5764      11925.4629          0.0019         -0.0081         -0.0068         -4.0179
       2437.0000         64.9789          2.5518      11969.8093         -0.0439         -0.0127         -0.0434         -4.0180
       2438.0000         69.8350          2.5119      10963.2158          0.0368         -0.0036          0.0221         -4.0347
       2439.0000         66.1728          2.5618      11799.9946          0.0238          0.0081          0.0247         -4.0465
       2440.0000         63.4849          2.5773      12374.1568         -0.0382          0.0113         -0.0153         -4.0514
       2441.0000         67.5795          2.5417      11463.8845         -0.0447         -0.0095         -0.0405         -4.0640
       2442.0000         72.9805          2.5100      10482.8792          0.0087         -0.0122         -0.0062         -4.0814
       2443.0000         70.6753          2.4734      10666.9286          0.0395          0.0181          0.0455         -4.0821
       2444.0000         66.7867          2.5294      11543.4670          0.0236          0.0248          0.0411         -4.0956
       2445.0000         64.0429          2.5429      12102.4004         -0.0010         -0.0348         -0.0356         -4.1005
       2446.0000         64.5981          2.5596      12077.1641         -0.0312         -0.0024         -0.0240         -4.1005
       2447.0000         67.5696          2.5152      11345.8473          0.0202          0.0222          0.0362         -4.1089
       2448.0000         65.6395          2.5442      11814.2495         -0.0219          0.0071         -0.0080         -4.1125
       2449.0000         67.4115          2.5007      11306.7755          0.0154         -0.0016          0.0091         -4.1167
       2450.0000         66.1032          2.5290      11661.0161          0.0028         -0.0106         -0.0087         -4.1187
       2451.0000         66.3354          2.5522      11726.7138          0.0444          0.0006          0.0313         -4.1188
       2452.0000         61.7278          2.5957      12816.9363          0.0026         -0.0096         -0.0079         -4.1360
       2453.0000         61.3721          2.5939      12882.5303         -0.0279          0.0141         -0.0052         -4.1360
       2454.0000         64.5865          2.5815      12182.6368          0.0252         -0.0042          0.0132         -4.1428
       2455.0000         61.7778          2.5970      12813.2376          0.0214          0.0046          0.0193         -4.1483
       2456.0000         59.3763          2.6050      13372.5179         -0.0136          0.0089         -0.0005         -4.1523
