~VERSION INFORMATION
VERS.                                   2:CWLS LOG ASCII STANDARD - VERSION 2.0
WRAP.                                  NO:ONE LINE PER DEPTH STEP
~WELL INFORMATION
#MNEM.UNIT              DATA              DESCRIPTION
#--------- ------------------------------ -------------------------------
 STRT.MS                           0.0000:START TIME
 STOP.MS                        4000.0000:STOP TIME
 STEP.MS                           1.0000:STEP
 NULL.                          -999.2500:NULL VALUE
 COMP.     STATOILHYDRO                  :COMPANY
 WELL.     15/9-F-15A                    :WELL
 FLD .     VOLVE                         :FIELD
 LOC .                                   :LOCATION
 PROV.     NORWAY                        :PROVINCE
 SRVC.     READ WELL SERVICES            :SERVICE COMPANY
 DATE.     17/02 2008                    :LOG DATE
 UWI .                                   :UNIQUE WELL ID
~CURVE INFORMATION
#MNEM.UNIT                                DESCRIPTION
#--------- ------------------------------ -------------------------------
TIME      .MS                            : TWO-WAY TRAVEL TIME FROM MSL, DERIVED FROM CALIBRATED SONIC
DT-EDIT   .US/F                          : UNCALIBRATED SONIC LOG (INPUT TO SYNTHETIC SEISMOGRAMS)
RHOB      .G/CC                          : DENSITY LOG
AC-IMP    .MSGC                          : ACOUSTIC IMPEDANCE LOG (M/S*G/CC)
RC        .                              : REFLECTION COEFFICIENT SERIES
RC-M      .                              : REFLECTION COEFFICIENT SERIES - MULTIPLES ONLY
RC-PM     .                              : REFLECTION COEFFICIENT SERIES - PRIMARIES & MULTIPLES
TMISS     .                              : TWO-WAY TRANSMISSION LOSS
# LOG CURVES
~A  TIME           DT-EDIT       RHOB-CKS     AC-IMP        RC            RC-M          RC-PM         TMISS
          0.0000       -999.2500          1.0000       1500.0000          0.0000          0.0000          0.0000          0.0000
          1.0000       -999.2500          1.0000       1500.0000          0.0000          0.0000          0.0000          0.0000
          2.0000       -999.2500          1.0000       1500.0000          0.0000          0.0000          0.0000          0.0000
          3.0000       -999.2500          1.0000       1500.0000          0.0000          0.0000          0.0000          0.0000
          4.0000       -999.2500          1.0000       1500.0000          0.0000          0.0000          0.0000          0.0000
          5.0000       -999.2500          1.0000       1499.9999          0.0000          0.0000          0.0000          0.0000
          6.0000       -999.2500          1.0000       1500.0000          0.0000          0.0000          0.0000          0.0000
          7.0000       -999.2500          1.0000       1500.0000          0.0000          0.0000          0.0000          0.0000
          8.0000       -999.2500          1.0000       1500.0000          0.0000          0.0000          0.0000          0.0000
          9.0000       -999.2500          1.0000       1500.0000          0.0000          0.0000          0.0000          0.0000
         10.0000       -999.2500          1.0000       1500.0001          0.0000          0.0000          0.0000          0.0000
         11.0000       -999.2500          1.0000       1500.0000          0.0000          0.0000          0.0000          0.0000
         12.0000       -999.2500          1.0000       1500.0000          0.0000          0.0000          0.0000          0.0000
         13.0000       -999.2500          1.0000       1499.9999          0.0000          0.0000          0.0000          0.0000
         14.0000       -999.2500          1.0000       1500.0001          0.0000          0.0000          0.0000          0.0000
         15.0000       -999.2500          1.0000       1499.9999          0.0000          0.0000          0.0000          0.0000
         16.0000       -999.2500          1.0000       1499.9999          0.0000          0.0000          0.0000          0.0000
         17.0000       -999.2500          1.0000       1500.0000          0.0000          0.0000          0.0000          0.0000
         18.0000       -999.2500          1.0000       1500.0000          0.0000          0.0000          0.0000          0.0000
         19.0000       -999.2500          1.0000       1500.0000          0.0000          0.0000          0.0000          0.0000
         20.0000       -999.2500          1.0000       1500.0000          0.0000          0.0000          0.0000          0.0000
         21.0000       -999.2500          1.0000       1500.0000          0.0000          0.0000          0.0000          0.0000
         22.0000       -999.2500          1.0000       1500.0000          0.0000          0.0000          0.0000          0.0000
         23.0000       -999.2500          1.0000       1500.0000          0.0000          0.0000          0.0000          0.0000
         24.0000       -999.2500          1.0000       1499.9999          0.0000          0.0000          0.0000          0.0000
         25.0000       -999.2500          1.0000       1499.9999          0.0000          0.0000          0.0000          0.0000
         26.0000       -999.2500          1.0000       1500.0000          0.0000          0.0000          0.0000          0.0000
         27.0000       -999.2500          1.0000       1499.9999          0.0000          0.0000          0.0000          0.0000
         28.0000       -999.2500          1.0000       1500.0000          0.0000          0.0000          0.0000          0.0000
         29.0000       -999.2500          1.0000       1500.0000          0.0000          0.0000          0.0000          0.0000
         30.0000       -999.2500          1.0000       1500.0000          0.0000          0.0000          0.0000          0.0000
         31.0000       -999.2500          1.0000       1500.0000          0.0000          0.0000          0.0000          0.0000
         32.0000       -999.2500          1.0000       1500.0000          0.0000          0.0000          0.0000          0.0000
         33.0000       -999.2500          1.0000       1500.0001          0.0000          0.0000          0.0000          0.0000
         34.0000       -999.2500          1.0000       1499.9999          0.0000          0.0000          0.0000          0.0000
         35.0000       -999.2500          1.0000       1500.0001          0.0000          0.0000          0.0000          0.0000
         36.0000       -999.2500          1.0000       1499.9999          0.0000          0.0000          0.0000          0.0000
         37.0000       -999.2500          1.0000       1500.0000          0.0000          0.0000          0.0000          0.0000
         38.0000       -999.2500          1.0000       1500.0000          0.0000          0.0000          0.0000          0.0000
         39.0000       -999.2500          1.0000       1499.9999          0.0000          0.0000          0.0000          0.0000
         40.0000       -999.2500          1.0000       1500.0000          0.0000          0.0000          0.0000          0.0000
         41.0000       -999.2500          1.0000       1500.0000          0.0000          0.0000          0.0000          0.0000
         42.0000       -999.2500          1.0000       1500.0000          0.0000          0.0000          0.0000          0.0000
         43.0000       -999.2500          1.0000       1499.9999          0.0000          0.0000          0.0000          0.0000
         44.0000       -999.2500          1.0000       1500.0001          0.0000          0.0000          0.0000          0.0000
         45.0000       -999.2500          1.0000       1499.9999          0.0000          0.0000          0.0000          0.0000
         46.0000       -999.2500          1.0000       1500.0000          0.0000          0.0000          0.0000          0.0000
         47.0000       -999.2500          1.0000       1500.0000          0.0000          0.0000          0.0000          0.0000
         48.0000       -999.2500          1.0000       1500.0001          0.0000          0.0000          0.0000          0.0000
         49.0000       -999.2500          1.0000       1499.9999          0.0000          0.0000          0.0000          0.0000
         50.0000       -999.2500          1.0000       1500.0000          0.0000          0.0000          0.0000          0.0000
         51.0000       -999.2500          1.0000       1500.0000          0.0000          0.0000          0.0000          0.0000
         52.0000       -999.2500          1.0000       1500.0000          0.0000          0.0000          0.0000          0.0000
         53.0000       -999.2500          1.0000       1500.0000          0.0000          0.0000          0.0000          0.0000
         54.0000       -999.2500          1.0000       1499.9999          0.0000          0.0000          0.0000          0.0000
         55.0000       -999.2500          1.0000       1500.0000          0.0000          0.0000          0.0000          0.0000
         56.0000       -999.2500          1.0000       1499.9999          0.0000          0.0000          0.0000          0.0000
         57.0000       -999.2500          1.0000       1500.0000          0.0000          0.0000          0.0000          0.0000
         58.0000       -999.2500          1.0000       1500.0001          0.0000          0.0000          0.0000          0.0000
         59.0000       -999.2500          1.0000       1500.0000          0.0000          0.0000          0.0000          0.0000
         60.0000       -999.2500          1.0000       1500.0000          0.0000          0.0000          0.0000          0.0000
         61.0000       -999.2500          1.0000       1499.9999          0.0000          0.0000          0.0000          0.0000
         62.0000       -999.2500          1.0000       1500.0001          0.0000          0.0000          0.0000          0.0000
