~VERSION INFORMATION
VERS.                                   2:CWLS LOG ASCII STANDARD - VERSION 2.0
WRAP.                                  NO:ONE LINE PER DEPTH STEP
~WELL INFORMATION
#MNEM.UNIT              DATA              DESCRIPTION
#--------- ------------------------------ -------------------------------
 STRT.MS                           0.0000:START TIME
 STOP.MS                        4000.0000:STOP TIME
 STEP.MS                           1.0000:STEP
 NULL.                          -999.2500:NULL VALUE
 COMP.     STATOILHYDRO                  :COMPANY
 WELL.     15/9-F-15A                    :WELL
 FLD .     VOLVE                         :FIELD
 LOC .                                   :LOCATION
 PROV.     NORWAY                        :PROVINCE
 SRVC.     READ WELL SERVICES            :SERVICE COMPANY
 DATE.     17/02 2008                    :LOG DATE
 UWI .                                   :UNIQUE WELL ID
~CURVE INFORMATION
#MNEM.UNIT                                DESCRIPTION
#--------- ------------------------------ -------------------------------
TIME      .MS                            : TWO-WAY TRAVEL TIME FROM MSL, DERIVED FROM CALIBRATED SONIC
DT-EDIT   .US/F                          : UNCALIBRATED SONIC LOG (INPUT TO SYNTHETIC SEISMOGRAMS)
RHOB      .G/CC                          : DENSITY LOG
AC-IMP    .MSGC                          : ACOUSTIC IMPEDANCE LOG (M/S*G/CC)
RC        .                              : REFLECTION COEFFICIENT SERIES
RC-M      .                              : REFLECTION COEFFICIENT SERIES - MULTIPLES ONLY
RC-PM     .                              : REFLECTION COEFFICIENT SERIES - PRIMARIES & MULTIPLES
TMISS     .                              : TWO-WAY TRANSMISSION LOSS
# LOG CURVES
~A  TIME           DT-EDIT       RHOB-CKS     AC-IMP        RC            RC-M          RC-PM         TMISS
# ...
       3969.0000       -999.2500          0.0000          0.0000          0.0000          0.0000          0.0000          0.0000
       3970.0000       -999.2500          0.0000          0.0000          0.0000          0.0000          0.0000          0.0000
       3971.0000       -999.2500          0.0000          0.0000          0.0000          0.0000          0.0000          0.0000
       3972.0000       -999.2500          0.0000          0.0000          0.0000          0.0000          0.0000          0.0000
       3973.0000       -999.2500          0.0000          0.0000          0.0000          0.0000          0.0000          0.0000
       3974.0000       -999.2500          0.0000          0.0000          0.0000          0.0000          0.0000          0.0000
       3975.0000       -999.2500          0.0000          0.0000          0.0000          0.0000          0.0000          0.0000
       3976.0000       -999.2500          0.0000          0.0000          0.0000          0.0000          0.0000          0.0000
       3977.0000       -999.2500          0.0000          0.0000          0.0000          0.0000          0.0000          0.0000
       3978.0000       -999.2500          0.0000          0.0000          0.0000          0.0000          0.0000          0.0000
       3979.0000       -999.2500          0.0000          0.0000          0.0000          0.0000          0.0000          0.0000
       3980.0000       -999.2500          0.0000          0.0000          0.0000          0.0000          0.0000          0.0000
       3981.0000       -999.2500          0.0000          0.0000          0.0000          0.0000          0.0000          0.0000
       3982.0000       -999.2500          0.0000          0.0000          0.0000          0.0000          0.0000          0.0000
       3983.0000       -999.2500          0.0000          0.0000          0.0000          0.0000          0.0000          0.0000
       3984.0000       -999.2500          0.0000          0.0000          0.0000          0.0000          0.0000          0.0000
       3985.0000       -999.2500          0.0000          0.0000          0.0000          0.0000          0.0000          0.0000
       3986.0000       -999.2500          0.0000          0.0000          0.0000          0.0000          0.0000          0.0000
       3987.0000       -999.2500          0.0000          0.0000          0.0000          0.0000          0.0000          0.0000
       3988.0000       -999.2500          0.0000          0.0000          0.0000          0.0000          0.0000          0.0000
       3989.0000       -999.2500          0.0000          0.0000          0.0000          0.0000          0.0000          0.0000
       3990.0000       -999.2500          0.0000          0.0000          0.0000          0.0000          0.0000          0.0000
       3991.0000       -999.2500          0.0000          0.0000          0.0000          0.0000          0.0000          0.0000
       3992.0000       -999.2500          0.0000          0.0000          0.0000          0.0000          0.0000          0.0000
       3993.0000       -999.2500          0.0000          0.0000          0.0000          0.0000          0.0000          0.0000
       3994.0000       -999.2500          0.0000          0.0000          0.0000          0.0000          0.0000          0.0000
       3995.0000       -999.2500          0.0000          0.0000          0.0000          0.0000          0.0000          0.0000
       3996.0000       -999.2500          0.0000          0.0000          0.0000          0.0000          0.0000          0.0000
       3997.0000       -999.2500          0.0000          0.0000          0.0000          0.0000          0.0000          0.0000
       3998.0000       -999.2500          0.0000          0.0000          0.0000          0.0000          0.0000          0.0000
       3999.0000       -999.2500          0.0000          0.0000          0.0000          0.0000          0.0000          0.0000
       4000.0000       -999.2500          0.0000          0.0000          0.0000          0.0000          0.0000          0.0000
