~VERSION INFORMATION
VERS.                                   2:CWLS LOG ASCII STANDARD - VERSION 2.0
WRAP.                                  NO:ONE LINE PER DEPTH STEP
~WELL INFORMATION
#MNEM.UNIT              DATA              DESCRIPTION
#--------- ------------------------------ -------------------------------
 STRT.MS                           0.0000:START TIME
 STOP.MS                        4000.0000:STOP TIME
 STEP.MS                           1.0000:STEP
 NULL.                          -999.2500:NULL VALUE
 COMP.     STATOILHYDRO                  :COMPANY
 WELL.     15/9-F-15A                    :WELL
 FLD .     VOLVE                         :FIELD
 LOC .                                   :LOCATION
 PROV.     NORWAY                        :PROVINCE
 SRVC.     READ WELL SERVICES            :SERVICE COMPANY
 DATE.     17/02 2008                    :LOG DATE
 UWI .                                   :UNIQUE WELL ID
~CURVE INFORMATION
#MNEM.UNIT                                DESCRIPTION
#--------- ------------------------------ -------------------------------
TIME      .MS                            : TWO-WAY TRAVEL TIME FROM MSL, DERIVED FROM CALIBRATED SONIC
DT-EDIT   .US/F                          : UNCALIBRATED SONIC LOG (INPUT TO SYNTHETIC SEISMOGRAMS)
RHOB      .G/CC                          : DENSITY LOG
AC-IMP    .MSGC                          : ACOUSTIC IMPEDANCE LOG (M/S*G/CC)
RC        .                              : REFLECTION COEFFICIENT SERIES
RC-M      .                              : REFLECTION COEFFICIENT SERIES - MULTIPLES ONLY
RC-PM     .                              : REFLECTION COEFFICIENT SERIES - PRIMARIES & MULTIPLES
TMISS     .                              : TWO-WAY TRANSMISSION LOSS
# LOG CURVES
~A  TIME           DT-EDIT       RHOB-CKS     AC-IMP        RC            RC-M          RC-PM         TMISS
# ...
       1071.0000       -999.2500          1.8000       3800.8903          0.0000          0.0000          0.0000         -1.2352
       1072.0000       -999.2500          1.8000       3800.8903          0.0000          0.0000          0.0000         -1.2352
       1073.0000       -999.2500          1.8000       3800.8903          0.0000          0.0000          0.0000         -1.2352
       1074.0000       -999.2500          1.8000       3800.8903          0.0000          0.0000          0.0000         -1.2352
       1075.0000       -999.2500          1.8000       3800.8903          0.0000          0.0000          0.0000         -1.2352
       1076.0000       -999.2500          1.8000       3800.8903          0.0000          0.0000          0.0000         -1.2352
       1077.0000       -999.2500          1.8000       3800.8903          0.0000          0.0000          0.0000         -1.2352
       1078.0000       -999.2500          1.8000       3800.8903          0.0000          0.0000          0.0000         -1.2352
       1079.0000       -999.2500          1.8000       3800.8905          0.0000          0.0000          0.0000         -1.2352
       1080.0000       -999.2500          1.8000       3800.8905          0.0000          0.0000          0.0000         -1.2352
       1081.0000       -999.2500          1.8000       3800.8903          0.0000          0.0000          0.0000         -1.2352
       1082.0000       -999.2500          1.8000       3800.8903          0.0000          0.0000          0.0000         -1.2352
       1083.0000       -999.2500          1.8000       3800.8903          0.0000          0.0000          0.0000         -1.2352
       1084.0000       -999.2500          1.8000       3800.8903          0.0000          0.0000          0.0000         -1.2352
       1085.0000       -999.2500          1.8000       3800.8905          0.0000          0.0000          0.0000         -1.2352
       1086.0000       -999.2500          1.8000       3800.8905          0.0000          0.0000          0.0000         -1.2352
       1087.0000       -999.2500          1.8000       3800.8903          0.0000          0.0000          0.0000         -1.2352
       1088.0000       -999.2500          1.8000       3800.8903          0.0000          0.0000          0.0000         -1.2352
       1089.0000       -999.2500          1.8000       3800.8903          0.0000          0.0000          0.0000         -1.2352
       1090.0000       -999.2500          1.8000       3800.8903          0.0000          0.0000          0.0000         -1.2352
       1091.0000       -999.2500          1.8000       3800.8903          0.0000          0.0000          0.0000         -1.2352
       1092.0000       -999.2500          1.8000       3800.8905          0.0000          0.0000          0.0000         -1.2352
       1093.0000       -999.2500          1.8000       3800.8903          0.0000          0.0000          0.0000         -1.2352
       1094.0000       -999.2500          1.8000       3800.8905          0.0000          0.0000          0.0000         -1.2352
       1095.0000       -999.2500          1.8000       3800.8903          0.0000          0.0000          0.0000         -1.2352
       1096.0000       -999.2500          1.8000       3800.8903          0.0000          0.0000          0.0000         -1.2352
       1097.0000       -999.2500          1.8000       3800.8904          0.0000          0.0000          0.0000         -1.2352
       1098.0000       -999.2500          1.8000       3800.8903          0.0000          0.0000          0.0000         -1.2352
       1099.0000       -999.2500          1.8000       3800.8905          0.0000          0.0000          0.0000         -1.2352
       1100.0000       -999.2500          1.8000       3800.8903          0.0000          0.0000          0.0000         -1.2352
       1101.0000       -999.2500          1.8000       3800.8905          0.0000          0.0000          0.0000         -1.2352
       1102.0000       -999.2500          1.8000       3800.8905          0.0000          0.0000          0.0000         -1.2352
       1103.0000       -999.2500          1.8000       3800.8905          0.0000          0.0000          0.0000         -1.2352
       1104.0000       -999.2500          1.8000       3800.8905          0.0000          0.0000          0.0000         -1.2352
       1105.0000       -999.2500          1.8000       3800.8903          0.0000          0.0000          0.0000         -1.2352
       1106.0000       -999.2500          1.8000       3800.8905          0.0000          0.0000          0.0000         -1.2352
       1107.0000       -999.2500          1.8000       3800.8903          0.0000          0.0000          0.0000         -1.2352
       1108.0000       -999.2500          1.8000       3800.8903          0.0000          0.0000          0.0000         -1.2352
       1109.0000       -999.2500          1.8000       3800.8903          0.0000          0.0000          0.0000         -1.2352
       1110.0000       -999.2500          1.8000       3800.8903          0.0000          0.0000          0.0000         -1.2352
       1111.0000       -999.2500          1.8000       3800.8903          0.0000          0.0000          0.0000         -1.2352
       1112.0000       -999.2500          1.8000       3800.8905          0.0000          0.0000          0.0000         -1.2352
       1113.0000       -999.2500          1.8000       3800.8905          0.0000          0.0000          0.0000         -1.2352
       1114.0000       -999.2500          1.8000       3800.8903          0.0000          0.0000          0.0000         -1.2352
       1115.0000       -999.2500          1.8000       3800.8905          0.0000          0.0000          0.0000         -1.2352
       1116.0000       -999.2500          1.8000       3800.8903          0.0000          0.0000          0.0000         -1.2352
       1117.0000       -999.2500          1.8000       3800.8903          0.0000          0.0000          0.0000         -1.2352
       1118.0000       -999.2500          1.8000       3800.8903          0.0000          0.0000          0.0000         -1.2352
       1119.0000       -999.2500          1.8000       3800.8905          0.0000          0.0000          0.0000         -1.2352
       1120.0000       -999.2500          1.8000       3800.8903          0.0000          0.0000          0.0000         -1.2352
       1121.0000       -999.2500          1.8000       3800.8905          0.0000          0.0000          0.0000         -1.2352
       1122.0000       -999.2500          1.8000       3800.8905          0.0000          0.0000          0.0000         -1.2352
       1123.0000       -999.2500          1.8000       3800.8905          0.0000          0.0000          0.0000         -1.2352
       1124.0000       -999.2500          1.8000       3800.8903          0.0000          0.0000          0.0000         -1.2352
       1125.0000       -999.2500          1.8000       3800.8903          0.0000          0.0000          0.0000         -1.2352
       1126.0000       -999.2500          1.8000       3800.8905          0.0000          0.0000          0.0000         -1.2352
       1127.0000       -999.2500          1.8000       3800.8905          0.0000          0.0000          0.0000         -1.2352
       1128.0000       -999.2500          1.8000       3800.8900          0.0000          0.0000          0.0000         -1.2352
       1129.0000       -999.2500          1.8000       3800.8903          0.0000          0.0000          0.0000         -1.2352
       1130.0000       -999.2500          1.8000       3800.8903          0.0000          0.0000          0.0000         -1.2352
       1131.0000       -999.2500          1.8000       3800.8903          0.0000          0.0000          0.0000         -1.2352
       1132.0000       -999.2500          1.8000       3800.8905          0.0000          0.0000          0.0000         -1.2352
       1133.0000       -999.2500          1.8000       3800.8903          0.0000          0.0000          0.0000         -1.2352
