~VERSION INFORMATION
VERS.                                   2:CWLS LOG ASCII STANDARD - VERSION 2.0
WRAP.                                  NO:ONE LINE PER DEPTH STEP
~WELL INFORMATION
#MNEM.UNIT              DATA              DESCRIPTION
#--------- ------------------------------ -------------------------------
 STRT.MS                           0.0000:START TIME
 STOP.MS                        4000.0000:STOP TIME
 STEP.MS                           1.0000:STEP
 NULL.                          -999.2500:NULL VALUE
 COMP.     STATOILHYDRO                  :COMPANY
 WELL.     15/9-F-15A                    :WELL
 FLD .     VOLVE                         :FIELD
 LOC .                                   :LOCATION
 PROV.     NORWAY                        :PROVINCE
 SRVC.     READ WELL SERVICES            :SERVICE COMPANY
 DATE.     17/02 2008                    :LOG DATE
 UWI .                                   :UNIQUE WELL ID
~CURVE INFORMATION
#MNEM.UNIT                                DESCRIPTION
#--------- ------------------------------ -------------------------------
TIME      .MS                            : TWO-WAY TRAVEL TIME FROM MSL, DERIVED FROM CALIBRATED SONIC
DT-EDIT   .US/F                          : UNCALIBRATED SONIC LOG (INPUT TO SYNTHETIC SEISMOGRAMS)
RHOB      .G/CC                          : DENSITY LOG
AC-IMP    .MSGC                          : ACOUSTIC IMPEDANCE LOG (M/S*G/CC)
RC        .                              : REFLECTION COEFFICIENT SERIES
RC-M      .                              : REFLECTION COEFFICIENT SERIES - MULTIPLES ONLY
RC-PM     .                              : REFLECTION COEFFICIENT SERIES - PRIMARIES & MULTIPLES
TMISS     .                              : TWO-WAY TRANSMISSION LOSS
# LOG CURVES
~A  TIME           DT-EDIT       RHOB-CKS     AC-IMP        RC            RC-M          RC-PM         TMISS
# ...
       1575.0000       -999.2500          1.8000       3800.8905          0.0000          0.0000          0.0000         -1.2352
       1576.0000       -999.2500          1.8000       3800.8905          0.0000          0.0000          0.0000         -1.2352
       1577.0000       -999.2500          1.8000       3800.8905          0.0000          0.0000          0.0000         -1.2352
       1578.0000       -999.2500          1.8000       3800.8903          0.0000          0.0000          0.0000         -1.2352
       1579.0000       -999.2500          1.8000       3800.8903          0.0000          0.0000          0.0000         -1.2352
       1580.0000       -999.2500          1.8000       3800.8905          0.0000          0.0000          0.0000         -1.2352
       1581.0000       -999.2500          1.8000       3800.8905          0.0000          0.0000          0.0000         -1.2352
       1582.0000       -999.2500          1.8000       3800.8903          0.0000          0.0000          0.0000         -1.2352
       1583.0000       -999.2500          1.8000       3800.8905          0.0000          0.0000          0.0000         -1.2352
       1584.0000       -999.2500          1.8000       3800.8905          0.0000          0.0000          0.0000         -1.2352
       1585.0000       -999.2500          1.8000       3800.8903          0.0000          0.0000          0.0000         -1.2352
       1586.0000       -999.2500          1.8000       3800.8903          0.0000          0.0000          0.0000         -1.2352
       1587.0000       -999.2500          1.8000       3800.8903          0.0000          0.0000          0.0000         -1.2352
       1588.0000       -999.2500          1.8000       3800.8903          0.0000          0.0000          0.0000         -1.2352
       1589.0000       -999.2500          1.8000       3800.8903          0.0000          0.0000          0.0000         -1.2352
       1590.0000       -999.2500          1.8000       3800.8905          0.0000          0.0000          0.0000         -1.2352
       1591.0000       -999.2500          1.8000       3800.8903          0.0000          0.0000          0.0000         -1.2352
       1592.0000       -999.2500          1.8000       3800.8905          0.0000          0.0000          0.0000         -1.2352
       1593.0000       -999.2500          1.8000       3800.8905          0.0000          0.0000          0.0000         -1.2352
       1594.0000       -999.2500          1.8000       3800.8903          0.0000          0.0000          0.0000         -1.2352
       1595.0000       -999.2500          1.8000       3800.8905          0.0000          0.0000          0.0000         -1.2352
       1596.0000       -999.2500          1.8000       3800.8903          0.0000          0.0000          0.0000         -1.2352
       1597.0000       -999.2500          1.8000       3800.8903          0.0000          0.0000          0.0000         -1.2352
       1598.0000       -999.2500          1.8000       3800.8903          0.0000          0.0000          0.0000         -1.2352
       1599.0000       -999.2500          1.8000       3800.8907          0.0000          0.0000          0.0000         -1.2352
       1600.0000       -999.2500          1.8000       3800.8903          0.0000          0.0000          0.0000         -1.2352
       1601.0000       -999.2500          1.8000       3800.8903          0.0000          0.0000          0.0000         -1.2352
       1602.0000       -999.2500          1.8000       3800.8905          0.0000          0.0000          0.0000         -1.2352
       1603.0000       -999.2500          1.8000       3800.8905          0.0000          0.0000          0.0000         -1.2352
       1604.0000       -999.2500          1.8000       3800.8903          0.0000          0.0000          0.0000         -1.2352
       1605.0000       -999.2500          1.8000       3800.8903          0.0000          0.0000          0.0000         -1.2352
       1606.0000       -999.2500          1.8000       3800.8905          0.0000          0.0000          0.0000         -1.2352
       1607.0000       -999.2500          1.8000       3800.8903          0.0000          0.0000          0.0000         -1.2352
       1608.0000       -999.2500          1.8000       3800.8905          0.0000          0.0000          0.0000         -1.2352
       1609.0000       -999.2500          1.8000       3800.8903          0.0000          0.0000          0.0000         -1.2352
       1610.0000       -999.2500          1.8000       3800.8903          0.0000          0.0000          0.0000         -1.2352
       1611.0000       -999.2500          1.8000       3800.8905          0.0000          0.0000          0.0000         -1.2352
       1612.0000       -999.2500          1.8000       3800.8905          0.0000          0.0000          0.0000         -1.2352
       1613.0000       -999.2500          1.8000       3800.8905          0.0000          0.0000          0.0000         -1.2352
       1614.0000       -999.2500          1.8000       3800.8905          0.0000          0.0000          0.0000         -1.2352
       1615.0000       -999.2500          1.8000       3800.8905          0.0000          0.0000          0.0000         -1.2352
       1616.0000       -999.2500          1.8000       3800.8902          0.0000          0.0000          0.0000         -1.2352
       1617.0000       -999.2500          1.8000       3800.8903          0.0000          0.0000          0.0000         -1.2352
       1618.0000       -999.2500          1.8000       3800.8905          0.0000          0.0000          0.0000         -1.2352
       1619.0000       -999.2500          1.8000       3800.8905          0.0000          0.0000          0.0000         -1.2352
       1620.0000       -999.2500          1.8000       3800.8905          0.0000          0.0000          0.0000         -1.2352
       1621.0000       -999.2500          1.8000       3800.8903          0.0000          0.0000          0.0000         -1.2352
       1622.0000       -999.2500          1.8000       3800.8903          0.0000          0.0000          0.0000         -1.2352
       1623.0000       -999.2500          1.8000       3800.8905          0.0000          0.0000          0.0000         -1.2352
       1624.0000       -999.2500          1.8000       3800.8903          0.0000          0.0000          0.0000         -1.2352
       1625.0000       -999.2500          1.8000       3800.8903          0.0000          0.0000          0.0000         -1.2352
       1626.0000       -999.2500          1.8000       3800.8903          0.0000          0.0000          0.0000         -1.2352
       1627.0000       -999.2500          1.8000       3800.8903          0.0000          0.0000          0.0000         -1.2352
       1628.0000       -999.2500          1.8000       3800.8903          0.0000          0.0000          0.0000         -1.2352
       1629.0000       -999.2500          1.8000       3800.8905          0.0000          0.0000          0.0000         -1.2352
       1630.0000       -999.2500          1.8000       3800.8905          0.0000          0.0000          0.0000         -1.2352
       1631.0000       -999.2500          1.8000       3800.8903          0.0000          0.0000          0.0000         -1.2352
       1632.0000       -999.2500          1.8000       3800.8903          0.0000          0.0000          0.0000         -1.2352
       1633.0000       -999.2500          1.8000       3800.8903          0.0000          0.0000          0.0000         -1.2352
       1634.0000       -999.2500          1.8000       3800.8903          0.0000          0.0000          0.0000         -1.2352
       1635.0000       -999.2500          1.8000       3800.8903          0.0000          0.0000          0.0000         -1.2352
       1636.0000       -999.2500          1.8000       3800.8903          0.0000          0.0000          0.0000         -1.2352
       1637.0000       -999.2500          1.8000       3800.8903          0.0000          0.0000          0.0000         -1.2352
