~VERSION INFORMATION
VERS.                                   2:CWLS LOG ASCII STANDARD - VERSION 2.0
WRAP.                                  NO:ONE LINE PER DEPTH STEP
~WELL INFORMATION
#MNEM.UNIT              DATA              DESCRIPTION
#--------- ------------------------------ -------------------------------
 STRT.MS                           0.0000:START TIME
 STOP.MS                        4000.0000:STOP TIME
 STEP.MS                           1.0000:STEP
 NULL.                          -999.2500:NULL VALUE
 COMP.     STATOILHYDRO                  :COMPANY
 WELL.     15/9-F-15A                    :WELL
 FLD .     VOLVE                         :FIELD
 LOC .                                   :LOCATION
 PROV.     NORWAY                        :PROVINCE
 SRVC.     READ WELL SERVICES            :SERVICE COMPANY
 DATE.     17/02 2008                    :LOG DATE
 UWI .                                   :UNIQUE WELL ID
~CURVE INFORMATION
#MNEM.UNIT                                DESCRIPTION
#--------- ------------------------------ -------------------------------
TIME      .MS                            : TWO-WAY TRAVEL TIME FROM MSL, DERIVED FROM CALIBRATED SONIC
DT-EDIT   .US/F                          : UNCALIBRATED SONIC LOG (INPUT TO SYNTHETIC SEISMOGRAMS)
RHOB      .G/CC                          : DENSITY LOG
AC-IMP    .MSGC                          : ACOUSTIC IMPEDANCE LOG (M/S*G/CC)
RC        .                              : REFLECTION COEFFICIENT SERIES
RC-M      .                              : REFLECTION COEFFICIENT SERIES - MULTIPLES ONLY
RC-PM     .                              : REFLECTION COEFFICIENT SERIES - PRIMARIES & MULTIPLES
TMISS     .                              : TWO-WAY TRANSMISSION LOSS
# LOG CURVES
~A  TIME           DT-EDIT       RHOB-CKS     AC-IMP        RC            RC-M          RC-PM         TMISS
# ...
       2142.0000       -999.2500          1.8000       3800.8905          0.0000          0.0000          0.0000         -1.2352
       2143.0000       -999.2500          1.8000       3800.8905          0.0000          0.0000          0.0000         -1.2352
       2144.0000       -999.2500          1.8000       3800.8905          0.0000          0.0000          0.0000         -1.2352
       2145.0000       -999.2500          1.8000       3800.8903          0.0000          0.0000          0.0000         -1.2352
       2146.0000       -999.2500          1.8000       3800.8903          0.0000          0.0000          0.0000         -1.2352
       2147.0000       -999.2500          1.8000       3800.8903          0.0000          0.0000          0.0000         -1.2352
       2148.0000       -999.2500          1.8000       3800.8907          0.0000          0.0000          0.0000         -1.2352
       2149.0000       -999.2500          1.8000       3800.8903          0.0000          0.0000          0.0000         -1.2352
       2150.0000       -999.2500          1.8000       3800.8903          0.0000          0.0000          0.0000         -1.2352
       2151.0000       -999.2500          1.8000       3800.8903          0.0000          0.0000          0.0000         -1.2352
       2152.0000       -999.2500          1.8000       3800.8903          0.0000          0.0000          0.0000         -1.2352
       2153.0000       -999.2500          1.8000       3800.8903          0.0000          0.0000          0.0000         -1.2352
       2154.0000       -999.2500          1.8000       3800.8903          0.0000          0.0000          0.0000         -1.2352
       2155.0000       -999.2500          1.8000       3800.8903          0.0000          0.0000          0.0000         -1.2352
       2156.0000       -999.2500          1.8000       3800.8903          0.0000          0.0000          0.0000         -1.2352
       2157.0000       -999.2500          1.8000       3800.8903          0.0000          0.0000          0.0000         -1.2352
       2158.0000       -999.2500          1.8000       3800.8903          0.0000          0.0000          0.0000         -1.2352
       2159.0000       -999.2500          1.8000       3800.8903          0.0000          0.0000          0.0000         -1.2352
       2160.0000       -999.2500          1.8000       3800.8905          0.0000          0.0000          0.0000         -1.2352
       2161.0000       -999.2500          1.8000       3800.8903          0.0000          0.0000          0.0000         -1.2352
       2162.0000       -999.2500          1.8000       3800.8903          0.0000          0.0000          0.0000         -1.2352
       2163.0000       -999.2500          1.8000       3800.8905          0.0000          0.0000          0.0000         -1.2352
       2164.0000       -999.2500          1.8000       3800.8903          0.0000          0.0000          0.0000         -1.2352
       2165.0000       -999.2500          1.8000       3800.8903          0.0000          0.0000          0.0000         -1.2352
       2166.0000       -999.2500          1.8000       3800.8905          0.0000          0.0000          0.0000         -1.2352
       2167.0000       -999.2500          1.8000       3800.8905          0.0000          0.0000          0.0000         -1.2352
       2168.0000       -999.2500          1.8000       3800.8903          0.0000          0.0000          0.0000         -1.2352
       2169.0000       -999.2500          1.8000       3800.8905          0.0000          0.0000          0.0000         -1.2352
       2170.0000       -999.2500          1.8000       3800.8905          0.0000          0.0000          0.0000         -1.2352
       2171.0000       -999.2500          1.8000       3800.8905          0.0000          0.0000          0.0000         -1.2352
       2172.0000       -999.2500          1.8000       3800.8905          0.0000          0.0000          0.0000         -1.2352
       2173.0000       -999.2500          1.8000       3800.8905          0.0000          0.0000          0.0000         -1.2352
       2174.0000       -999.2500          1.8000       3800.8905          0.0000          0.0000          0.0000         -1.2352
       2175.0000       -999.2500          1.8000       3800.8905          0.0000          0.0000          0.0000         -1.2352
       2176.0000       -999.2500          1.8000       3800.8903          0.0000          0.0000          0.0000         -1.2352
       2177.0000       -999.2500          1.8000       3800.8903          0.0000          0.0000          0.0000         -1.2352
       2178.0000       -999.2500          1.8000       3800.8903          0.0000          0.0000          0.0000         -1.2352
       2179.0000       -999.2500          1.8000       3800.8905          0.0000          0.0000          0.0000         -1.2352
       2180.0000       -999.2500          1.8000       3800.8903          0.0000          0.0000          0.0000         -1.2352
       2181.0000       -999.2500          1.8000       3800.8903          0.0000          0.0000          0.0000         -1.2352
       2182.0000       -999.2500          1.8000       3800.8903          0.0000          0.0000          0.0000         -1.2352
       2183.0000       -999.2500          1.8000       3800.8901          0.0000          0.0000          0.0000         -1.2352
       2184.0000       -999.2500          1.8000       3800.8903          0.0000          0.0000          0.0000         -1.2352
       2185.0000       -999.2500          1.8000       3800.8903          0.0000          0.0000          0.0000         -1.2352
       2186.0000       -999.2500          1.8000       3800.8905          0.0000          0.0000          0.0000         -1.2352
       2187.0000       -999.2500          1.8000       3800.8905          0.0000          0.0000          0.0000         -1.2352
       2188.0000       -999.2500          1.8000       3800.8905          0.0000          0.0000          0.0000         -1.2352
       2189.0000       -999.2500          1.8000       3800.8905          0.0000          0.0000          0.0000         -1.2352
       2190.0000       -999.2500          1.8000       3800.8905          0.0000          0.0000          0.0000         -1.2352
       2191.0000       -999.2500          1.8000       3800.8903          0.0000          0.0000          0.0000         -1.2352
       2192.0000       -999.2500          1.8000       3800.8903          0.0000          0.0000          0.0000         -1.2352
       2193.0000       -999.2500          1.8000       3800.8905          0.0000          0.0000          0.0000         -1.2352
       2194.0000       -999.2500          1.8000       3800.8903          0.0000          0.0000          0.0000         -1.2352
       2195.0000       -999.2500          1.8000       3800.8905          0.0000          0.0000          0.0000         -1.2352
       2196.0000       -999.2500          1.8000       3800.8905          0.0000          0.0000          0.0000         -1.2352
       2197.0000       -999.2500          1.8000       3800.8903          0.0000          0.0000          0.0000         -1.2352
       2198.0000       -999.2500          1.8000       3800.8903          0.0000          0.0000          0.0000         -1.2352
       2199.0000       -999.2500          1.8000       3800.8903          0.0000          0.0000          0.0000         -1.2352
       2200.0000       -999.2500          1.8000       3800.8905          0.0000          0.0000          0.0000         -1.2352
       2201.0000       -999.2500          1.8000       3800.8903          0.0000          0.0000          0.0000         -1.2352
       2202.0000       -999.2500          1.8000       3800.8903          0.0000          0.0000          0.0000         -1.2352
       2203.0000       -999.2500          1.8000       3800.8905          0.0000          0.0000          0.0000         -1.2352
       2204.0000       -999.2500          1.8000       3800.8903          0.0000          0.0000          0.0000         -1.2352
