~VERSION INFORMATION
VERS.                                   2:CWLS LOG ASCII STANDARD - VERSION 2.0
WRAP.                                  NO:ONE LINE PER DEPTH STEP
~WELL INFORMATION
#MNEM.UNIT              DATA              DESCRIPTION
#--------- ------------------------------ -------------------------------
 STRT.MS                           0.0000:START TIME
 STOP.MS                        4000.0000:STOP TIME
 STEP.MS                           1.0000:STEP
 NULL.                          -999.2500:NULL VALUE
 COMP.     STATOILHYDRO                  :COMPANY
 WELL.     15/9-F-15A                    :WELL
 FLD .     VOLVE                         :FIELD
 LOC .                                   :LOCATION
 PROV.     NORWAY                        :PROVINCE
 SRVC.     READ WELL SERVICES            :SERVICE COMPANY
 DATE.     17/02 2008                    :LOG DATE
 UWI .                                   :UNIQUE WELL ID
~CURVE INFORMATION
#MNEM.UNIT                                DESCRIPTION
#--------- ------------------------------ -------------------------------
TIME      .MS                            : TWO-WAY TRAVEL TIME FROM MSL, DERIVED FROM CALIBRATED SONIC
DT-EDIT   .US/F                          : UNCALIBRATED SONIC LOG (INPUT TO SYNTHETIC SEISMOGRAMS)
RHOB      .G/CC                          : DENSITY LOG
AC-IMP    .MSGC                          : ACOUSTIC IMPEDANCE LOG (M/S*G/CC)
RC        .                              : REFLECTION COEFFICIENT SERIES
RC-M      .                              : REFLECTION COEFFICIENT SERIES - MULTIPLES ONLY
RC-PM     .                              : REFLECTION COEFFICIENT SERIES - PRIMARIES & MULTIPLES
TMISS     .                              : TWO-WAY TRANSMISSION LOSS
# LOG CURVES
~A  TIME           DT-EDIT       RHOB-CKS     AC-IMP        RC            RC-M          RC-PM         TMISS
# ...
        252.0000       -999.2500          1.8000       3800.8903          0.0000          0.0000          0.0000         -1.2352
        253.0000       -999.2500          1.8000       3800.8903          0.0000          0.0000          0.0000         -1.2352
        254.0000       -999.2500          1.8000       3800.8907          0.0000          0.0000          0.0000         -1.2352
        255.0000       -999.2500          1.8000       3800.8903          0.0000          0.0000          0.0000         -1.2352
        256.0000       -999.2500          1.8000       3800.8907          0.0000          0.0000          0.0000         -1.2352
        257.0000       -999.2500          1.8000       3800.8905          0.0000          0.0000          0.0000         -1.2352
        258.0000       -999.2500          1.8000       3800.8905          0.0000          0.0000          0.0000         -1.2352
        259.0000       -999.2500          1.8000       3800.8903          0.0000          0.0000          0.0000         -1.2352
        260.0000       -999.2500          1.8000       3800.8903          0.0000          0.0000          0.0000         -1.2352
        261.0000       -999.2500          1.8000       3800.8903          0.0000          0.0000          0.0000         -1.2352
        262.0000       -999.2500          1.8000       3800.8903          0.0000          0.0000          0.0000         -1.2352
        263.0000       -999.2500          1.8000       3800.8903          0.0000          0.0000          0.0000         -1.2352
        264.0000       -999.2500          1.8000       3800.8903          0.0000          0.0000          0.0000         -1.2352
        265.0000       -999.2500          1.8000       3800.8903          0.0000          0.0000          0.0000         -1.2352
        266.0000       -999.2500          1.8000       3800.8905          0.0000          0.0000          0.0000         -1.2352
        267.0000       -999.2500          1.8000       3800.8903          0.0000          0.0000          0.0000         -1.2352
        268.0000       -999.2500          1.8000       3800.8907          0.0000          0.0000          0.0000         -1.2352
        269.0000       -999.2500          1.8000       3800.8903          0.0000          0.0000          0.0000         -1.2352
        270.0000       -999.2500          1.8000       3800.8903          0.0000          0.0000          0.0000         -1.2352
        271.0000       -999.2500          1.8000       3800.8903          0.0000          0.0000          0.0000         -1.2352
        272.0000       -999.2500          1.8000       3800.8903          0.0000          0.0000          0.0000         -1.2352
        273.0000       -999.2500          1.8000       3800.8903          0.0000          0.0000          0.0000         -1.2352
        274.0000       -999.2500          1.8000       3800.8903          0.0000          0.0000          0.0000         -1.2352
        275.0000       -999.2500          1.8000       3800.8903          0.0000          0.0000          0.0000         -1.2352
        276.0000       -999.2500          1.8000       3800.8903          0.0000          0.0000          0.0000         -1.2352
        277.0000       -999.2500          1.8000       3800.8903          0.0000          0.0000          0.0000         -1.2352
        278.0000       -999.2500          1.8000       3800.8903          0.0000          0.0000          0.0000         -1.2352
        279.0000       -999.2500          1.8000       3800.8907          0.0000          0.0000          0.0000         -1.2352
        280.0000       -999.2500          1.8000       3800.8903          0.0000          0.0000          0.0000         -1.2352
        281.0000       -999.2500          1.8000       3800.8903          0.0000          0.0000          0.0000         -1.2352
        282.0000       -999.2500          1.8000       3800.8905          0.0000          0.0000          0.0000         -1.2352
        283.0000       -999.2500          1.8000       3800.8903          0.0000          0.0000          0.0000         -1.2352
        284.0000       -999.2500          1.8000       3800.8903          0.0000          0.0000          0.0000         -1.2352
        285.0000       -999.2500          1.8000       3800.8903          0.0000          0.0000          0.0000         -1.2352
        286.0000       -999.2500          1.8000       3800.8903          0.0000          0.0000          0.0000         -1.2352
        287.0000       -999.2500          1.8000       3800.8903          0.0000          0.0000          0.0000         -1.2352
        288.0000       -999.2500          1.8000       3800.8905          0.0000          0.0000          0.0000         -1.2352
        289.0000       -999.2500          1.8000       3800.8905          0.0000          0.0000          0.0000         -1.2352
        290.0000       -999.2500          1.8000       3800.8903          0.0000          0.0000          0.0000         -1.2352
        291.0000       -999.2500          1.8000       3800.8903          0.0000          0.0000          0.0000         -1.2352
        292.0000       -999.2500          1.8000       3800.8905          0.0000          0.0000          0.0000         -1.2352
        293.0000       -999.2500          1.8000       3800.8903          0.0000          0.0000          0.0000         -1.2352
        294.0000       -999.2500          1.8000       3800.8903          0.0000          0.0000          0.0000         -1.2352
        295.0000       -999.2500          1.8000       3800.8905          0.0000          0.0000          0.0000         -1.2352
        296.0000       -999.2500          1.8000       3800.8903          0.0000          0.0000          0.0000         -1.2352
        297.0000       -999.2500          1.8000       3800.8903          0.0000          0.0000          0.0000         -1.2352
        298.0000       -999.2500          1.8000       3800.8903          0.0000          0.0000          0.0000         -1.2352
        299.0000       -999.2500          1.8000       3800.8903          0.0000          0.0000          0.0000         -1.2352
        300.0000       -999.2500          1.8000       3800.8903          0.0000          0.0000          0.0000         -1.2352
        301.0000       -999.2500          1.8000       3800.8905          0.0000          0.0000          0.0000         -1.2352
        302.0000       -999.2500          1.8000       3800.8905          0.0000          0.0000          0.0000         -1.2352
        303.0000       -999.2500          1.8000       3800.8903          0.0000          0.0000          0.0000         -1.2352
        304.0000       -999.2500          1.8000       3800.8905          0.0000          0.0000          0.0000         -1.2352
        305.0000       -999.2500          1.8000       3800.8905          0.0000          0.0000          0.0000         -1.2352
        306.0000       -999.2500          1.8000       3800.8903          0.0000          0.0000          0.0000         -1.2352
        307.0000       -999.2500          1.8000       3800.8903          0.0000          0.0000          0.0000         -1.2352
        308.0000       -999.2500          1.8000       3800.8903          0.0000          0.0000          0.0000         -1.2352
        309.0000       -999.2500          1.8000       3800.8903          0.0000          0.0000          0.0000         -1.2352
        310.0000       -999.2500          1.8000       3800.8905          0.0000          0.0000          0.0000         -1.2352
        311.0000       -999.2500          1.8000       3800.8903          0.0000          0.0000          0.0000         -1.2352
        312.0000       -999.2500          1.8000       3800.8903          0.0000          0.0000          0.0000         -1.2352
        313.0000       -999.2500          1.8000       3800.8907          0.0000          0.0000          0.0000         -1.2352
        314.0000       -999.2500          1.8000       3800.8903          0.0000          0.0000          0.0000         -1.2352
