~VERSION INFORMATION
VERS.                                   2:CWLS LOG ASCII STANDARD - VERSION 2.0
WRAP.                                  NO:ONE LINE PER DEPTH STEP
~WELL INFORMATION
#MNEM.UNIT              DATA              DESCRIPTION
#--------- ------------------------------ -------------------------------
 STRT.MS                           0.0000:START TIME
 STOP.MS                        4000.0000:STOP TIME
 STEP.MS                           1.0000:STEP
 NULL.                          -999.2500:NULL VALUE
 COMP.     STATOILHYDRO                  :COMPANY
 WELL.     15/9-F-15A                    :WELL
 FLD .     VOLVE                         :FIELD
 LOC .                                   :LOCATION
 PROV.     NORWAY                        :PROVINCE
 SRVC.     READ WELL SERVICES            :SERVICE COMPANY
 DATE.     17/02 2008                    :LOG DATE
 UWI .                                   :UNIQUE WELL ID
~CURVE INFORMATION
#MNEM.UNIT                                DESCRIPTION
#--------- ------------------------------ -------------------------------
TIME      .MS                            : TWO-WAY TRAVEL TIME FROM MSL, DERIVED FROM CALIBRATED SONIC
DT-EDIT   .US/F                          : UNCALIBRATED SONIC LOG (INPUT TO SYNTHETIC SEISMOGRAMS)
RHOB      .G/CC                          : DENSITY LOG
AC-IMP    .MSGC                          : ACOUSTIC IMPEDANCE LOG (M/S*G/CC)
RC        .                              : REFLECTION COEFFICIENT SERIES
RC-M      .                              : REFLECTION COEFFICIENT SERIES - MULTIPLES ONLY
RC-PM     .                              : REFLECTION COEFFICIENT SERIES - PRIMARIES & MULTIPLES
TMISS     .                              : TWO-WAY TRANSMISSION LOSS
# LOG CURVES
~A  TIME           DT-EDIT       RHOB-CKS     AC-IMP        RC            RC-M          RC-PM         TMISS
# ...
       2646.0000         83.9120          2.3983       8711.5552         -0.0395         -0.0066         -0.0278         -6.2877
       2647.0000         87.6489          2.3146       8049.0478         -0.0001          0.0094          0.0094         -6.3013
       2648.0000         88.4915          2.3365       8047.9270         -0.0187         -0.0064         -0.0165         -6.3013
       2649.0000         90.7106          2.3070       7751.6791          0.0498          0.0038          0.0305         -6.3044
       2650.0000         83.6341          2.3498       8563.5724          0.0681          0.0127          0.0492         -6.3259
       2651.0000         75.8834          2.4434       9814.5084         -0.0959         -0.0075         -0.0587         -6.3662
       2652.0000         87.6863          2.3292       8096.2012          0.0254         -0.0280         -0.0146         -6.4466
       2653.0000         83.5128          2.3340       8518.5420         -0.0365          0.0236          0.0044         -6.4522
       2654.0000         86.8954          2.2576       7919.0062          0.0736          0.0147          0.0535         -6.4637
       2655.0000         77.3569          2.3293       9177.7325          0.1144          0.0002          0.0603         -6.5109
       2656.0000         67.9104          2.5733      11549.4842         -0.0106          0.0310          0.0254         -6.6254
       2657.0000         68.6125          2.5451      11306.2860         -0.0194          0.0103          0.0002         -6.6264
       2658.0000         71.1519          2.5386      10874.9735         -0.0121         -0.0071         -0.0133         -6.6297
       2659.0000         73.5965          2.5633      10615.8540         -0.0308          0.0103         -0.0056         -6.6310
       2660.0000         77.3568          2.5331       9980.8793         -0.0708         -0.0197         -0.0563         -6.6392
       2661.0000         84.1526          2.3911       8660.4504          0.0205          0.0143          0.0248         -6.6829
       2662.0000         79.8474          2.3635       9022.0944          0.0898          0.0072          0.0534         -6.6865
       2663.0000         70.8679          2.5116      10802.1875         -0.0252         -0.0271         -0.0400         -6.7569
       2664.0000         74.2998          2.5037      10270.8722         -0.0016          0.0273          0.0265         -6.7624
       2665.0000         73.9054          2.4825      10238.4592         -0.0034          0.0044          0.0027         -6.7624
       2666.0000         75.0545          2.5041      10169.1071          0.0202          0.0062          0.0165         -6.7625
       2667.0000         72.3456          2.5132      10588.4751          0.0186          0.0116          0.0211         -6.7660
       2668.0000         70.4436          2.5398      10989.4932         -0.0152         -0.0091         -0.0168         -6.7690
       2669.0000         72.2546          2.5272      10660.8347          0.0185         -0.0033          0.0062         -6.7710
       2670.0000         70.2001          2.5481      11063.4697         -0.0003         -0.0062         -0.0064         -6.7740
       2671.0000         70.1841          2.5458      11056.2455         -0.0172         -0.0071         -0.0158         -6.7740
       2672.0000         72.0257          2.5244      10682.6787         -0.0177          0.0262          0.0173         -6.7766
       2673.0000         74.2467          2.5119      10311.8824          0.0090         -0.0123         -0.0078         -6.7793
       2674.0000         72.8943          2.5110      10499.3294         -0.0305         -0.0028         -0.0183         -6.7800
       2675.0000         76.6680          2.4846       9877.9045         -0.0028          0.0057          0.0042         -6.7881
       2676.0000         77.4360          2.4956       9823.0632         -0.0067         -0.0302         -0.0336         -6.7882
       2677.0000         78.9904          2.5118       9692.4403         -0.0405          0.0078         -0.0127         -6.7885
       2678.0000         81.9481          2.4032       8938.5900          0.0077         -0.0016          0.0024         -6.8028
       2679.0000         81.4860          2.4269       9077.6850         -0.0251         -0.0069         -0.0197         -6.8033
       2680.0000         84.0725          2.3812       8632.7280          0.0088          0.0133          0.0178         -6.8088
       2681.0000         82.3201          2.3731       8786.8103         -0.0061         -0.0373         -0.0404         -6.8095
       2682.0000         80.8761          2.3033       8680.5299          0.0077          0.0125          0.0164         -6.8098
       2683.0000         81.3542          2.3531       8815.9149          0.0094         -0.0003          0.0045         -6.8103
       2684.0000         81.4445          2.4003       8983.0223         -0.0431         -0.0069         -0.0288         -6.8111
       2685.0000         85.7622          2.3185       8239.8758          0.0305          0.0078          0.0232         -6.8273
       2686.0000       -999.2500          2.3708       8758.5063          0.0000          0.0170          0.0170         -6.8353
       2687.0000       -999.2500          2.3708       8758.5063          0.0000          0.0134          0.0134         -6.8353
       2688.0000       -999.2500          0.0000          0.0000          0.0000         -0.0226         -0.0226          0.0000
       2689.0000       -999.2500          0.0000          0.0000          0.0000         -0.0132         -0.0132          0.0000
       2690.0000       -999.2500          0.0000          0.0000          0.0000          0.0017          0.0017          0.0000
       2691.0000       -999.2500          0.0000          0.0000          0.0000          0.0124          0.0124          0.0000
       2692.0000       -999.2500          0.0000          0.0000          0.0000          0.0049          0.0049          0.0000
       2693.0000       -999.2500          0.0000          0.0000          0.0000          0.0100          0.0100          0.0000
       2694.0000       -999.2500          0.0000          0.0000          0.0000         -0.0079         -0.0079          0.0000
       2695.0000       -999.2500          0.0000          0.0000          0.0000          0.0043          0.0043          0.0000
       2696.0000       -999.2500          0.0000          0.0000          0.0000         -0.0225         -0.0225          0.0000
       2697.0000       -999.2500          0.0000          0.0000          0.0000          0.0059          0.0059          0.0000
       2698.0000       -999.2500          0.0000          0.0000          0.0000          0.0223          0.0223          0.0000
       2699.0000       -999.2500          0.0000          0.0000          0.0000          0.0204          0.0204          0.0000
       2700.0000       -999.2500          0.0000          0.0000          0.0000         -0.0040         -0.0040          0.0000
       2701.0000       -999.2500          0.0000          0.0000          0.0000          0.0097          0.0097          0.0000
       2702.0000       -999.2500          0.0000          0.0000          0.0000          0.0025          0.0025          0.0000
       2703.0000       -999.2500          0.0000          0.0000          0.0000          0.0096          0.0096          0.0000
       2704.0000       -999.2500          0.0000          0.0000          0.0000          0.0048          0.0048          0.0000
       2705.0000       -999.2500          0.0000          0.0000          0.0000         -0.0056         -0.0056          0.0000
       2706.0000       -999.2500          0.0000          0.0000          0.0000         -0.0042         -0.0042          0.0000
       2707.0000       -999.2500          0.0000          0.0000          0.0000         -0.0290         -0.0290          0.0000
       2708.0000       -999.2500          0.0000          0.0000          0.0000          0.0023          0.0023          0.0000
