~VERSION INFORMATION
VERS.                                   2:CWLS LOG ASCII STANDARD - VERSION 2.0
WRAP.                                  NO:ONE LINE PER DEPTH STEP
~WELL INFORMATION
#MNEM.UNIT              DATA              DESCRIPTION
#--------- ------------------------------ -------------------------------
 STRT.MS                           0.0000:START TIME
 STOP.MS                        4000.0000:STOP TIME
 STEP.MS                           1.0000:STEP
 NULL.                          -999.2500:NULL VALUE
 COMP.     STATOILHYDRO                  :COMPANY
 WELL.     15/9-F-15A                    :WELL
 FLD .     VOLVE                         :FIELD
 LOC .                                   :LOCATION
 PROV.     NORWAY                        :PROVINCE
 SRVC.     READ WELL SERVICES            :SERVICE COMPANY
 DATE.     17/02 2008                    :LOG DATE
 UWI .                                   :UNIQUE WELL ID
~CURVE INFORMATION
#MNEM.UNIT                                DESCRIPTION
#--------- ------------------------------ -------------------------------
TIME      .MS                            : TWO-WAY TRAVEL TIME FROM MSL, DERIVED FROM CALIBRATED SONIC
DT-EDIT   .US/F                          : UNCALIBRATED SONIC LOG (INPUT TO SYNTHETIC SEISMOGRAMS)
RHOB      .G/CC                          : DENSITY LOG
AC-IMP    .MSGC                          : ACOUSTIC IMPEDANCE LOG (M/S*G/CC)
RC        .                              : REFLECTION COEFFICIENT SERIES
RC-M      .                              : REFLECTION COEFFICIENT SERIES - MULTIPLES ONLY
RC-PM     .                              : REFLECTION COEFFICIENT SERIES - PRIMARIES & MULTIPLES
TMISS     .                              : TWO-WAY TRANSMISSION LOSS
# LOG CURVES
~A  TIME           DT-EDIT       RHOB-CKS     AC-IMP        RC            RC-M          RC-PM         TMISS
# ...
       3150.0000       -999.2500          0.0000          0.0000          0.0000          0.0000          0.0000          0.0000
       3151.0000       -999.2500          0.0000          0.0000          0.0000          0.0000          0.0000          0.0000
       3152.0000       -999.2500          0.0000          0.0000          0.0000          0.0000          0.0000          0.0000
       3153.0000       -999.2500          0.0000          0.0000          0.0000          0.0000          0.0000          0.0000
       3154.0000       -999.2500          0.0000          0.0000          0.0000          0.0000          0.0000          0.0000
       3155.0000       -999.2500          0.0000          0.0000          0.0000          0.0000          0.0000          0.0000
       3156.0000       -999.2500          0.0000          0.0000          0.0000          0.0000          0.0000          0.0000
       3157.0000       -999.2500          0.0000          0.0000          0.0000          0.0000          0.0000          0.0000
       3158.0000       -999.2500          0.0000          0.0000          0.0000          0.0000          0.0000          0.0000
       3159.0000       -999.2500          0.0000          0.0000          0.0000          0.0000          0.0000          0.0000
       3160.0000       -999.2500          0.0000          0.0000          0.0000          0.0000          0.0000          0.0000
       3161.0000       -999.2500          0.0000          0.0000          0.0000          0.0000          0.0000          0.0000
       3162.0000       -999.2500          0.0000          0.0000          0.0000          0.0000          0.0000          0.0000
       3163.0000       -999.2500          0.0000          0.0000          0.0000          0.0000          0.0000          0.0000
       3164.0000       -999.2500          0.0000          0.0000          0.0000          0.0000          0.0000          0.0000
       3165.0000       -999.2500          0.0000          0.0000          0.0000          0.0000          0.0000          0.0000
       3166.0000       -999.2500          0.0000          0.0000          0.0000          0.0000          0.0000          0.0000
       3167.0000       -999.2500          0.0000          0.0000          0.0000          0.0000          0.0000          0.0000
       3168.0000       -999.2500          0.0000          0.0000          0.0000          0.0000          0.0000          0.0000
       3169.0000       -999.2500          0.0000          0.0000          0.0000          0.0000          0.0000          0.0000
       3170.0000       -999.2500          0.0000          0.0000          0.0000          0.0000          0.0000          0.0000
       3171.0000       -999.2500          0.0000          0.0000          0.0000          0.0000          0.0000          0.0000
       3172.0000       -999.2500          0.0000          0.0000          0.0000          0.0000          0.0000          0.0000
       3173.0000       -999.2500          0.0000          0.0000          0.0000          0.0000          0.0000          0.0000
       3174.0000       -999.2500          0.0000          0.0000          0.0000          0.0000          0.0000          0.0000
       3175.0000       -999.2500          0.0000          0.0000          0.0000          0.0000          0.0000          0.0000
       3176.0000       -999.2500          0.0000          0.0000          0.0000          0.0000          0.0000          0.0000
       3177.0000       -999.2500          0.0000          0.0000          0.0000          0.0000          0.0000          0.0000
       3178.0000       -999.2500          0.0000          0.0000          0.0000          0.0000          0.0000          0.0000
       3179.0000       -999.2500          0.0000          0.0000          0.0000          0.0000          0.0000          0.0000
       3180.0000       -999.2500          0.0000          0.0000          0.0000          0.0000          0.0000          0.0000
       3181.0000       -999.2500          0.0000          0.0000          0.0000          0.0000          0.0000          0.0000
       3182.0000       -999.2500          0.0000          0.0000          0.0000          0.0000          0.0000          0.0000
       3183.0000       -999.2500          0.0000          0.0000          0.0000          0.0000          0.0000          0.0000
       3184.0000       -999.2500          0.0000          0.0000          0.0000          0.0000          0.0000          0.0000
       3185.0000       -999.2500          0.0000          0.0000          0.0000          0.0000          0.0000          0.0000
       3186.0000       -999.2500          0.0000          0.0000          0.0000          0.0000          0.0000          0.0000
       3187.0000       -999.2500          0.0000          0.0000          0.0000          0.0000          0.0000          0.0000
       3188.0000       -999.2500          0.0000          0.0000          0.0000          0.0000          0.0000          0.0000
       3189.0000       -999.2500          0.0000          0.0000          0.0000          0.0000          0.0000          0.0000
       3190.0000       -999.2500          0.0000          0.0000          0.0000          0.0000          0.0000          0.0000
       3191.0000       -999.2500          0.0000          0.0000          0.0000          0.0000          0.0000          0.0000
       3192.0000       -999.2500          0.0000          0.0000          0.0000          0.0000          0.0000          0.0000
       3193.0000       -999.2500          0.0000          0.0000          0.0000          0.0000          0.0000          0.0000
       3194.0000       -999.2500          0.0000          0.0000          0.0000          0.0000          0.0000          0.0000
       3195.0000       -999.2500          0.0000          0.0000          0.0000          0.0000          0.0000          0.0000
       3196.0000       -999.2500          0.0000          0.0000          0.0000          0.0000          0.0000          0.0000
       3197.0000       -999.2500          0.0000          0.0000          0.0000          0.0000          0.0000          0.0000
       3198.0000       -999.2500          0.0000          0.0000          0.0000          0.0000          0.0000          0.0000
       3199.0000       -999.2500          0.0000          0.0000          0.0000          0.0000          0.0000          0.0000
       3200.0000       -999.2500          0.0000          0.0000          0.0000          0.0000          0.0000          0.0000
       3201.0000       -999.2500          0.0000          0.0000          0.0000          0.0000          0.0000          0.0000
       3202.0000       -999.2500          0.0000          0.0000          0.0000          0.0000          0.0000          0.0000
       3203.0000       -999.2500          0.0000          0.0000          0.0000          0.0000          0.0000          0.0000
       3204.0000       -999.2500          0.0000          0.0000          0.0000          0.0000          0.0000          0.0000
       3205.0000       -999.2500          0.0000          0.0000          0.0000          0.0000          0.0000          0.0000
       3206.0000       -999.2500          0.0000          0.0000          0.0000          0.0000          0.0000          0.0000
       3207.0000       -999.2500          0.0000          0.0000          0.0000          0.0000          0.0000          0.0000
       3208.0000       -999.2500          0.0000          0.0000          0.0000          0.0000          0.0000          0.0000
       3209.0000       -999.2500          0.0000          0.0000          0.0000          0.0000          0.0000          0.0000
       3210.0000       -999.2500          0.0000          0.0000          0.0000          0.0000          0.0000          0.0000
       3211.0000       -999.2500          0.0000          0.0000          0.0000          0.0000          0.0000          0.0000
       3212.0000       -999.2500          0.0000          0.0000          0.0000          0.0000          0.0000          0.0000
