~VERSION INFORMATION
VERS.                                   2:CWLS LOG ASCII STANDARD - VERSION 2.0
WRAP.                                  NO:ONE LINE PER DEPTH STEP
~WELL INFORMATION
#MNEM.UNIT              DATA              DESCRIPTION
#--------- ------------------------------ -------------------------------
 STRT.MS                           0.0000:START TIME
 STOP.MS                        4000.0000:STOP TIME
 STEP.MS                           1.0000:STEP
 NULL.                          -999.2500:NULL VALUE
 COMP.     STATOILHYDRO                  :COMPANY
 WELL.     15/9-F-15A                    :WELL
 FLD .     VOLVE                         :FIELD
 LOC .                                   :LOCATION
 PROV.     NORWAY                        :PROVINCE
 SRVC.     READ WELL SERVICES            :SERVICE COMPANY
 DATE.     17/02 2008                    :LOG DATE
 UWI .                                   :UNIQUE WELL ID
~CURVE INFORMATION
#MNEM.UNIT                                DESCRIPTION
#--------- ------------------------------ -------------------------------
TIME      .MS                            : TWO-WAY TRAVEL TIME FROM MSL, DERIVED FROM CALIBRATED SONIC
DT-EDIT   .US/F                          : UNCALIBRATED SONIC LOG (INPUT TO SYNTHETIC SEISMOGRAMS)
RHOB      .G/CC                          : DENSITY LOG
AC-IMP    .MSGC                          : ACOUSTIC IMPEDANCE LOG (M/S*G/CC)
RC        .                              : REFLECTION COEFFICIENT SERIES
RC-M      .                              : REFLECTION COEFFICIENT SERIES - MULTIPLES ONLY
RC-PM     .                              : REFLECTION COEFFICIENT SERIES - PRIMARIES & MULTIPLES
TMISS     .                              : TWO-WAY TRANSMISSION LOSS
# LOG CURVES
~A  TIME           DT-EDIT       RHOB-CKS     AC-IMP        RC            RC-M          RC-PM         TMISS
# ...
       1323.0000       -999.2500          1.8000       3800.8903          0.0000          0.0000          0.0000         -1.2352
       1324.0000       -999.2500          1.8000       3800.8905          0.0000          0.0000          0.0000         -1.2352
       1325.0000       -999.2500          1.8000       3800.8903          0.0000          0.0000          0.0000         -1.2352
       1326.0000       -999.2500          1.8000       3800.8903          0.0000          0.0000          0.0000         -1.2352
       1327.0000       -999.2500          1.8000       3800.8903          0.0000          0.0000          0.0000         -1.2352
       1328.0000       -999.2500          1.8000       3800.8905          0.0000          0.0000          0.0000         -1.2352
       1329.0000       -999.2500          1.8000       3800.8903          0.0000          0.0000          0.0000         -1.2352
       1330.0000       -999.2500          1.8000       3800.8903          0.0000          0.0000          0.0000         -1.2352
       1331.0000       -999.2500          1.8000       3800.8905          0.0000          0.0000          0.0000         -1.2352
       1332.0000       -999.2500          1.8000       3800.8903          0.0000          0.0000          0.0000         -1.2352
       1333.0000       -999.2500          1.8000       3800.8903          0.0000          0.0000          0.0000         -1.2352
       1334.0000       -999.2500          1.8000       3800.8905          0.0000          0.0000          0.0000         -1.2352
       1335.0000       -999.2500          1.8000       3800.8903          0.0000          0.0000          0.0000         -1.2352
       1336.0000       -999.2500          1.8000       3800.8905          0.0000          0.0000          0.0000         -1.2352
       1337.0000       -999.2500          1.8000       3800.8903          0.0000          0.0000          0.0000         -1.2352
       1338.0000       -999.2500          1.8000       3800.8905          0.0000          0.0000          0.0000         -1.2352
       1339.0000       -999.2500          1.8000       3800.8903          0.0000          0.0000          0.0000         -1.2352
       1340.0000       -999.2500          1.8000       3800.8905          0.0000          0.0000          0.0000         -1.2352
       1341.0000       -999.2500          1.8000       3800.8905          0.0000          0.0000          0.0000         -1.2352
       1342.0000       -999.2500          1.8000       3800.8903          0.0000          0.0000          0.0000         -1.2352
       1343.0000       -999.2500          1.8000       3800.8905          0.0000          0.0000          0.0000         -1.2352
       1344.0000       -999.2500          1.8000       3800.8905          0.0000          0.0000          0.0000         -1.2352
       1345.0000       -999.2500          1.8000       3800.8903          0.0000          0.0000          0.0000         -1.2352
       1346.0000       -999.2500          1.8000       3800.8903          0.0000          0.0000          0.0000         -1.2352
       1347.0000       -999.2500          1.8000       3800.8905          0.0000          0.0000          0.0000         -1.2352
       1348.0000       -999.2500          1.8000       3800.8903          0.0000          0.0000          0.0000         -1.2352
       1349.0000       -999.2500          1.8000       3800.8905          0.0000          0.0000          0.0000         -1.2352
       1350.0000       -999.2500          1.8000       3800.8905          0.0000          0.0000          0.0000         -1.2352
       1351.0000       -999.2500          1.8000       3800.8907          0.0000          0.0000          0.0000         -1.2352
       1352.0000       -999.2500          1.8000       3800.8903          0.0000          0.0000          0.0000         -1.2352
       1353.0000       -999.2500          1.8000       3800.8903          0.0000          0.0000          0.0000         -1.2352
       1354.0000       -999.2500          1.8000       3800.8903          0.0000          0.0000          0.0000         -1.2352
       1355.0000       -999.2500          1.8000       3800.8905          0.0000          0.0000          0.0000         -1.2352
       1356.0000       -999.2500          1.8000       3800.8903          0.0000          0.0000          0.0000         -1.2352
       1357.0000       -999.2500          1.8000       3800.8905          0.0000          0.0000          0.0000         -1.2352
       1358.0000       -999.2500          1.8000       3800.8903          0.0000          0.0000          0.0000         -1.2352
       1359.0000       -999.2500          1.8000       3800.8905          0.0000          0.0000          0.0000         -1.2352
       1360.0000       -999.2500          1.8000       3800.8903          0.0000          0.0000          0.0000         -1.2352
       1361.0000       -999.2500          1.8000       3800.8905          0.0000          0.0000          0.0000         -1.2352
       1362.0000       -999.2500          1.8000       3800.8905          0.0000          0.0000          0.0000         -1.2352
       1363.0000       -999.2500          1.8000       3800.8903          0.0000          0.0000          0.0000         -1.2352
       1364.0000       -999.2500          1.8000       3800.8905          0.0000          0.0000          0.0000         -1.2352
       1365.0000       -999.2500          1.8000       3800.8905          0.0000          0.0000          0.0000         -1.2352
       1366.0000       -999.2500          1.8000       3800.8903          0.0000          0.0000          0.0000         -1.2352
       1367.0000       -999.2500          1.8000       3800.8905          0.0000          0.0000          0.0000         -1.2352
       1368.0000       -999.2500          1.8000       3800.8903          0.0000          0.0000          0.0000         -1.2352
       1369.0000       -999.2500          1.8000       3800.8903          0.0000          0.0000          0.0000         -1.2352
       1370.0000       -999.2500          1.8000       3800.8903          0.0000          0.0000          0.0000         -1.2352
       1371.0000       -999.2500          1.8000       3800.8903          0.0000          0.0000          0.0000         -1.2352
       1372.0000       -999.2500          1.8000       3800.8903          0.0000          0.0000          0.0000         -1.2352
       1373.0000       -999.2500          1.8000       3800.8905          0.0000          0.0000          0.0000         -1.2352
       1374.0000       -999.2500          1.8000       3800.8900          0.0000          0.0000          0.0000         -1.2352
       1375.0000       -999.2500          1.8000       3800.8905          0.0000          0.0000          0.0000         -1.2352
       1376.0000       -999.2500          1.8000       3800.8903          0.0000          0.0000          0.0000         -1.2352
       1377.0000       -999.2500          1.8000       3800.8903          0.0000          0.0000          0.0000         -1.2352
       1378.0000       -999.2500          1.8000       3800.8905          0.0000          0.0000          0.0000         -1.2352
       1379.0000       -999.2500          1.8000       3800.8905          0.0000          0.0000          0.0000         -1.2352
       1380.0000       -999.2500          1.8000       3800.8905          0.0000          0.0000          0.0000         -1.2352
       1381.0000       -999.2500          1.8000       3800.8905          0.0000          0.0000          0.0000         -1.2352
       1382.0000       -999.2500          1.8000       3800.8903          0.0000          0.0000          0.0000         -1.2352
       1383.0000       -999.2500          1.8000       3800.8903          0.0000          0.0000          0.0000         -1.2352
       1384.0000       -999.2500          1.8000       3800.8903          0.0000          0.0000          0.0000         -1.2352
       1385.0000       -999.2500          1.8000       3800.8905          0.0000          0.0000          0.0000         -1.2352
