~VERSION INFORMATION
VERS.                                   2:CWLS LOG ASCII STANDARD - VERSION 2.0
WRAP.                                  NO:ONE LINE PER DEPTH STEP
~WELL INFORMATION
#MNEM.UNIT              DATA              DESCRIPTION
#--------- ------------------------------ -------------------------------
 STRT.MS                           0.0000:START TIME
 STOP.MS                        4000.0000:STOP TIME
 STEP.MS                           1.0000:STEP
 NULL.                          -999.2500:NULL VALUE
 COMP.     STATOILHYDRO                  :COMPANY
 WELL.     15/9-F-15A                    :WELL
 FLD .     VOLVE                         :FIELD
 LOC .                                   :LOCATION
 PROV.     NORWAY                        :PROVINCE
 SRVC.     READ WELL SERVICES            :SERVICE COMPANY
 DATE.     17/02 2008                    :LOG DATE
 UWI .                                   :UNIQUE WELL ID
~CURVE INFORMATION
#MNEM.UNIT                                DESCRIPTION
#--------- ------------------------------ -------------------------------
TIME      .MS                            : TWO-WAY TRAVEL TIME FROM MSL, DERIVED FROM CALIBRATED SONIC
DT-EDIT   .US/F                          : UNCALIBRATED SONIC LOG (INPUT TO SYNTHETIC SEISMOGRAMS)
RHOB      .G/CC                          : DENSITY LOG
AC-IMP    .MSGC                          : ACOUSTIC IMPEDANCE LOG (M/S*G/CC)
RC        .                              : REFLECTION COEFFICIENT SERIES
RC-M      .                              : REFLECTION COEFFICIENT SERIES - MULTIPLES ONLY
RC-PM     .                              : REFLECTION COEFFICIENT SERIES - PRIMARIES & MULTIPLES
TMISS     .                              : TWO-WAY TRANSMISSION LOSS
# LOG CURVES
~A  TIME           DT-EDIT       RHOB-CKS     AC-IMP        RC            RC-M          RC-PM         TMISS
# ...
       3465.0000       -999.2500          0.0000          0.0000          0.0000          0.0000          0.0000          0.0000
       3466.0000       -999.2500          0.0000          0.0000          0.0000          0.0000          0.0000          0.0000
       3467.0000       -999.2500          0.0000          0.0000          0.0000          0.0000          0.0000          0.0000
       3468.0000       -999.2500          0.0000          0.0000          0.0000          0.0000          0.0000          0.0000
       3469.0000       -999.2500          0.0000          0.0000          0.0000          0.0000          0.0000          0.0000
       3470.0000       -999.2500          0.0000          0.0000          0.0000          0.0000          0.0000          0.0000
       3471.0000       -999.2500          0.0000          0.0000          0.0000          0.0000          0.0000          0.0000
       3472.0000       -999.2500          0.0000          0.0000          0.0000          0.0000          0.0000          0.0000
       3473.0000       -999.2500          0.0000          0.0000          0.0000          0.0000          0.0000          0.0000
       3474.0000       -999.2500          0.0000          0.0000          0.0000          0.0000          0.0000          0.0000
       3475.0000       -999.2500          0.0000          0.0000          0.0000          0.0000          0.0000          0.0000
       3476.0000       -999.2500          0.0000          0.0000          0.0000          0.0000          0.0000          0.0000
       3477.0000       -999.2500          0.0000          0.0000          0.0000          0.0000          0.0000          0.0000
       3478.0000       -999.2500          0.0000          0.0000          0.0000          0.0000          0.0000          0.0000
       3479.0000       -999.2500          0.0000          0.0000          0.0000          0.0000          0.0000          0.0000
       3480.0000       -999.2500          0.0000          0.0000          0.0000          0.0000          0.0000          0.0000
       3481.0000       -999.2500          0.0000          0.0000          0.0000          0.0000          0.0000          0.0000
       3482.0000       -999.2500          0.0000          0.0000          0.0000          0.0000          0.0000          0.0000
       3483.0000       -999.2500          0.0000          0.0000          0.0000          0.0000          0.0000          0.0000
       3484.0000       -999.2500          0.0000          0.0000          0.0000          0.0000          0.0000          0.0000
       3485.0000       -999.2500          0.0000          0.0000          0.0000          0.0000          0.0000          0.0000
       3486.0000       -999.2500          0.0000          0.0000          0.0000          0.0000          0.0000          0.0000
       3487.0000       -999.2500          0.0000          0.0000          0.0000          0.0000          0.0000          0.0000
       3488.0000       -999.2500          0.0000          0.0000          0.0000          0.0000          0.0000          0.0000
       3489.0000       -999.2500          0.0000          0.0000          0.0000          0.0000          0.0000          0.0000
       3490.0000       -999.2500          0.0000          0.0000          0.0000          0.0000          0.0000          0.0000
       3491.0000       -999.2500          0.0000          0.0000          0.0000          0.0000          0.0000          0.0000
       3492.0000       -999.2500          0.0000          0.0000          0.0000          0.0000          0.0000          0.0000
       3493.0000       -999.2500          0.0000          0.0000          0.0000          0.0000          0.0000          0.0000
       3494.0000       -999.2500          0.0000          0.0000          0.0000          0.0000          0.0000          0.0000
       3495.0000       -999.2500          0.0000          0.0000          0.0000          0.0000          0.0000          0.0000
       3496.0000       -999.2500          0.0000          0.0000          0.0000          0.0000          0.0000          0.0000
       3497.0000       -999.2500          0.0000          0.0000          0.0000          0.0000          0.0000          0.0000
       3498.0000       -999.2500          0.0000          0.0000          0.0000          0.0000          0.0000          0.0000
       3499.0000       -999.2500          0.0000          0.0000          0.0000          0.0000          0.0000          0.0000
       3500.0000       -999.2500          0.0000          0.0000          0.0000          0.0000          0.0000          0.0000
       3501.0000       -999.2500          0.0000          0.0000          0.0000          0.0000          0.0000          0.0000
       3502.0000       -999.2500          0.0000          0.0000          0.0000          0.0000          0.0000          0.0000
       3503.0000       -999.2500          0.0000          0.0000          0.0000          0.0000          0.0000          0.0000
       3504.0000       -999.2500          0.0000          0.0000          0.0000          0.0000          0.0000          0.0000
       3505.0000       -999.2500          0.0000          0.0000          0.0000          0.0000          0.0000          0.0000
       3506.0000       -999.2500          0.0000          0.0000          0.0000          0.0000          0.0000          0.0000
       3507.0000       -999.2500          0.0000          0.0000          0.0000          0.0000          0.0000          0.0000
       3508.0000       -999.2500          0.0000          0.0000          0.0000          0.0000          0.0000          0.0000
       3509.0000       -999.2500          0.0000          0.0000          0.0000          0.0000          0.0000          0.0000
       3510.0000       -999.2500          0.0000          0.0000          0.0000          0.0000          0.0000          0.0000
       3511.0000       -999.2500          0.0000          0.0000          0.0000          0.0000          0.0000          0.0000
       3512.0000       -999.2500          0.0000          0.0000          0.0000          0.0000          0.0000          0.0000
       3513.0000       -999.2500          0.0000          0.0000          0.0000          0.0000          0.0000          0.0000
       3514.0000       -999.2500          0.0000          0.0000          0.0000          0.0000          0.0000          0.0000
       3515.0000       -999.2500          0.0000          0.0000          0.0000          0.0000          0.0000          0.0000
       3516.0000       -999.2500          0.0000          0.0000          0.0000          0.0000          0.0000          0.0000
       3517.0000       -999.2500          0.0000          0.0000          0.0000          0.0000          0.0000          0.0000
       3518.0000       -999.2500          0.0000          0.0000          0.0000          0.0000          0.0000          0.0000
       3519.0000       -999.2500          0.0000          0.0000          0.0000          0.0000          0.0000          0.0000
       3520.0000       -999.2500          0.0000          0.0000          0.0000          0.0000          0.0000          0.0000
       3521.0000       -999.2500          0.0000          0.0000          0.0000          0.0000          0.0000          0.0000
       3522.0000       -999.2500          0.0000          0.0000          0.0000          0.0000          0.0000          0.0000
       3523.0000       -999.2500          0.0000          0.0000          0.0000          0.0000          0.0000          0.0000
       3524.0000       -999.2500          0.0000          0.0000          0.0000          0.0000          0.0000          0.0000
       3525.0000       -999.2500          0.0000          0.0000          0.0000          0.0000          0.0000          0.0000
       3526.0000       -999.2500          0.0000          0.0000          0.0000          0.0000          0.0000          0.0000
       3527.0000       -999.2500          0.0000          0.0000          0.0000          0.0000          0.0000          0.0000
