~VERSION INFORMATION
VERS.                                   2:CWLS LOG ASCII STANDARD - VERSION 2.0
WRAP.                                  NO:ONE LINE PER DEPTH STEP
~WELL INFORMATION
#MNEM.UNIT              DATA              DESCRIPTION
#--------- ------------------------------ -------------------------------
 STRT.MS                           0.0000:START TIME
 STOP.MS                        4000.0000:STOP TIME
 STEP.MS                           1.0000:STEP
 NULL.                          -999.2500:NULL VALUE
 COMP.     STATOILHYDRO                  :COMPANY
 WELL.     15/9-F-15A                    :WELL
 FLD .     VOLVE                         :FIELD
 LOC .                                   :LOCATION
 PROV.     NORWAY                        :PROVINCE
 SRVC.     READ WELL SERVICES            :SERVICE COMPANY
 DATE.     17/02 2008                    :LOG DATE
 UWI .                                   :UNIQUE WELL ID
~CURVE INFORMATION
#MNEM.UNIT                                DESCRIPTION
#--------- ------------------------------ -------------------------------
TIME      .MS                            : TWO-WAY TRAVEL TIME FROM MSL, DERIVED FROM CALIBRATED SONIC
DT-EDIT   .US/F                          : UNCALIBRATED SONIC LOG (INPUT TO SYNTHETIC SEISMOGRAMS)
RHOB      .G/CC                          : DENSITY LOG
AC-IMP    .MSGC                          : ACOUSTIC IMPEDANCE LOG (M/S*G/CC)
RC        .                              : REFLECTION COEFFICIENT SERIES
RC-M      .                              : REFLECTION COEFFICIENT SERIES - MULTIPLES ONLY
RC-PM     .                              : REFLECTION COEFFICIENT SERIES - PRIMARIES & MULTIPLES
TMISS     .                              : TWO-WAY TRANSMISSION LOSS
# LOG CURVES
~A  TIME           DT-EDIT       RHOB-CKS     AC-IMP        RC            RC-M          RC-PM         TMISS
# ...
       1827.0000       -999.2500          1.8000       3800.8903          0.0000          0.0000          0.0000         -1.2352
       1828.0000       -999.2500          1.8000       3800.8905          0.0000          0.0000          0.0000         -1.2352
       1829.0000       -999.2500          1.8000       3800.8903          0.0000          0.0000          0.0000         -1.2352
       1830.0000       -999.2500          1.8000       3800.8905          0.0000          0.0000          0.0000         -1.2352
       1831.0000       -999.2500          1.8000       3800.8905          0.0000          0.0000          0.0000         -1.2352
       1832.0000       -999.2500          1.8000       3800.8903          0.0000          0.0000          0.0000         -1.2352
       1833.0000       -999.2500          1.8000       3800.8905          0.0000          0.0000          0.0000         -1.2352
       1834.0000       -999.2500          1.8000       3800.8903          0.0000          0.0000          0.0000         -1.2352
       1835.0000       -999.2500          1.8000       3800.8903          0.0000          0.0000          0.0000         -1.2352
       1836.0000       -999.2500          1.8000       3800.8903          0.0000          0.0000          0.0000         -1.2352
       1837.0000       -999.2500          1.8000       3800.8903          0.0000          0.0000          0.0000         -1.2352
       1838.0000       -999.2500          1.8000       3800.8905          0.0000          0.0000          0.0000         -1.2352
       1839.0000       -999.2500          1.8000       3800.8903          0.0000          0.0000          0.0000         -1.2352
       1840.0000       -999.2500          1.8000       3800.8903          0.0000          0.0000          0.0000         -1.2352
       1841.0000       -999.2500          1.8000       3800.8903          0.0000          0.0000          0.0000         -1.2352
       1842.0000       -999.2500          1.8000       3800.8903          0.0000          0.0000          0.0000         -1.2352
       1843.0000       -999.2500          1.8000       3800.8905          0.0000          0.0000          0.0000         -1.2352
       1844.0000       -999.2500          1.8000       3800.8903          0.0000          0.0000          0.0000         -1.2352
       1845.0000       -999.2500          1.8000       3800.8905          0.0000          0.0000          0.0000         -1.2352
       1846.0000       -999.2500          1.8000       3800.8903          0.0000          0.0000          0.0000         -1.2352
       1847.0000       -999.2500          1.8000       3800.8903          0.0000          0.0000          0.0000         -1.2352
       1848.0000       -999.2500          1.8000       3800.8907          0.0000          0.0000          0.0000         -1.2352
       1849.0000       -999.2500          1.8000       3800.8905          0.0000          0.0000          0.0000         -1.2352
       1850.0000       -999.2500          1.8000       3800.8903          0.0000          0.0000          0.0000         -1.2352
       1851.0000       -999.2500          1.8000       3800.8903          0.0000          0.0000          0.0000         -1.2352
       1852.0000       -999.2500          1.8000       3800.8903          0.0000          0.0000          0.0000         -1.2352
       1853.0000       -999.2500          1.8000       3800.8905          0.0000          0.0000          0.0000         -1.2352
       1854.0000       -999.2500          1.8000       3800.8905          0.0000          0.0000          0.0000         -1.2352
       1855.0000       -999.2500          1.8000       3800.8903          0.0000          0.0000          0.0000         -1.2352
       1856.0000       -999.2500          1.8000       3800.8903          0.0000          0.0000          0.0000         -1.2352
       1857.0000       -999.2500          1.8000       3800.8903          0.0000          0.0000          0.0000         -1.2352
       1858.0000       -999.2500          1.8000       3800.8905          0.0000          0.0000          0.0000         -1.2352
       1859.0000       -999.2500          1.8000       3800.8903          0.0000          0.0000          0.0000         -1.2352
       1860.0000       -999.2500          1.8000       3800.8903          0.0000          0.0000          0.0000         -1.2352
       1861.0000       -999.2500          1.8000       3800.8903          0.0000          0.0000          0.0000         -1.2352
       1862.0000       -999.2500          1.8000       3800.8905          0.0000          0.0000          0.0000         -1.2352
       1863.0000       -999.2500          1.8000       3800.8903          0.0000          0.0000          0.0000         -1.2352
       1864.0000       -999.2500          1.8000       3800.8903          0.0000          0.0000          0.0000         -1.2352
       1865.0000       -999.2500          1.8000       3800.8903          0.0000          0.0000          0.0000         -1.2352
       1866.0000       -999.2500          1.8000       3800.8905          0.0000          0.0000          0.0000         -1.2352
       1867.0000       -999.2500          1.8000       3800.8903          0.0000          0.0000          0.0000         -1.2352
       1868.0000       -999.2500          1.8000       3800.8905          0.0000          0.0000          0.0000         -1.2352
       1869.0000       -999.2500          1.8000       3800.8905          0.0000          0.0000          0.0000         -1.2352
       1870.0000       -999.2500          1.8000       3800.8903          0.0000          0.0000          0.0000         -1.2352
       1871.0000       -999.2500          1.8000       3800.8907          0.0000          0.0000          0.0000         -1.2352
       1872.0000       -999.2500          1.8000       3800.8903          0.0000          0.0000          0.0000         -1.2352
       1873.0000       -999.2500          1.8000       3800.8903          0.0000          0.0000          0.0000         -1.2352
       1874.0000       -999.2500          1.8000       3800.8905          0.0000          0.0000          0.0000         -1.2352
       1875.0000       -999.2500          1.8000       3800.8903          0.0000          0.0000          0.0000         -1.2352
       1876.0000       -999.2500          1.8000       3800.8905          0.0000          0.0000          0.0000         -1.2352
       1877.0000       -999.2500          1.8000       3800.8905          0.0000          0.0000          0.0000         -1.2352
       1878.0000       -999.2500          1.8000       3800.8905          0.0000          0.0000          0.0000         -1.2352
       1879.0000       -999.2500          1.8000       3800.8903          0.0000          0.0000          0.0000         -1.2352
       1880.0000       -999.2500          1.8000       3800.8905          0.0000          0.0000          0.0000         -1.2352
       1881.0000       -999.2500          1.8000       3800.8905          0.0000          0.0000          0.0000         -1.2352
       1882.0000       -999.2500          1.8000       3800.8905          0.0000          0.0000          0.0000         -1.2352
       1883.0000       -999.2500          1.8000       3800.8903          0.0000          0.0000          0.0000         -1.2352
       1884.0000       -999.2500          1.8000       3800.8903          0.0000          0.0000          0.0000         -1.2352
       1885.0000       -999.2500          1.8000       3800.8905          0.0000          0.0000          0.0000         -1.2352
       1886.0000       -999.2500          1.8000       3800.8905          0.0000          0.0000          0.0000         -1.2352
       1887.0000       -999.2500          1.8000       3800.8903          0.0000          0.0000          0.0000         -1.2352
       1888.0000       -999.2500          1.8000       3800.8903          0.0000          0.0000          0.0000         -1.2352
       1889.0000       -999.2500          1.8000       3800.8905          0.0000          0.0000          0.0000         -1.2352
