~VERSION INFORMATION
VERS.                                   2:CWLS LOG ASCII STANDARD - VERSION 2.0
WRAP.                                  NO:ONE LINE PER DEPTH STEP
~WELL INFORMATION
#MNEM.UNIT              DATA              DESCRIPTION
#--------- ------------------------------ -------------------------------
 STRT.MS                           0.0000:START TIME
 STOP.MS                        4000.0000:STOP TIME
 STEP.MS                           1.0000:STEP
 NULL.                          -999.2500:NULL VALUE
 COMP.     STATOILHYDRO                  :COMPANY
 WELL.     15/9-F-15A                    :WELL
 FLD .     VOLVE                         :FIELD
 LOC .                                   :LOCATION
 PROV.     NORWAY                        :PROVINCE
 SRVC.     READ WELL SERVICES            :SERVICE COMPANY
 DATE.     17/02 2008                    :LOG DATE
 UWI .                                   :UNIQUE WELL ID
~CURVE INFORMATION
#MNEM.UNIT                                DESCRIPTION
#--------- ------------------------------ -------------------------------
TIME      .MS                            : TWO-WAY TRAVEL TIME FROM MSL, DERIVED FROM CALIBRATED SONIC
DT-EDIT   .US/F                          : UNCALIBRATED SONIC LOG (INPUT TO SYNTHETIC SEISMOGRAMS)
RHOB      .G/CC                          : DENSITY LOG
AC-IMP    .MSGC                          : ACOUSTIC IMPEDANCE LOG (M/S*G/CC)
RC        .                              : REFLECTION COEFFICIENT SERIES
RC-M      .                              : REFLECTION COEFFICIENT SERIES - MULTIPLES ONLY
RC-PM     .                              : REFLECTION COEFFICIENT SERIES - PRIMARIES & MULTIPLES
TMISS     .                              : TWO-WAY TRANSMISSION LOSS
# LOG CURVES
~A  TIME           DT-EDIT       RHOB-CKS     AC-IMP        RC            RC-M          RC-PM         TMISS
# ...
       2898.0000       -999.2500          0.0000          0.0000          0.0000          0.0076          0.0076          0.0000
       2899.0000       -999.2500          0.0000          0.0000          0.0000         -0.0109         -0.0109          0.0000
       2900.0000       -999.2500          0.0000          0.0000          0.0000          0.0107          0.0107          0.0000
       2901.0000       -999.2500          0.0000          0.0000          0.0000         -0.0068         -0.0068          0.0000
       2902.0000       -999.2500          0.0000          0.0000          0.0000         -0.0050         -0.0050          0.0000
       2903.0000       -999.2500          0.0000          0.0000          0.0000          0.0001          0.0001          0.0000
       2904.0000       -999.2500          0.0000          0.0000          0.0000          0.0206          0.0206          0.0000
       2905.0000       -999.2500          0.0000          0.0000          0.0000         -0.0119         -0.0119          0.0000
       2906.0000       -999.2500          0.0000          0.0000          0.0000         -0.0076         -0.0076          0.0000
       2907.0000       -999.2500          0.0000          0.0000          0.0000          0.0029          0.0029          0.0000
       2908.0000       -999.2500          0.0000          0.0000          0.0000         -0.0054         -0.0054          0.0000
       2909.0000       -999.2500          0.0000          0.0000          0.0000          0.0035          0.0035          0.0000
       2910.0000       -999.2500          0.0000          0.0000          0.0000         -0.0028         -0.0028          0.0000
       2911.0000       -999.2500          0.0000          0.0000          0.0000          0.0036          0.0036          0.0000
       2912.0000       -999.2500          0.0000          0.0000          0.0000          0.0136          0.0136          0.0000
       2913.0000       -999.2500          0.0000          0.0000          0.0000         -0.0128         -0.0128          0.0000
       2914.0000       -999.2500          0.0000          0.0000          0.0000          0.0025          0.0025          0.0000
       2915.0000       -999.2500          0.0000          0.0000          0.0000         -0.0033         -0.0033          0.0000
       2916.0000       -999.2500          0.0000          0.0000          0.0000         -0.0054         -0.0054          0.0000
       2917.0000       -999.2500          0.0000          0.0000          0.0000          0.0033          0.0033          0.0000
       2918.0000       -999.2500          0.0000          0.0000          0.0000         -0.0018         -0.0018          0.0000
       2919.0000       -999.2500          0.0000          0.0000          0.0000          0.0042          0.0042          0.0000
       2920.0000       -999.2500          0.0000          0.0000          0.0000         -0.0091         -0.0091          0.0000
       2921.0000       -999.2500          0.0000          0.0000          0.0000         -0.0001         -0.0001          0.0000
       2922.0000       -999.2500          0.0000          0.0000          0.0000          0.0019          0.0019          0.0000
       2923.0000       -999.2500          0.0000          0.0000          0.0000         -0.0018         -0.0018          0.0000
       2924.0000       -999.2500          0.0000          0.0000          0.0000         -0.0012         -0.0012          0.0000
       2925.0000       -999.2500          0.0000          0.0000          0.0000          0.0061          0.0061          0.0000
       2926.0000       -999.2500          0.0000          0.0000          0.0000         -0.0040         -0.0040          0.0000
       2927.0000       -999.2500          0.0000          0.0000          0.0000          0.0041          0.0041          0.0000
       2928.0000       -999.2500          0.0000          0.0000          0.0000          0.0005          0.0005          0.0000
       2929.0000       -999.2500          0.0000          0.0000          0.0000         -0.0034         -0.0034          0.0000
       2930.0000       -999.2500          0.0000          0.0000          0.0000          0.0176          0.0176          0.0000
       2931.0000       -999.2500          0.0000          0.0000          0.0000         -0.0124         -0.0124          0.0000
       2932.0000       -999.2500          0.0000          0.0000          0.0000          0.0018          0.0018          0.0000
       2933.0000       -999.2500          0.0000          0.0000          0.0000         -0.0031         -0.0031          0.0000
       2934.0000       -999.2500          0.0000          0.0000          0.0000         -0.0110         -0.0110          0.0000
       2935.0000       -999.2500          0.0000          0.0000          0.0000          0.0120          0.0120          0.0000
       2936.0000       -999.2500          0.0000          0.0000          0.0000         -0.0030         -0.0030          0.0000
       2937.0000       -999.2500          0.0000          0.0000          0.0000          0.0098          0.0098          0.0000
       2938.0000       -999.2500          0.0000          0.0000          0.0000         -0.0041         -0.0041          0.0000
       2939.0000       -999.2500          0.0000          0.0000          0.0000         -0.0034         -0.0034          0.0000
       2940.0000       -999.2500          0.0000          0.0000          0.0000          0.0089          0.0089          0.0000
       2941.0000       -999.2500          0.0000          0.0000          0.0000         -0.0050         -0.0050          0.0000
       2942.0000       -999.2500          0.0000          0.0000          0.0000         -0.0006         -0.0006          0.0000
       2943.0000       -999.2500          0.0000          0.0000          0.0000          0.0037          0.0037          0.0000
       2944.0000       -999.2500          0.0000          0.0000          0.0000         -0.0026         -0.0026          0.0000
       2945.0000       -999.2500          0.0000          0.0000          0.0000          0.0010          0.0010          0.0000
       2946.0000       -999.2500          0.0000          0.0000          0.0000         -0.0062         -0.0062          0.0000
       2947.0000       -999.2500          0.0000          0.0000          0.0000          0.0004          0.0004          0.0000
       2948.0000       -999.2500          0.0000          0.0000          0.0000          0.0031          0.0031          0.0000
       2949.0000       -999.2500          0.0000          0.0000          0.0000         -0.0045         -0.0045          0.0000
       2950.0000       -999.2500          0.0000          0.0000          0.0000         -0.0042         -0.0042          0.0000
       2951.0000       -999.2500          0.0000          0.0000          0.0000          0.0116          0.0116          0.0000
       2952.0000       -999.2500          0.0000          0.0000          0.0000         -0.0094         -0.0094          0.0000
       2953.0000       -999.2500          0.0000          0.0000          0.0000          0.0008          0.0008          0.0000
       2954.0000       -999.2500          0.0000          0.0000          0.0000          0.0005          0.0005          0.0000
       2955.0000       -999.2500          0.0000          0.0000          0.0000          0.0002          0.0002          0.0000
       2956.0000       -999.2500          0.0000          0.0000          0.0000          0.0101          0.0101          0.0000
       2957.0000       -999.2500          0.0000          0.0000          0.0000         -0.0081         -0.0081          0.0000
       2958.0000       -999.2500          0.0000          0.0000          0.0000          0.0042          0.0042          0.0000
       2959.0000       -999.2500          0.0000          0.0000          0.0000         -0.0041         -0.0041          0.0000
       2960.0000       -999.2500          0.0000          0.0000          0.0000         -0.0063         -0.0063          0.0000
