~VERSION INFORMATION
VERS.                                   2:CWLS LOG ASCII STANDARD - VERSION 2.0
WRAP.                                  NO:ONE LINE PER DEPTH STEP
~WELL INFORMATION
#MNEM.UNIT              DATA              DESCRIPTION
#--------- ------------------------------ -------------------------------
 STRT.MS                           0.0000:START TIME
 STOP.MS                        4000.0000:STOP TIME
 STEP.MS                           1.0000:STEP
 NULL.                          -999.2500:NULL VALUE
 COMP.     STATOILHYDRO                  :COMPANY
 WELL.     15/9-F-15A                    :WELL
 FLD .     VOLVE                         :FIELD
 LOC .                                   :LOCATION
 PROV.     NORWAY                        :PROVINCE
 SRVC.     READ WELL SERVICES            :SERVICE COMPANY
 DATE.     17/02 2008                    :LOG DATE
 UWI .                                   :UNIQUE WELL ID
~CURVE INFORMATION
#MNEM.UNIT                                DESCRIPTION
#--------- ------------------------------ -------------------------------
TIME      .MS                            : TWO-WAY TRAVEL TIME FROM MSL, DERIVED FROM CALIBRATED SONIC
DT-EDIT   .US/F                          : UNCALIBRATED SONIC LOG (INPUT TO SYNTHETIC SEISMOGRAMS)
RHOB      .G/CC                          : DENSITY LOG
AC-IMP    .MSGC                          : ACOUSTIC IMPEDANCE LOG (M/S*G/CC)
RC        .                              : REFLECTION COEFFICIENT SERIES
RC-M      .                              : REFLECTION COEFFICIENT SERIES - MULTIPLES ONLY
RC-PM     .                              : REFLECTION COEFFICIENT SERIES - PRIMARIES & MULTIPLES
TMISS     .                              : TWO-WAY TRANSMISSION LOSS
# LOG CURVES
~A  TIME           DT-EDIT       RHOB-CKS     AC-IMP        RC            RC-M          RC-PM         TMISS
# ...
       3717.0000       -999.2500          0.0000          0.0000          0.0000          0.0000          0.0000          0.0000
       3718.0000       -999.2500          0.0000          0.0000          0.0000          0.0000          0.0000          0.0000
       3719.0000       -999.2500          0.0000          0.0000          0.0000          0.0000          0.0000          0.0000
       3720.0000       -999.2500          0.0000          0.0000          0.0000          0.0000          0.0000          0.0000
       3721.0000       -999.2500          0.0000          0.0000          0.0000          0.0000          0.0000          0.0000
       3722.0000       -999.2500          0.0000          0.0000          0.0000          0.0000          0.0000          0.0000
       3723.0000       -999.2500          0.0000          0.0000          0.0000          0.0000          0.0000          0.0000
       3724.0000       -999.2500          0.0000          0.0000          0.0000          0.0000          0.0000          0.0000
       3725.0000       -999.2500          0.0000          0.0000          0.0000          0.0000          0.0000          0.0000
       3726.0000       -999.2500          0.0000          0.0000          0.0000          0.0000          0.0000          0.0000
       3727.0000       -999.2500          0.0000          0.0000          0.0000          0.0000          0.0000          0.0000
       3728.0000       -999.2500          0.0000          0.0000          0.0000          0.0000          0.0000          0.0000
       3729.0000       -999.2500          0.0000          0.0000          0.0000          0.0000          0.0000          0.0000
       3730.0000       -999.2500          0.0000          0.0000          0.0000          0.0000          0.0000          0.0000
       3731.0000       -999.2500          0.0000          0.0000          0.0000          0.0000          0.0000          0.0000
       3732.0000       -999.2500          0.0000          0.0000          0.0000          0.0000          0.0000          0.0000
       3733.0000       -999.2500          0.0000          0.0000          0.0000          0.0000          0.0000          0.0000
       3734.0000       -999.2500          0.0000          0.0000          0.0000          0.0000          0.0000          0.0000
       3735.0000       -999.2500          0.0000          0.0000          0.0000          0.0000          0.0000          0.0000
       3736.0000       -999.2500          0.0000          0.0000          0.0000          0.0000          0.0000          0.0000
       3737.0000       -999.2500          0.0000          0.0000          0.0000          0.0000          0.0000          0.0000
       3738.0000       -999.2500          0.0000          0.0000          0.0000          0.0000          0.0000          0.0000
       3739.0000       -999.2500          0.0000          0.0000          0.0000          0.0000          0.0000          0.0000
       3740.0000       -999.2500          0.0000          0.0000          0.0000          0.0000          0.0000          0.0000
       3741.0000       -999.2500          0.0000          0.0000          0.0000          0.0000          0.0000          0.0000
       3742.0000       -999.2500          0.0000          0.0000          0.0000          0.0000          0.0000          0.0000
       3743.0000       -999.2500          0.0000          0.0000          0.0000          0.0000          0.0000          0.0000
       3744.0000       -999.2500          0.0000          0.0000          0.0000          0.0000          0.0000          0.0000
       3745.0000       -999.2500          0.0000          0.0000          0.0000          0.0000          0.0000          0.0000
       3746.0000       -999.2500          0.0000          0.0000          0.0000          0.0000          0.0000          0.0000
       3747.0000       -999.2500          0.0000          0.0000          0.0000          0.0000          0.0000          0.0000
       3748.0000       -999.2500          0.0000          0.0000          0.0000          0.0000          0.0000          0.0000
       3749.0000       -999.2500          0.0000          0.0000          0.0000          0.0000          0.0000          0.0000
       3750.0000       -999.2500          0.0000          0.0000          0.0000          0.0000          0.0000          0.0000
       3751.0000       -999.2500          0.0000          0.0000          0.0000          0.0000          0.0000          0.0000
       3752.0000       -999.2500          0.0000          0.0000          0.0000          0.0000          0.0000          0.0000
       3753.0000       -999.2500          0.0000          0.0000          0.0000          0.0000          0.0000          0.0000
       3754.0000       -999.2500          0.0000          0.0000          0.0000          0.0000          0.0000          0.0000
       3755.0000       -999.2500          0.0000          0.0000          0.0000          0.0000          0.0000          0.0000
       3756.0000       -999.2500          0.0000          0.0000          0.0000          0.0000          0.0000          0.0000
       3757.0000       -999.2500          0.0000          0.0000          0.0000          0.0000          0.0000          0.0000
       3758.0000       -999.2500          0.0000          0.0000          0.0000          0.0000          0.0000          0.0000
       3759.0000       -999.2500          0.0000          0.0000          0.0000          0.0000          0.0000          0.0000
       3760.0000       -999.2500          0.0000          0.0000          0.0000          0.0000          0.0000          0.0000
       3761.0000       -999.2500          0.0000          0.0000          0.0000          0.0000          0.0000          0.0000
       3762.0000       -999.2500          0.0000          0.0000          0.0000          0.0000          0.0000          0.0000
       3763.0000       -999.2500          0.0000          0.0000          0.0000          0.0000          0.0000          0.0000
       3764.0000       -999.2500          0.0000          0.0000          0.0000          0.0000          0.0000          0.0000
       3765.0000       -999.2500          0.0000          0.0000          0.0000          0.0000          0.0000          0.0000
       3766.0000       -999.2500          0.0000          0.0000          0.0000          0.0000          0.0000          0.0000
       3767.0000       -999.2500          0.0000          0.0000          0.0000          0.0000          0.0000          0.0000
       3768.0000       -999.2500          0.0000          0.0000          0.0000          0.0000          0.0000          0.0000
       3769.0000       -999.2500          0.0000          0.0000          0.0000          0.0000          0.0000          0.0000
       3770.0000       -999.2500          0.0000          0.0000          0.0000          0.0000          0.0000          0.0000
       3771.0000       -999.2500          0.0000          0.0000          0.0000          0.0000          0.0000          0.0000
       3772.0000       -999.2500          0.0000          0.0000          0.0000          0.0000          0.0000          0.0000
       3773.0000       -999.2500          0.0000          0.0000          0.0000          0.0000          0.0000          0.0000
       3774.0000       -999.2500          0.0000          0.0000          0.0000          0.0000          0.0000          0.0000
       3775.0000       -999.2500          0.0000          0.0000          0.0000          0.0000          0.0000          0.0000
       3776.0000       -999.2500          0.0000          0.0000          0.0000          0.0000          0.0000          0.0000
       3777.0000       -999.2500          0.0000          0.0000          0.0000          0.0000          0.0000          0.0000
       3778.0000       -999.2500          0.0000          0.0000          0.0000          0.0000          0.0000          0.0000
       3779.0000       -999.2500          0.0000          0.0000          0.0000          0.0000          0.0000          0.0000
