~Version Information
VERS  .          2.0                              :CWLS Log Ascii Standard - Version 2.0
WRAP  .          NO                               :One line per depth step
~Well Information Block
#MNEM.UNIT       Data Type                        Information
#---------       ---------                        -------------------------------
STRT  .M         2741.37100                       :START DEPTH
STOP  .M         2992.67900                       :STOP DEPTH
STEP  .M          0.15240                         :INCREMENT
NULL  .          -999.25                          :NULL DATA VALUE
COMP  .          StatoilHydro                                                                                                                      :COMPANY
WELL  .          15/9-F-4                         :WELL
FLD   .          Volve                            :FIELD
LOC   .                                           :LOCATION
PROV  .                                           :PROVINCE
STAT  .                                           :STATE
CNTY  .                                           :COUNTY
CTRY  .                                           :COUNTRY
DATE  .                                           :DATE
UWI   .          15/9-F-4                         :UNIQUE WELL UWI
LIC   .                                           :LICENSE NUMBER
API   .                                                                                                                                            :API NUMBER
SRVC  .                                           :SERVICE COMPANY
~Parameter Information Block
#MNEM.UNIT       Value                            Description
#---------       ---------                        -------------
~Curve Information Block
#MNEM.UNIT       API Code            Curve    Description
#--------        --------------      -----    -------------------
DEPT  .M                             :0       Index
BCAV  .IN                            :1       Best Caliper, Average Diameter
BPHI  .V/V                           :2       Best Thermal Neutron Porosity, Average
BS_ARC.IN                            :3       Bit Size                      
DRHB  .G/C3                          :4       Bulk Density Correction, Bottom
GRMA  .GAPI                          :5       Gamma Ray, Average            
P16H  .OHMM                          :6       ARC Phase Shift Resistivity 16 inch Spacing at 2 MHz, Environmentally Corrected_
P22H  .OHMM                          :7       ARC Phase Shift Resistivity 22 inch Spacing at 2 MHz, Environmentally Corrected_
P34H  .OHMM                          :8       ARC Phase Shift Resistivity 34 inch Spacing at 2 MHz, Environmentally Corrected_
P40H  .OHMM                          :9       ARC Phase Shift Resistivity 40 inch Spacing at 2 MHz, Environmentally Corrected_
PEB   .                              :10      Photoelectric Factor, Bottom  
ROBB  .G/C3                          :11      Bulk Density, Bottom          
ROP5_RM.M/HR                          :12      Rate of penetration averaged over last 5 ft(1_5 m), Recorded Mode
SIFA  .CU                            :13      Sigma Formation, Average      
~Ascii Data Section
# ...
   2966.31340       8.52197       0.09839       8.50000       0.00368      15.20375       4.24418       4.19957       4.28989       4.42227       4.56033       2.55924      19.77421      13.40769 
   2966.46580       8.52248       0.09839       8.50000      -0.00028      16.08451       4.24990       4.24036       4.31984       4.33056       4.55428       2.55808      19.52503      13.40769 
   2966.61820       8.52357       0.09839       8.50000      -0.00021      16.29809       4.27253       4.24342       4.25260       4.14059       4.61780       2.55753      21.59965      13.40769 
   2966.77060       8.50430       0.09839       8.50000       0.00028      16.09741       4.16368       4.13471       4.17091       4.08607       4.71763       2.55637      20.62529      13.40769 
   2966.92300       8.51073       0.09839       8.50000       0.00121      15.54636       4.16368       4.13471       4.17091       4.08607       4.76087       2.55891      20.02343      13.40769 
   2967.07540       8.51483       0.09839       8.50000       0.00571      15.15048       4.16368       4.13471       4.17091       4.08607       4.76796       2.55732      19.87819      13.40769 
   2967.22780       8.49749       0.09839       8.50000      -0.00025      14.06110       4.16368       4.13471       4.17091       4.08607       4.74696       2.54447      19.87819      13.40769 
   2967.38020       8.46672       0.09839       8.50000       0.00470      14.03861       4.16368       4.13471       4.17091       4.08607       4.79819       2.51853      19.87820      13.40769 
   2967.53260       8.45441       0.09839       8.50000       0.00423      13.54798       4.16368       4.13471       4.17091       4.08607       4.73192       2.49053      20.20806      13.40769 
   2967.68500       8.48439       0.09839       8.50000       0.00442      13.30045       4.16368       4.13471       4.17091       4.08607       4.69202       2.47627      20.17080      13.40769 
   2967.83740       8.53150       0.09839       8.50000       0.00272      12.77944       4.16368       4.13471       4.17091       4.08607       4.64129       2.48648      20.32038      13.40769 
   2967.98980       8.54158       0.09839       8.50000       0.00475      11.73647       4.16368       4.13471       4.17091       4.08607       4.74587       2.49715      20.86081      13.40769 
   2968.14220       8.53108       0.09839       8.50000       0.00569      10.72747       4.16368       4.13471       4.17091       4.08607       4.74410       2.50609      21.39070      13.40769 
   2968.29460       8.53108       0.09839       8.50000       0.00881      10.34599       4.16368       4.13471       4.17091       4.08607       4.58096       2.51439      21.77487      13.40769 
   2968.44700       8.53108       0.09839       8.50000       0.01243       9.90083       4.16368       4.13471       4.17091       4.08607       4.34807       2.53028      22.03382      13.40769 
   2968.59940       8.53108       0.09839       8.50000       0.01602       9.72327       4.16368       4.13471       4.17091       4.08607       4.19937       2.54051      22.03382      13.40769 
   2968.75180       8.53108       0.09839       8.50000       0.01602       9.89466       4.16368       4.13471       4.17091       4.08607       4.19937       2.54051      21.94560      13.40769 
   2968.90420       8.53108       0.09839       8.50000       0.01602      10.78885       4.16368       4.13471       4.17091       4.08607       4.19937       2.54051      22.03382      13.40769 
   2969.05660       8.53108       0.09839       8.50000       0.01602      11.62146       4.16368       4.13471       4.17091       4.08607       4.19937       2.54051      22.03382      13.40769 
   2969.20900       8.53108       0.09839       8.50000       0.01602      12.54946       4.16368       4.13471       4.17091       4.08607       4.19937       2.54051      22.03382      13.40769 
   2969.36140       8.53108       0.09839       8.50000       0.01602      13.12457       4.16368       4.13471       4.17091       4.08607       4.19937       2.54051      21.94595      13.40769 
   2969.51380       8.53108       0.09839       8.50000       0.01602      13.49619       4.16368       4.13471       4.17091       4.08607       4.19937       2.54051      21.85808      13.40769 
   2969.66620       8.53108       0.09839       8.50000       0.01602      13.21896       4.16368       4.13471       4.17091       4.08607       4.19937       2.54051      21.59966      13.40769 
   2969.81860       8.53108       0.09839       8.50000       0.01602      12.94647       4.16368       4.13471       4.17091       4.08607       4.19937       2.54051      21.38967      13.40769 
   2969.97100       8.53108       0.09839       8.50000       0.01602      12.64262       4.16368       4.13471       4.17091       4.08607       4.19937       2.54051      21.26447      13.40769 
   2970.12340       8.53108       0.09839       8.50000       0.01602      12.64262       4.16368       4.13471       4.17091       4.08607       4.19937       2.54051      21.34729      13.40769 
   2970.27580       8.53108       0.09839       8.50000       0.01602      12.64262       4.16368       4.13471       4.17091       4.08607       4.19937       2.54051      21.22388      13.40769 
   2970.42820       8.53108       0.09839       8.50000       0.01602      12.64262       4.16368       4.13471       4.17091       4.08607       4.19937       2.54051      21.18329      13.40769 
   2970.58060       8.53108       0.09839       8.50000       0.01602      12.64262       4.16368       4.13471       4.17091       4.08607       4.19937       2.54051      20.94080      13.40769 
   2970.73300       8.53108       0.09839       8.50000       0.01602      12.64262       4.16368       4.13471       4.17091       4.08607       4.19937       2.54051      20.90065      13.40769 
   2970.88540       8.53108       0.09839       8.50000       0.01602      12.64262       4.16368       4.13471       4.17091       4.08607       4.19937       2.54051      20.94050      13.40769 
   2971.03780       8.53108       0.09839       8.50000       0.01602      12.64262       4.16368       4.13471       4.17091       4.08607       4.19937       2.54051      20.94050      13.40769 
   2971.19020       8.53108       0.09839       8.50000       0.01602      12.64262       4.16368       4.13471       4.17091       4.08607       4.19937       2.54051      20.94049      13.40769 
   2971.34260       8.53108       0.09839       8.50000       0.01602      12.64262       4.16368       4.13471       4.17091       4.08607       4.19937       2.54051      20.86110      13.40769 
   2971.49500       8.53108       0.09839       8.50000       0.01602      12.64262       4.16368       4.13471       4.17091       4.08607       4.19937       2.54051      20.94049      13.40769 
   2971.64740       8.53108       0.09839       8.50000       0.01602      12.64262       4.16368       4.13471       4.17091       4.08607       4.19937       2.54051      20.78266      13.40769 
   2971.79980       8.53108       0.09839       8.50000       0.01602      12.64262       4.16368       4.13471       4.17091       4.08607       4.19937       2.54051      20.62624      13.40769 
   2971.95220       8.53108       0.09839       8.50000       0.01602      12.64262       4.16368       4.13471       4.17091       4.08607       4.19937       2.54051      20.54798      13.40769 
   2972.10460       8.53108       0.09839       8.50000       0.01602      12.64262       4.16368       4.13471       4.17091       4.08607       4.19937       2.54051      20.62530      13.40769 
   2972.25700       8.53108       0.09839       8.50000       0.01602      12.64262       4.16368       4.13471       4.17091       4.08607       4.19937       2.54051      20.70320      13.40769 
   2972.40940       8.53108       0.09839       8.50000       0.01602      12.64262       4.16368       4.13471       4.17091       4.08607       4.19937       2.54051      20.39506      13.40769 
