~Version Information
VERS  .          2.0                              :CWLS Log Ascii Standard - Version 2.0
WRAP  .          NO                               :One line per depth step
~Well Information Block
#MNEM.UNIT       Data Type                        Information
#---------       ---------                        -------------------------------
STRT  .M         2955.95000                       :START DEPTH
STOP  .M         3509.92500                       :STOP DEPTH
STEP  .M          0.15240                         :INCREMENT
NULL  .          -999.25                          :NULL DATA VALUE
COMP  .          StatoilHydro                                                                                                                      :COMPANY
WELL  .          15/9-F-4                         :WELL
FLD   .          Volve                            :FIELD
LOC   .                                           :LOCATION
PROV  .                                           :PROVINCE
STAT  .                                           :STATE
CNTY  .                                           :COUNTY
CTRY  .                                           :COUNTRY
DATE  .                                           :DATE
UWI   .          15/9-F-4                         :UNIQUE WELL UWI
LIC   .                                           :LICENSE NUMBER
API   .                                                                                                                                            :API NUMBER
SRVC  .                                           :SERVICE COMPANY
~Parameter Information Block
#MNEM.UNIT       Value                            Description
#---------       ---------                        -------------
~Curve Information Block
#MNEM.UNIT       API Code            Curve    Description
#--------        --------------      -----    -------------------
DEPT  .M                             :0       Index
BCAV  .IN                            :1       Best Caliper, Average Diameter
BPHI  .V/V                           :2       Best Thermal Neutron Porosity, Average
BS    .IN                            :3       Bit Size                      
DRHB  .G/C3                          :4       Bulk Density Correction, Bottom
GRMA  .GAPI                          :5       Gamma Ray, Average            
P16H  .OHMM                          :6       ARC Phase Shift Resistivity 16 inch Spacing at 2 MHz, Environmentally Corrected_
P22H  .OHMM                          :7       ARC Phase Shift Resistivity 22 inch Spacing at 2 MHz, Environmentally Corrected_
P34H  .OHMM                          :8       ARC Phase Shift Resistivity 34 inch Spacing at 2 MHz, Environmentally Corrected_
P40H  .OHMM                          :9       ARC Phase Shift Resistivity 40 inch Spacing at 2 MHz, Environmentally Corrected_
PEB   .                              :10      Photoelectric Factor, Bottom  
ROBB  .G/C3                          :11      Bulk Density, Bottom          
ROP5_RM.M/HR                          :12      Rate of penetration averaged over last 5 ft(1_5 m), Recorded Mode
RT_ARC.OHMM                          :13      ARC True Formation Resistivity
SIFA  .CU                            :14      Sigma Formation, Average      
~Ascii Data Section
# ...
   3100.73000       8.51323       0.13711       8.50000      -0.00052      65.56034       2.07331       2.13446       2.54991       2.78568       5.24270       2.59121      21.68512       2.20450      21.78815 
   3100.88240       8.45926       0.16612       8.50000      -0.00744      79.84100       2.00153       1.99415       2.32170       2.53408       4.95399       2.55980      21.38967       2.07535      23.26651 
   3101.03480       8.46285       0.17493       8.50000       0.00895      96.36354       1.81639       1.78437       1.81941       1.89855       4.73058       2.53952      21.26446       1.82088      25.51516 
   3101.18720       8.41474       0.23029       8.50000       0.00978     113.88824       1.38341       1.40900       1.45103       1.44967       4.83487       2.47413      20.43370       1.55544      28.94959 
   3101.33960       8.44545       0.26597       8.50000       0.02919     135.37335       1.12387       1.10426       1.10981       1.08537       5.25119       2.41799      20.35818       1.37396      32.67344 
   3101.49200       8.45950       0.32993       8.50000       0.02985     154.07309       0.93985       0.94191       0.93794       0.90192       5.73358       2.33651      20.39600       1.30276      35.97370 
   3101.64440       8.52453       0.34100       8.50000       0.03414     167.87614       1.14601       1.24315       1.37941       1.40888       5.69578       2.27661      21.63394       1.32591      38.60699 
   3101.79680       8.52463       0.40666       8.50000       0.02569     175.59840       1.26326       1.32813       1.37191       1.35263       5.76091       2.21015      22.39875       1.41025      36.73805 
   3101.94920       8.62612       0.44925       8.50000       0.04362     182.48758       1.40575       1.46880       1.40248       1.35520       5.63831       2.19955      23.20564       1.51353      37.98358 
   3102.10160       8.68120       0.45209       8.50000       0.05113     184.00131       1.69232       1.77507       1.74050       1.77304       5.56891       2.20520      24.35016       1.58773      36.61173 
   3102.25400       8.76559       0.42201       8.50000       0.05735     183.51361       1.67698       1.71776       1.73404       1.77024       5.54016       2.24362      25.05274       1.59740      35.57633 
   3102.40640       8.77803       0.40827       8.50000       0.05292     181.84294       1.47093       1.53046       1.61871       1.66255       5.31304       2.27273      26.37595       1.54020      35.21542 
   3102.55880       8.76385       0.41077       8.50000       0.04592     179.71635       1.38440       1.47538       1.54316       1.60559       5.50931       2.28848      27.85019       1.45292      35.65324 
   3102.71120       8.73071       0.38901       8.50000       0.04114     178.12952       1.12019       1.17189       1.16770       1.18737       5.45054       2.29087      30.48334       1.37853      36.01313 
   3102.86360       8.62027       0.39234       8.50000       0.03435     177.50960       1.12673       1.18373       1.21492       1.25993       5.97144       2.26623      32.84945       1.33700      36.75945 
   3103.01600       8.59157       0.39211       8.50000       0.04022     177.70522       1.20178       1.24692       1.30260       1.33864       5.94085       2.26153      34.50693       1.32056      33.76362 
   3103.16840       8.59713       0.35700       8.50000       0.04747     175.61739       1.23316       1.33234       1.44850       1.36967       5.85675       2.27603      34.50905       1.30478      33.09984 
   3103.32080       8.58008       0.37120       8.50000       0.04219     175.28760       1.21597       1.15104       1.15001       1.14490       5.33032       2.29232      34.50905       1.26761      35.16986 
   3103.47320       8.58374       0.36141       8.50000       0.04767     174.37096       1.18286       1.18866       1.28959       1.32985       5.11088       2.32184      34.50881       1.20526      34.79610 
   3103.62560       8.60147       0.35977       8.50000       0.04609     172.51601       1.01858       1.09674       1.26589       1.29429       5.33557       2.34595      13.94503       1.13898      35.83361 
   3103.77800       8.58063       0.35034       8.50000       0.04121     169.54239       0.70755       0.71621       0.69255       0.65136       5.67789       2.38074      12.85844       1.10429      34.49723 
   3103.93040       8.56678       0.35074       8.50000       0.03770     167.80356       0.75220       0.75305       0.71627       0.68802       5.81855       2.37205      11.75992       1.12686      34.32679 
   3104.08280       8.50842       0.36253       8.50000       0.03221     163.89122       1.00996       1.10038       1.19574       1.23164       5.45853       2.31823      11.52661       1.20181      34.50529 
   3104.23520       8.54133       0.36720       8.50000       0.04520     158.70358       1.21426       1.36644       1.62563       1.74051       5.25153       2.28724      11.13557       1.29177      34.75904 
   3104.38760       8.56764       0.38184       8.50000       0.04365     154.33913       1.25641       1.34452       1.41781       1.49623       5.22493       2.27397      11.03592       1.35445      34.85311 
   3104.54000       8.58885       0.38595       8.50000       0.03733     154.73712       1.29825       1.28802       1.26238       1.37130       5.51840       2.27103      10.83628       1.37980      33.98129 
   3104.69240       8.59636       0.37492       8.50000       0.03955     153.00641       1.26266       1.24830       1.28992       1.38768       5.43388       2.28011      10.78151       1.38554      33.41228 
   3104.84480       8.57470       0.37078       8.50000       0.03321     154.84428       1.28239       1.28846       1.50918       1.65203       5.26464       2.27941       9.29912       1.38847      33.67868 
   3104.99720       8.58944       0.36932       8.50000       0.03559     158.51868       1.17079       1.18646       1.35576       1.35991       4.90675       2.28166       7.56745       1.39380      35.32014 
   3105.14960       8.60371       0.37511       8.50000       0.03377     159.35025       1.18497       1.24264       1.34236       1.29741       4.77295       2.27658       7.56742       1.40396      34.31948 
   3105.30200       8.58307       0.37938       8.50000       0.02374     158.01340       1.30445       1.36261       1.40203       1.41249       4.45930       2.26273       5.50278       1.41961      33.87046 
   3105.45440       8.57752       0.39103       8.50000       0.01774     159.96614       1.32473       1.36937       1.37813       1.37751       3.92702       2.26525       4.84661       1.43871      35.92416 
   3105.60680       8.56095       0.37523       8.50000       0.00579     160.73526       1.32867       1.35405       1.35053       1.36380       3.66342       2.25953       4.84661       1.45519      36.36713 
   3105.75920       8.57090       0.37912       8.50000       0.00422     161.39716       1.40644       1.41986       1.48325       1.60669       3.66915       2.26135       4.32683       1.46519      34.35681 
   3105.91160       8.52808       0.38493       8.50000       0.00195     165.22102       1.33300       1.31508       1.43761       1.54127       3.63821       2.25281       3.91046       1.47035      33.94539 
   3106.06400       8.50521       0.39891       8.50000       0.00330     167.90283       1.26084       1.25492       1.35458       1.39525       3.49822       2.24182       3.56725       1.47888      33.53789 
   3106.21640       8.52203       0.38535       8.50000       0.00756     169.37659       1.29744       1.35824       1.44520       1.41545       3.40668       2.23922       3.03282       1.49881      33.43907 
   3106.36880       8.57736       0.38759       8.50000       0.01482     170.36656       1.39064       1.50079       1.59018       1.57620       3.68111       2.24901       2.88151       1.53281      34.12072 
