~Version Information
VERS  .          2.0                              :CWLS Log Ascii Standard - Version 2.0
WRAP  .          NO                               :One line per depth step
~Well Information Block
#MNEM.UNIT       Data Type                        Information
#---------       ---------                        -------------------------------
STRT  .M         2955.95000                       :START DEPTH
STOP  .M         3509.92500                       :STOP DEPTH
STEP  .M          0.15240                         :INCREMENT
NULL  .          -999.25                          :NULL DATA VALUE
COMP  .          StatoilHydro                                                                                                                      :COMPANY
WELL  .          15/9-F-4                         :WELL
FLD   .          Volve                            :FIELD
LOC   .                                           :LOCATION
PROV  .                                           :PROVINCE
STAT  .                                           :STATE
CNTY  .                                           :COUNTY
CTRY  .                                           :COUNTRY
DATE  .                                           :DATE
UWI   .          15/9-F-4                         :UNIQUE WELL UWI
LIC   .                                           :LICENSE NUMBER
API   .                                                                                                                                            :API NUMBER
SRVC  .                                           :SERVICE COMPANY
~Parameter Information Block
#MNEM.UNIT       Value                            Description
#---------       ---------                        -------------
~Curve Information Block
#MNEM.UNIT       API Code            Curve    Description
#--------        --------------      -----    -------------------
DEPT  .M                             :0       Index
BCAV  .IN                            :1       Best Caliper, Average Diameter
BPHI  .V/V                           :2       Best Thermal Neutron Porosity, Average
BS    .IN                            :3       Bit Size                      
DRHB  .G/C3                          :4       Bulk Density Correction, Bottom
GRMA  .GAPI                          :5       Gamma Ray, Average            
P16H  .OHMM                          :6       ARC Phase Shift Resistivity 16 inch Spacing at 2 MHz, Environmentally Corrected_
P22H  .OHMM                          :7       ARC Phase Shift Resistivity 22 inch Spacing at 2 MHz, Environmentally Corrected_
P34H  .OHMM                          :8       ARC Phase Shift Resistivity 34 inch Spacing at 2 MHz, Environmentally Corrected_
P40H  .OHMM                          :9       ARC Phase Shift Resistivity 40 inch Spacing at 2 MHz, Environmentally Corrected_
PEB   .                              :10      Photoelectric Factor, Bottom  
ROBB  .G/C3                          :11      Bulk Density, Bottom          
ROP5_RM.M/HR                          :12      Rate of penetration averaged over last 5 ft(1_5 m), Recorded Mode
RT_ARC.OHMM                          :13      ARC True Formation Resistivity
SIFA  .CU                            :14      Sigma Formation, Average      
~Ascii Data Section
# ...
   3506.11400       8.69157       0.13199       8.50000    -999.25000    -999.25000       2.56529       2.76426       2.81079       2.85095    -999.25000    -999.25000      18.85418       2.77047    -999.25000 
   3506.26640       8.69157       0.13199       8.50000    -999.25000    -999.25000       2.56529       2.76426       2.81079       2.85095    -999.25000    -999.25000      18.85417       2.77047    -999.25000 
   3506.41880       8.69157       0.13199       8.50000    -999.25000    -999.25000       2.56529       2.76426       2.81079       2.85095    -999.25000    -999.25000      18.78798       2.77047    -999.25000 
   3506.57120       8.69157       0.13199       8.50000    -999.25000    -999.25000       2.56529       2.76426       2.81079       2.85095    -999.25000    -999.25000      18.82029       2.77047    -999.25000 
   3506.72360       8.69157       0.13199       8.50000    -999.25000    -999.25000       2.56529       2.76426       2.81079       2.85095    -999.25000    -999.25000      18.85339       2.77047    -999.25000 
   3506.87600       8.69157       0.13199       8.50000    -999.25000    -999.25000       2.56529       2.76426       2.81079       2.85095    -999.25000    -999.25000      18.85418       2.77047    -999.25000 
   3507.02840       8.69157       0.13199       8.50000    -999.25000    -999.25000       2.56529       2.76426       2.81079       2.85095    -999.25000    -999.25000      18.85418       2.77047    -999.25000 
   3507.18080       8.69157       0.13199       8.50000    -999.25000    -999.25000       2.56529       2.76426       2.81079       2.85095    -999.25000    -999.25000      18.85417       2.77047    -999.25000 
   3507.33320       8.69157       0.13199       8.50000    -999.25000    -999.25000       2.56529       2.76426       2.81079       2.85095    -999.25000    -999.25000      18.65067       2.77047    -999.25000 
   3507.48560       8.69157       0.13199       8.50000    -999.25000    -999.25000       2.56529       2.76426       2.81079       2.85095    -999.25000    -999.25000      18.81310       2.77047    -999.25000 
   3507.63800       8.69157       0.13199       8.50000    -999.25000    -999.25000       2.56529       2.76426       2.81079       2.85095    -999.25000    -999.25000      18.98542       2.77047    -999.25000 
   3507.79040       8.69157       0.13199       8.50000    -999.25000    -999.25000       2.56529       2.76426       2.81079       2.85095    -999.25000    -999.25000      19.09485       2.77047    -999.25000 
   3507.94280       8.69157       0.13199       8.50000    -999.25000    -999.25000       2.56529       2.76426       2.81079       2.85095    -999.25000    -999.25000      19.13893       2.77047    -999.25000 
   3508.09520       8.69157       0.13199       8.50000    -999.25000    -999.25000       2.56529       2.76426       2.81079       2.85095    -999.25000    -999.25000      19.10677       2.77047    -999.25000 
   3508.24760       8.69157       0.13199       8.50000    -999.25000    -999.25000       2.56529       2.76426       2.81079       2.85095    -999.25000    -999.25000      19.16614       2.77047    -999.25000 
   3508.40000       8.69157       0.13199       8.50000    -999.25000    -999.25000       2.56529       2.76426       2.81079       2.85095    -999.25000    -999.25000      19.21256       2.77047    -999.25000 
   3508.55240       8.69157       0.13199       8.50000    -999.25000    -999.25000       2.56529       2.76426       2.81079       2.85095    -999.25000    -999.25000      19.24968       2.77047    -999.25000 
   3508.70480       8.69157       0.13199       8.50000    -999.25000    -999.25000       2.56529       2.76426       2.81079       2.85095    -999.25000    -999.25000      15.07297       2.77047    -999.25000 
   3508.85720       8.69157       0.13199       8.50000    -999.25000    -999.25000       2.56529       2.76426       2.81079       2.85095    -999.25000    -999.25000      15.07247       2.77047    -999.25000 
   3509.00960       8.69157       0.13199       8.50000    -999.25000    -999.25000       2.56529       2.76426       2.81079       2.85095    -999.25000    -999.25000      15.07196       2.77047    -999.25000 
   3509.16200       8.69157       0.13199       8.50000    -999.25000    -999.25000       2.56529       2.76426       2.81079       2.85095    -999.25000    -999.25000      14.93781       2.77047    -999.25000 
   3509.31440       8.69157       0.13199       8.50000    -999.25000    -999.25000       2.56529       2.76426       2.81079       2.85095    -999.25000    -999.25000      14.59186       2.77047    -999.25000 
   3509.46680       8.69157       0.13199       8.50000    -999.25000    -999.25000       2.56529       2.76426       2.81079       2.85095    -999.25000    -999.25000      14.53344       2.77047    -999.25000 
   3509.61920       8.69157       0.13199       8.50000    -999.25000    -999.25000       2.56529       2.76426       2.81079       2.85095    -999.25000    -999.25000      14.55271       2.77047    -999.25000 
   3509.77160       8.69157       0.13199       8.50000    -999.25000    -999.25000       2.56529       2.76426       2.81079       2.85095    -999.25000    -999.25000      14.51417       2.77047    -999.25000 
   3509.92400       8.69157       0.13199       8.50000    -999.25000    -999.25000       2.56529       2.76426       2.81079       2.85095    -999.25000    -999.25000      14.51417       2.77047    -999.25000 
