~Version Information
VERS  .          2.0                              :CWLS Log Ascii Standard - Version 2.0
WRAP  .          NO                               :One line per depth step
~Well Information Block
#MNEM.UNIT       Data Type                        Information
#---------       ---------                        -------------------------------
STRT  .M         2741.37100                       :START DEPTH
STOP  .M         2992.67900                       :STOP DEPTH
STEP  .M          0.15240                         :INCREMENT
NULL  .          -999.25                          :NULL DATA VALUE
COMP  .          StatoilHydro                                                                                                                      :COMPANY
WELL  .          15/9-F-4                         :WELL
FLD   .          Volve                            :FIELD
LOC   .                                           :LOCATION
PROV  .                                           :PROVINCE
STAT  .                                           :STATE
CNTY  .                                           :COUNTY
CTRY  .                                           :COUNTRY
DATE  .                                           :DATE
UWI   .          15/9-F-4                         :UNIQUE WELL UWI
LIC   .                                           :LICENSE NUMBER
API   .                                                                                                                                            :API NUMBER
SRVC  .                                           :SERVICE COMPANY
~Parameter Information Block
#MNEM.UNIT       Value                            Description
#---------       ---------                        -------------
~Curve Information Block
#MNEM.UNIT       API Code            Curve    Description
#--------        --------------      -----    -------------------
DEPT  .M                             :0       Index
BCAV  .IN                            :1       Best Caliper, Average Diameter
BPHI  .V/V                           :2       Best Thermal Neutron Porosity, Average
BS_ARC.IN                            :3       Bit Size                      
DRHB  .G/C3                          :4       Bulk Density Correction, Bottom
GRMA  .GAPI                          :5       Gamma Ray, Average            
P16H  .OHMM                          :6       ARC Phase Shift Resistivity 16 inch Spacing at 2 MHz, Environmentally Corrected_
P22H  .OHMM                          :7       ARC Phase Shift Resistivity 22 inch Spacing at 2 MHz, Environmentally Corrected_
P34H  .OHMM                          :8       ARC Phase Shift Resistivity 34 inch Spacing at 2 MHz, Environmentally Corrected_
P40H  .OHMM                          :9       ARC Phase Shift Resistivity 40 inch Spacing at 2 MHz, Environmentally Corrected_
PEB   .                              :10      Photoelectric Factor, Bottom  
ROBB  .G/C3                          :11      Bulk Density, Bottom          
ROP5_RM.M/HR                          :12      Rate of penetration averaged over last 5 ft(1_5 m), Recorded Mode
SIFA  .CU                            :13      Sigma Formation, Average      
~Ascii Data Section
# ...
   2772.61300       8.90202       0.15117       8.50000       0.01892       7.45312       1.87382       1.81435       1.71804       1.67981       5.53275       2.47312      10.27127      12.45807 
   2772.76540       8.88209       0.14023       8.50000       0.01746       7.99280       2.24940       2.12798       1.96448       1.94271       5.91323       2.49990       9.59166      12.70607 
   2772.91780       8.83557       0.14813       8.50000       0.03089       7.61389       2.48002       2.38555       2.31354       2.33984       6.50200       2.52195       8.37612      12.55253 
   2773.07020       8.73598       0.13174       8.50000       0.03646       7.56500       2.40229       2.36898       2.22687       2.28643       6.95281       2.50143       7.06099      12.50344 
   2773.22260       8.66897       0.13644       8.50000       0.04068       8.01959       2.12224       2.16858       2.08753       2.16995       6.71787       2.47293       5.73295      12.81148 
   2773.37500       8.66792       0.15523       8.50000       0.04124       7.78070       1.90177       1.92259       1.85726       1.92798       6.34050       2.45564       4.87260      12.87478 
   2773.52740       8.67628       0.16567       8.50000       0.03737       7.69985       1.76941       1.76329       1.66409       1.66005       6.12988       2.44321       4.70943      13.02052 
   2773.67980       8.71488       0.17482       8.50000       0.04013       7.32561       1.77159       1.70486       1.58141       1.52023       5.93590       2.45287       4.76491      13.30547 
   2773.83220       8.71518       0.17737       8.50000       0.03388       7.46478       1.93834       1.84458       1.73644       1.67695       5.72657       2.46058       4.88692      12.98866 
   2773.98460       8.70008       0.14212       8.50000       0.02103       7.15565       2.16833       2.00334       1.85412       1.82236       5.72264       2.48445       5.06299      12.32673 
   2774.13700       8.68197       0.14145       8.50000       0.01320       7.05160       2.38819       2.22940       2.08369       2.05192       5.78792       2.49702       4.97858      12.26677 
   2774.28940       8.68276       0.14824       8.50000       0.01121       7.00124       2.40247       2.32437       2.21551       2.22443       6.12610       2.47946       4.97858      12.38247 
   2774.44180       8.80859       0.15679       8.50000       0.04726       7.14891       2.17731       2.18184       2.05738       2.06941       6.80939       2.46424       4.77387      12.76201 
   2774.59420       8.90040       0.16348       8.50000       0.05332       7.17585       1.91486       1.93207       1.81805       1.84416       6.80682       2.43794       4.84238      13.32868 
   2774.74660       8.94482       0.17216       8.50000       0.04970       7.22968       1.79136       1.76478       1.63908       1.61979       6.66681       2.43327       5.38936      13.36103 
   2774.89900       8.89899       0.17734       8.50000       0.02395       7.18115       1.78930       1.76273       1.66053       1.63011       6.01131       2.43005       5.38936      12.84279 
   2775.05140       8.88653       0.17817       8.50000       0.02089       6.30798       1.85622       1.81319       1.71854       1.70481       6.08554       2.44249       5.38936      12.93371 
   2775.20380       8.93033       0.16039       8.50000       0.03631       6.33815       1.82779       1.79177       1.72670       1.72971       6.23262       2.46223       2.03199      13.23659 
   2775.35620       8.95865       0.15798       8.50000       0.04563       6.38473       1.97192       1.92381       1.86119       1.83389       6.45319       2.47097       1.82070      13.09158 
   2775.50860       8.96777       0.16719       8.50000       0.04868       6.68366       2.16494       2.13634       2.05274       2.04255       6.62963       2.48493       1.58797      12.66126 
   2775.66100       8.90732       0.15209       8.50000       0.04340       7.08803       2.31128       2.35049       2.22138       2.15403       6.74764       2.48975       1.19530      12.70002 
   2775.81340       8.85845       0.13858       8.50000       0.04760       8.12586       2.47282       2.49918       2.36136       2.29730       6.80790       2.50686       0.99995      12.74809 
   2775.96580       8.80639       0.12444       8.50000       0.04823       8.58496       2.69322       2.69968       2.57155       2.56922       6.46026       2.51914       0.92098      12.36878 
   2776.11820       8.74776       0.11025       8.50000       0.03928       8.65087       2.92179       2.91177       2.81043       2.83722       6.04216       2.53354       0.87224      12.03576 
   2776.27060       8.66387       0.10844       8.50000       0.01905       8.59772       3.34004       3.23173       3.13293       3.14026       5.61880       2.54073       0.81887      11.70131 
   2776.42300       8.60461       0.10598       8.50000       0.00935       8.42387       3.60322       3.42335       3.25629       3.16511       5.51120       2.54452       0.81887      12.10143 
   2776.57540       8.55409       0.11558       8.50000       0.00607       8.12640       3.64269       3.63367       3.45477       3.39870       5.51279       2.52876       0.86468      11.70652 
   2776.72780       8.54125       0.11621       8.50000       0.01149       7.56694       3.35283       3.53754       3.62138       3.72183       5.57993       2.50482       0.89235      12.17697 
   2776.88020       8.57492       0.11962       8.50000       0.02293       7.28539       3.19766       3.34257       3.42791       3.62009       5.65630       2.49688       0.90729      12.12852 
   2777.03260       8.59345       0.12716       8.50000       0.02591       6.72922       3.16205       3.31930       3.38573       3.60468       5.62402       2.49541       0.94986      12.38545 
   2777.18500       8.59967       0.11621       8.50000       0.02413       6.69603       3.35673       3.38659       3.38088       3.54192       5.51162       2.51576       1.01902      11.88370 
   2777.33740       8.55072       0.11250       8.50000       0.00859       6.69851       3.45601       3.55317       3.72768       3.93442       5.42224       2.52033       1.20395      11.75096 
   2777.48980       8.51712       0.11634       8.50000       0.00671       6.68600       3.51771       3.58081       3.76914       3.91183       5.44958       2.51595       1.71664      11.87317 
   2777.64220       8.49719       0.12591       8.50000       0.00580       6.75281       3.16719       3.27873       3.52256       3.83188       5.42097       2.49511       2.29448      12.18095 
   2777.79460       8.49865       0.13197       8.50000       0.01138       6.55851       2.64067       2.81151       3.15726       3.53160       5.33124       2.47304       2.66458      11.96023 
   2777.94700       8.53160       0.13482       8.50000       0.01355       6.37535       2.37873       2.56516       2.95228       3.35643       5.14784       2.46922       5.63467      12.55269 
   2778.09940       8.54560       0.13905       8.50000       0.01194       6.29946       2.15433       2.32144       2.63937       2.97403       5.10086       2.46232       6.70223      12.47738 
   2778.25180       8.54520       0.14813       8.50000       0.01020       6.48372       2.06404       2.17439       2.34973       2.55043       5.15941       2.45909       7.02491      13.04956 
   2778.40420       8.53143       0.15426       8.50000       0.00539       6.30355       1.97687       2.03578       2.16549       2.21832       5.15474       2.44229       8.00671      12.98825 
   2778.55660       8.51656       0.15992       8.50000       0.00803       6.50374       1.88939       1.92149       2.00396       1.94239       5.13088       2.43681       8.59806      13.26225 
   2778.70900       8.49510       0.15708       8.50000       0.00898       6.34191       1.84433       1.91463       2.08505       2.05087       4.95947       2.42747       8.92099      12.95577 
