~Version Information
VERS  .          2.0                              :CWLS Log Ascii Standard - Version 2.0
WRAP  .          NO                               :One line per depth step
~Well Information Block
#MNEM.UNIT       Data Type                        Information
#---------       ---------                        -------------------------------
STRT  .M         2955.95000                       :START DEPTH
STOP  .M         3509.92500                       :STOP DEPTH
STEP  .M          0.15240                         :INCREMENT
NULL  .          -999.25                          :NULL DATA VALUE
COMP  .          StatoilHydro                                                                                                                      :COMPANY
WELL  .          15/9-F-4                         :WELL
FLD   .          Volve                            :FIELD
LOC   .                                           :LOCATION
PROV  .                                           :PROVINCE
STAT  .                                           :STATE
CNTY  .                                           :COUNTY
CTRY  .                                           :COUNTRY
DATE  .                                           :DATE
UWI   .          15/9-F-4                         :UNIQUE WELL UWI
LIC   .                                           :LICENSE NUMBER
API   .                                                                                                                                            :API NUMBER
SRVC  .                                           :SERVICE COMPANY
~Parameter Information Block
#MNEM.UNIT       Value                            Description
#---------       ---------                        -------------
~Curve Information Block
#MNEM.UNIT       API Code            Curve    Description
#--------        --------------      -----    -------------------
DEPT  .M                             :0       Index
BCAV  .IN                            :1       Best Caliper, Average Diameter
BPHI  .V/V                           :2       Best Thermal Neutron Porosity, Average
BS    .IN                            :3       Bit Size                      
DRHB  .G/C3                          :4       Bulk Density Correction, Bottom
GRMA  .GAPI                          :5       Gamma Ray, Average            
P16H  .OHMM                          :6       ARC Phase Shift Resistivity 16 inch Spacing at 2 MHz, Environmentally Corrected_
P22H  .OHMM                          :7       ARC Phase Shift Resistivity 22 inch Spacing at 2 MHz, Environmentally Corrected_
P34H  .OHMM                          :8       ARC Phase Shift Resistivity 34 inch Spacing at 2 MHz, Environmentally Corrected_
P40H  .OHMM                          :9       ARC Phase Shift Resistivity 40 inch Spacing at 2 MHz, Environmentally Corrected_
PEB   .                              :10      Photoelectric Factor, Bottom  
ROBB  .G/C3                          :11      Bulk Density, Bottom          
ROP5_RM.M/HR                          :12      Rate of penetration averaged over last 5 ft(1_5 m), Recorded Mode
RT_ARC.OHMM                          :13      ARC True Formation Resistivity
SIFA  .CU                            :14      Sigma Formation, Average      
~Ascii Data Section
   2955.95000       8.61099       0.12691       8.50000       0.01710      25.72175       2.80913       2.80651       2.86047       2.94335       4.67876       2.58219    -304.57141       2.82509      14.22638 
   2956.10240       8.61099       0.12691       8.50000       0.01710      25.72175       2.80913       2.80651       2.86047       2.94335       4.67876       2.58219    -304.57141       2.82509      14.22638 
   2956.25480       8.61099       0.12313       8.50000       0.01710      25.72175       2.80913       2.80651       2.86047       2.94335       4.67876       2.58219    -304.57141       2.82509      13.88190 
   2956.40720       8.61099       0.12298       8.50000       0.01710      25.72175       2.80913       2.80651       2.86047       2.94335       4.67876       2.58219    -304.57141       2.82509      13.56491 
   2956.55960       8.61099       0.11955       8.50000       0.01710      25.72175       2.80913       2.80651       2.86047       2.94335       4.67876       2.58219    -304.57141       2.82509      13.77793 
   2956.71200       8.61099       0.12061       8.50000       0.01710      25.72175       2.80913       2.80651       2.86047       2.94335       4.67876       2.58219    -304.57141       2.82509      14.23144 
   2956.86440       8.61099       0.11662       8.50000       0.01710      25.72175       2.84186       2.82540       2.85657       2.99456       4.67876       2.58219    -304.57141       2.80628      14.08599 
   2957.01680       8.61099       0.11496       8.50000       0.01710      25.72175       2.77066       2.71846       2.71009       2.75530       4.67876       2.58219    -304.57141       2.76992      14.48732 
   2957.16920       8.61099       0.12672       8.50000       0.01710      25.72175       2.61970       2.69856       2.77211       2.82058       4.67876       2.58219    -304.57141       2.72018      15.49586 
   2957.32160       8.61099       0.11900       8.50000       0.01710      25.72175       2.56531       2.63279       2.69216       2.79731       4.67876       2.58219    -304.57141       2.68175      15.37475 
   2957.47400       8.61099       0.12184       8.50000       0.01710      25.72175       2.30886       2.23404       2.10226       2.11221       4.67876       2.58219    -304.57141       2.69077      15.55328 
   2957.62640       8.61099       0.13302       8.50000       0.01710      25.72175       2.57703       2.58370       2.60743       2.62364       4.67876       2.58219    -304.57141       2.76451      15.12597 
   2957.77880       8.61099       0.12305       8.50000       0.01710      25.72175       2.99047       3.00446       3.06099       3.08993       4.67876       2.58219    -304.57141       2.88533      14.29046 
   2957.93120       8.61099       0.12085       8.50000       0.01710      25.72175       3.02907       3.02257       3.03674       3.06167       4.67876       2.58219    -304.57141       3.01371      14.32682 
   2958.08360       8.61099       0.10546       8.50000       0.01710      25.72175       3.12114       3.12165       3.06013       3.09235       4.67876       2.58219    -304.57141       3.12317      14.12480 
   2958.23600       8.61099       0.11387       8.50000       0.01710      25.72175       3.28102       3.27630       3.07616       3.07486       4.67876       2.58219    -304.57141       3.21371      14.24674 
   2958.38840       8.60526       0.12566       8.50000       0.01705      25.72175       3.36083       3.35319       3.34469       3.39581       4.72194       2.57711    -304.57141       3.28670      13.88354 
   2958.54080       8.59296       0.11826       8.50000       0.01344      25.72175       3.41998       3.41254       3.39437       3.43008       4.88755       2.56507    -304.57141       3.33350      14.10563 
   2958.69320       8.60137       0.12684       8.50000       0.01448      25.72175       3.40766       3.42984       3.38913       3.43691       5.03959       2.56206    -304.57141       3.34388      14.40175 
   2958.84560       8.58518       0.11740       8.50000       0.01085      25.72175       3.31316       3.34063       3.30662       3.34605       5.07098       2.55761    -304.57141       3.32304      14.42421 
   2958.99800       8.57694       0.11400       8.50000       0.00974      25.72175       3.17248       3.21186       3.16926       3.20677       4.95789       2.56920    -304.57141       3.28775      14.76009 
   2959.15040       8.57344       0.11459       8.50000       0.00600      25.72175       3.23392       3.24681       3.20941       3.24288       4.94478       2.56244    -304.57141       3.24997      14.58477 
   2959.30280       8.57462       0.11162       8.50000       0.00158      25.72175       3.19279       3.16729       3.13899       3.17018       4.94285       2.55154    -304.57141       3.20615      14.63428 
   2959.45520       8.57959       0.11870       8.50000       0.00266      24.85542       3.21608       3.20983       3.21256       3.28134       5.00859       2.54131    -304.57141       3.14506      15.24006 
   2959.60760       8.57805       0.12777       8.50000       0.00685      23.76380       3.02079       3.04501       3.00100       2.98936       5.04057       2.54207    -304.57141       3.06546      15.18450 
   2959.76000       8.56334       0.12987       8.50000       0.01658      22.93307       2.85663       2.89866       2.89407       2.88554       5.14335       2.54287    -304.57141       2.98614      15.09670 
   2959.91240       8.56546       0.13192       8.50000       0.02090      21.69483       2.73309       2.70562       2.66140       2.71960       5.19874       2.53718    -304.57141       2.93228      14.82632 
   2960.06480       8.55599       0.13186       8.50000       0.01380      20.26459       2.73555       2.76543       2.78760       2.84145       5.10688       2.52266    -304.57141       2.92165      15.32690 
   2960.21720       8.55272       0.13564       8.50000       0.01300      19.58954       2.77663       2.78637       2.80115       2.79191       4.97871       2.52311    -304.57141       2.95945      14.59221 
   2960.36960       8.57875       0.12641       8.50000       0.00672      18.40889       2.91438       2.90291       2.90389       2.86971       4.73109       2.52548    -304.57141       3.04963      14.41672 
   2960.52200       8.58921       0.11980       8.50000       0.00579      17.32610       2.98457       2.93501       2.80211       2.77062       4.60575       2.53640    -304.57141       3.19285      13.73465 
   2960.67440       8.59873       0.11273       8.50000       0.00692      16.23697       3.32381       3.41973       3.42841       3.42236       4.60443       2.54490    -304.57141       3.37406      13.37248 
   2960.82680       8.58038       0.11508       8.50000       0.01366      15.61950       3.65294       3.69560       3.70480       3.74318       4.86011       2.54660    -304.57141       3.56123      13.32434 
   2960.97920       8.56784       0.11351       8.50000       0.00173      14.34523       3.69863       3.71270       3.70966       3.72806       4.97949       2.54133    -304.57141       3.73067      13.54726 
   2961.13160       8.58240       0.09791       8.50000       0.00556      13.78646       3.90422       3.84347       3.62073       3.54373       4.89693       2.55123    -304.57141       3.88604      13.70994 
   2961.28400       8.60177       0.09109       8.50000       0.01052      12.53825       4.05971       4.03285       3.87751       3.86843       4.83486       2.55683    -304.57141       4.04139      13.18997 
   2961.43640       8.63727       0.09587       8.50000       0.01694      11.20334       4.33994       4.38426       4.35566       4.33671       4.90155       2.56485    -304.57141       4.18684      12.75562 
   2961.58880       8.64041       0.09720       8.50000       0.01838      10.76397       4.52250       4.49110       4.40830       4.41686       5.17583       2.55787    -304.57141       4.29658      12.60284 
