~Version Information
VERS  .          2.0                              :CWLS Log Ascii Standard - Version 2.0
WRAP  .          NO                               :One line per depth step
~Well Information Block
#MNEM.UNIT       Data Type                        Information
#---------       ---------                        -------------------------------
STRT  .M         2955.95000                       :START DEPTH
STOP  .M         3509.92500                       :STOP DEPTH
STEP  .M          0.15240                         :INCREMENT
NULL  .          -999.25                          :NULL DATA VALUE
COMP  .          StatoilHydro                                                                                                                      :COMPANY
WELL  .          15/9-F-4                         :WELL
FLD   .          Volve                            :FIELD
LOC   .                                           :LOCATION
PROV  .                                           :PROVINCE
STAT  .                                           :STATE
CNTY  .                                           :COUNTY
CTRY  .                                           :COUNTRY
DATE  .                                           :DATE
UWI   .          15/9-F-4                         :UNIQUE WELL UWI
LIC   .                                           :LICENSE NUMBER
API   .                                                                                                                                            :API NUMBER
SRVC  .                                           :SERVICE COMPANY
~Parameter Information Block
#MNEM.UNIT       Value                            Description
#---------       ---------                        -------------
~Curve Information Block
#MNEM.UNIT       API Code            Curve    Description
#--------        --------------      -----    -------------------
DEPT  .M                             :0       Index
BCAV  .IN                            :1       Best Caliper, Average Diameter
BPHI  .V/V                           :2       Best Thermal Neutron Porosity, Average
BS    .IN                            :3       Bit Size                      
DRHB  .G/C3                          :4       Bulk Density Correction, Bottom
GRMA  .GAPI                          :5       Gamma Ray, Average            
P16H  .OHMM                          :6       ARC Phase Shift Resistivity 16 inch Spacing at 2 MHz, Environmentally Corrected_
P22H  .OHMM                          :7       ARC Phase Shift Resistivity 22 inch Spacing at 2 MHz, Environmentally Corrected_
P34H  .OHMM                          :8       ARC Phase Shift Resistivity 34 inch Spacing at 2 MHz, Environmentally Corrected_
P40H  .OHMM                          :9       ARC Phase Shift Resistivity 40 inch Spacing at 2 MHz, Environmentally Corrected_
PEB   .                              :10      Photoelectric Factor, Bottom  
ROBB  .G/C3                          :11      Bulk Density, Bottom          
ROP5_RM.M/HR                          :12      Rate of penetration averaged over last 5 ft(1_5 m), Recorded Mode
RT_ARC.OHMM                          :13      ARC True Formation Resistivity
SIFA  .CU                            :14      Sigma Formation, Average      
~Ascii Data Section
# ...
   2990.69720       8.54444       0.11181       8.50000       0.02187      24.48232       5.09694       5.10494       5.16378       5.09481       5.07208       2.52294      49.42768       5.14432      13.58676 
   2990.84960       8.54456       0.09970       8.50000       0.02050      21.85627       4.95434       4.90206       4.89160       4.84019       5.16638       2.52607      49.42768       5.27625      12.95620 
   2991.00200       8.51179       0.10539       8.50000       0.01417      18.99719       5.95611       5.69569       5.55821       5.39707       5.01089       2.52865      49.42768       5.41494      12.23518 
   2991.15440       8.49955       0.10008       8.50000       0.00598      15.93029       6.29976       5.95727       5.69711       5.56952       4.83829       2.52512      49.42768       5.49388      12.40529 
   2991.30680       8.51058       0.09264       8.50000       0.01178      13.83085       6.12100       5.87342       5.69500       5.64885       4.85189       2.53111      49.42768       5.46874      12.63762 
   2991.45920       8.56329       0.09973       8.50000       0.01506      13.51930       5.82512       5.66441       5.38581       5.23190       4.90865       2.53882      48.39602       5.32791      12.96962 
   2991.61160       8.56092       0.10205       8.50000       0.01672      13.46802       5.51085       5.40457       5.23480       5.28679       5.04074       2.53121      47.71188       5.08166      14.25598 
   2991.76400       8.56230       0.11423       8.50000       0.01518      15.62041       4.93593       4.90906       4.70765       4.86205       4.95362       2.52907      43.20349       4.73934      14.31464 
   2991.91640       8.54583       0.12466       8.50000       0.01398      20.37137       4.34996       4.53302       4.56716       4.93724       4.91197       2.51937      39.75638       4.33928      15.42960 
   2992.06880       8.54779       0.13354       8.50000       0.00910      26.71830       3.06300       3.30487       3.32287       3.32868       4.87896       2.50722      37.07076       3.96949      17.00485 
   2992.22120       8.54599       0.14107       8.50000       0.01403      31.60931       2.98125       3.13851       3.27977       3.41587       4.97111       2.49520      33.53782       3.74169      17.99882 
   2992.37360       8.64426       0.13669       8.50000       0.03951      35.46559       2.97901       3.03540       3.07470       3.09312       5.87968       2.51994      30.62918       3.76797      17.65835 
   2992.52600       8.69107       0.10793       8.50000       0.06088      35.23390       2.95975       2.87290       2.67572       2.60244       6.26993       2.55486      30.14392       4.12871      14.97369 
   2992.67840       8.62800       0.08413       8.50000       0.05298      31.45168       4.93477       4.71442       4.81505       4.75560       5.98767       2.56620      25.56060       4.80852      13.00504 
   2992.83080       8.53143       0.08926       8.50000       0.02164      25.39764       6.60742       6.12885       6.33074       6.72303       4.93956       2.55801      21.35484       5.60173      12.87649 
   2992.98320       8.47076       0.08621       8.50000       0.00043      20.38980       7.14735       6.85267       6.98372       7.17956       4.42491       2.54023      19.23719       6.14003      12.22116 
   2993.13560       8.50192       0.08676       8.50000       0.00384      17.50576       6.94114       6.69242       6.41875       6.58353       4.56533       2.53979      19.78465       6.20488      13.38795 
   2993.28800       8.51070       0.09321       8.50000       0.00334      17.71594       6.22040       6.02020       5.82175       6.17693       4.63103       2.53098      17.81902       5.91511      13.96160 
   2993.44040       8.53061       0.10306       8.50000       0.00571      21.12376       5.16338       5.38490       5.38548       5.49716       4.72315       2.52754      12.16494       5.51424      15.22715 
   2993.59280       8.53940       0.11895       8.50000       0.00579      24.88205       4.75622       5.02962       5.11990       5.18538       4.73644       2.52864      12.16494       5.18362      16.21350 
   2993.74520       8.50923       0.11334       8.50000      -0.00021      25.45265       4.14444       4.13163       3.96156       3.80591       4.61033       2.52350       9.57300       5.01637      15.02140 
   2993.89760       8.49081       0.10830       8.50000      -0.00185      24.45564       4.36949       4.38118       4.30465       4.27956       4.45049       2.52660       9.02357       5.03471      14.31482 
   2994.05000       8.47314       0.10684       8.50000      -0.00514      23.68897       5.13235       5.23856       5.50808       5.57412       4.34167       2.52347       8.16731       5.18330      14.04261 
   2994.20240       8.49351       0.10447       8.50000      -0.00047      21.01137       5.34771       5.31134       5.48410       5.48407       4.31161       2.53263       8.00923       5.36480      13.79254 
   2994.35480       8.49866       0.10081       8.50000      -0.00417      18.65697       5.49972       5.45890       5.22916       5.15280       4.25139       2.52698       7.19056       5.51236      13.48602 
   2994.50720       8.51299       0.10041       8.50000      -0.00071      19.38158       5.67834       5.61702       5.44427       5.37142       4.28503       2.53584       6.48634       5.63464      13.88299 
   2994.65960       8.52274       0.09535       8.50000      -0.00117      20.17484       5.79540       5.74188       5.60286       5.52905       4.28336       2.54926       5.84943       5.75795      14.36322 
   2994.81200       8.53606       0.10317       8.50000       0.00173      19.75140       6.18123       6.06868       5.99852       5.94384       4.38046       2.56599       5.56433       5.87455      13.60693 
   2994.96440       8.51569       0.09805       8.50000       0.00000      19.88509       6.35169       6.20732       6.04562       5.97993       4.31359       2.56439       5.70729       5.94464      13.66732 
   2995.11680       8.49165       0.09544       8.50000      -0.00348      19.41889       6.35333       6.22879       6.06311       6.05977       4.35462       2.54881       6.05870       5.92893      14.07146 
   2995.26920       8.48686       0.10042       8.50000      -0.00137      18.91748       6.06627       6.03605       5.94170       5.92677       4.36772       2.54167       6.25586       5.81401      14.39485 
   2995.42160       8.49364       0.10774       8.50000      -0.00030      19.46541       5.81553       5.83059       5.76284       5.90348       4.33889       2.53758       6.56310       5.61251      14.49915 
   2995.57400       8.48905       0.11232       8.50000      -0.00030      19.91492       5.40137       5.44235       5.35491       5.42843       4.32442       2.53337       6.64627       5.36131      15.21497 
   2995.72640       8.46068       0.11682       8.50000      -0.00437      20.48232       4.83412       4.99420       4.93944       4.65617       4.16945       2.51517       6.82782       5.11222      14.81928 
   2995.87880       8.44250       0.11970       8.50000      -0.00719      21.47974       4.80870       4.86361       4.86867       4.70717       4.10779       2.49046       7.13451       4.90439      14.73087 
   2996.03120       8.46777       0.11891       8.50000      -0.00359      21.68048       4.77549       4.53533       4.37457       4.40163       3.90144       2.48914       8.46956       4.73879      14.70959 
   2996.18360       8.51149       0.12420       8.50000      -0.00288      22.52319       4.45990       4.42054       4.44306       4.67983       3.91798       2.49119       9.45190       4.56542      14.89606 
   2996.33600       8.55433       0.13025       8.50000       0.00359      25.80912       4.35011       4.61555       4.90864       5.28912       3.90746       2.51118       9.93910       4.33991      16.07146 
