~Version Information
VERS  .          2.0                              :CWLS Log Ascii Standard - Version 2.0
WRAP  .          NO                               :One line per depth step
~Well Information Block
#MNEM.UNIT       Data Type                        Information
#---------       ---------                        -------------------------------
STRT  .M         2955.95000                       :START DEPTH
STOP  .M         3509.92500                       :STOP DEPTH
STEP  .M          0.15240                         :INCREMENT
NULL  .          -999.25                          :NULL DATA VALUE
COMP  .          StatoilHydro                                                                                                                      :COMPANY
WELL  .          15/9-F-4                         :WELL
FLD   .          Volve                            :FIELD
LOC   .                                           :LOCATION
PROV  .                                           :PROVINCE
STAT  .                                           :STATE
CNTY  .                                           :COUNTY
CTRY  .                                           :COUNTRY
DATE  .                                           :DATE
UWI   .          15/9-F-4                         :UNIQUE WELL UWI
LIC   .                                           :LICENSE NUMBER
API   .                                                                                                                                            :API NUMBER
SRVC  .                                           :SERVICE COMPANY
~Parameter Information Block
#MNEM.UNIT       Value                            Description
#---------       ---------                        -------------
~Curve Information Block
#MNEM.UNIT       API Code            Curve    Description
#--------        --------------      -----    -------------------
DEPT  .M                             :0       Index
BCAV  .IN                            :1       Best Caliper, Average Diameter
BPHI  .V/V                           :2       Best Thermal Neutron Porosity, Average
BS    .IN                            :3       Bit Size                      
DRHB  .G/C3                          :4       Bulk Density Correction, Bottom
GRMA  .GAPI                          :5       Gamma Ray, Average            
P16H  .OHMM                          :6       ARC Phase Shift Resistivity 16 inch Spacing at 2 MHz, Environmentally Corrected_
P22H  .OHMM                          :7       ARC Phase Shift Resistivity 22 inch Spacing at 2 MHz, Environmentally Corrected_
P34H  .OHMM                          :8       ARC Phase Shift Resistivity 34 inch Spacing at 2 MHz, Environmentally Corrected_
P40H  .OHMM                          :9       ARC Phase Shift Resistivity 40 inch Spacing at 2 MHz, Environmentally Corrected_
PEB   .                              :10      Photoelectric Factor, Bottom  
ROBB  .G/C3                          :11      Bulk Density, Bottom          
ROP5_RM.M/HR                          :12      Rate of penetration averaged over last 5 ft(1_5 m), Recorded Mode
RT_ARC.OHMM                          :13      ARC True Formation Resistivity
SIFA  .CU                            :14      Sigma Formation, Average      
~Ascii Data Section
# ...
   3471.36680       8.61436       0.13584       8.50000       0.01108      69.18095       2.01541       2.04322       2.18094       2.25512       3.50335       2.58036      20.86080       2.14493      22.46667 
   3471.51920       8.61837       0.12998       8.50000       0.00878      70.67959       2.03009       2.00519       2.11219       2.17602       3.43110       2.58417      20.85985       2.07303      22.50407 
   3471.67160       8.59246       0.13078       8.50000       0.00777      71.47242       1.98681       1.97571       2.04171       2.04228       3.32361       2.58290      21.42538       2.01706      23.14725 
   3471.82400       8.55442       0.13011       8.50000       0.00329      71.62701       2.02861       1.97793       2.00753       2.01143       3.20404       2.57181      22.85705       1.97427      22.95031 
   3471.97640       8.53833       0.13592       8.50000       0.00226      71.37289       1.99055       1.98101       2.00855       1.98438       3.10495       2.56101      23.85607       1.93531      23.12516 
   3472.12880       8.49880       0.13919       8.50000       0.00284      70.47881       1.94350       1.93595       1.96057       1.92767       3.16809       2.53297      26.91648       1.88633      22.51223 
   3472.28120       8.49273       0.14841       8.50000       0.01750      69.07498       1.82056       1.86900       1.94289       1.89228       3.37170       2.51031      27.45231       1.81429      21.83563 
   3472.43360       8.49074       0.14810       8.50000       0.02802      65.95676       1.77824       1.79241       1.77694       1.76993       3.61774       2.48135      27.57002       1.71479      21.69958 
   3472.58600       8.48907       0.15210       8.50000       0.02303      61.86649       1.58596       1.57118       1.51146       1.46599       3.69829       2.45618      28.35736       1.59726      20.89277 
   3472.73840       8.58408       0.15026       8.50000       0.03322      57.69920       1.27980       1.31890       1.34580       1.29004       3.64358       2.47695      29.07367       1.48305      20.84336 
   3472.89080       8.64410       0.14584       8.50000       0.04152      55.03166       1.20709       1.22639       1.27133       1.26957       3.93276       2.48001      29.33720       1.39583      20.00349 
   3473.04320       8.71678       0.14357       8.50000       0.05978      53.03082       1.13306       1.11225       1.10469       1.08436       4.14347       2.49496      29.34103       1.35380      19.84191 
   3473.19560       8.69323       0.14075       8.50000       0.04430      51.08950       1.10161       1.10151       1.07010       1.02721       4.21633       2.47161      29.42906       1.36493      19.46707 
   3473.34800       8.70564       0.12321       8.50000       0.04424      49.31659       1.35409       1.31862       1.27866       1.24504       4.13923       2.49563      29.49507       1.42233      18.10451 
   3473.50040       8.74042       0.11698       8.50000       0.04966      47.52739       1.62515       1.56291       1.46145       1.38702       4.25604       2.52820      29.33911       1.50328      17.87873 
   3473.65280       8.79887       0.12002       8.50000       0.05763      44.86807       1.88221       1.80844       1.65788       1.61399       4.36527       2.55915      29.34103       1.57761      18.27304 
   3473.80520       8.81547       0.10792       8.50000       0.05144      42.58668       1.81589       1.76386       1.66541       1.64033       4.03916       2.56786      29.34103       1.62719      18.08492 
   3473.95760       8.77759       0.10526       8.50000       0.03358      41.27983       1.76936       1.73211       1.64468       1.59563       3.56922       2.56407      29.33712       1.65279      17.31565 
   3474.11000       8.68172       0.12145       8.50000       0.01343      42.25383       1.79118       1.75185       1.64242       1.60858       3.22860       2.54670      27.58721       1.66023      18.25068 
   3474.26240       8.64852       0.12363       8.50000       0.01557      44.75873       1.75780       1.72850       1.65157       1.62330       3.17842       2.54492      26.26770       1.64763      18.30198 
   3474.41480       8.62782       0.13217       8.50000       0.01828      47.83747       1.72914       1.72869       1.70353       1.65193       3.22587       2.52556      25.12077       1.60996      18.17793 
   3474.56720       8.69596       0.13391       8.50000       0.03355      50.68989       1.60074       1.59731       1.57593       1.53473       3.18447       2.53023      24.60285       1.54999      19.44381 
   3474.71960       8.71669       0.13719       8.50000       0.02439      54.54116       1.48158       1.49017       1.47634       1.46800       3.08732       2.51377      23.14813       1.47780      20.01632 
   3474.87200       8.73930       0.14638       8.50000       0.01763      57.48611       1.41716       1.46322       1.42721       1.42353       3.07166       2.50779      20.86162       1.40202      20.54097 
   3475.02440       8.78086       0.16624       8.50000       0.02890      59.86764       1.31110       1.33583       1.32293       1.32608       3.37865       2.49624      17.25934       1.32963      21.58352 
   3475.17680       8.82513       0.16099       8.50000       0.05352      61.23076       1.16701       1.18683       1.18721       1.18428       4.12406       2.48687      16.93337       1.26952      21.25674 
   3475.32920       8.86860       0.15552       8.50000       0.07605      61.36028       1.14018       1.14875       1.13284       1.11798       4.43539       2.48950      16.51928       1.23094      20.88615 
   3475.48160       8.79246       0.15521       8.50000       0.05675      60.62825       1.17741       1.15135       1.11281       1.08008       4.12515       2.47572      16.60652       1.21610      21.01631 
   3475.63400       8.72066       0.15340       8.50000       0.03145      60.36394       1.25415       1.19348       1.13771       1.09444       3.38862       2.47909      16.77791       1.21759      20.91477 
   3475.78640       8.62525       0.15095       8.50000       0.00687      60.13758       1.36510       1.30275       1.25279       1.22092       3.07557       2.46521      17.55947       1.22363      21.21170 
   3475.93880       8.60767       0.15617       8.50000       0.00675      59.85122       1.34639       1.29966       1.24103       1.22225       3.04646       2.46597      18.15445       1.22634      20.72818 
   3476.09120       8.58307       0.15595       8.50000       0.00167      60.12077       1.27703       1.24215       1.19292       1.23147       2.97382       2.44982      18.41090       1.22460      20.80072 
   3476.24360       8.58786       0.16049       8.50000       0.00531      61.53007       1.25626       1.23064       1.19864       1.26651       2.90571       2.44785      19.31784       1.22113      21.26573 
   3476.39600       8.60873       0.16104       8.50000       0.01548      61.12482       1.21221       1.21470       1.16577       1.20598       2.92867       2.45409      22.32064       1.21822      21.24853 
   3476.54840       8.63168       0.16493       8.50000       0.01781      58.78312       1.15735       1.19122       1.21272       1.33732       2.83700       2.44775      24.33096       1.21763      22.08659 
   3476.70080       8.66802       0.16781       8.50000       0.02354      58.36941       1.12287       1.17099       1.18421       1.26867       2.89158       2.45257      24.43848       1.22311      21.76752 
   3476.85320       8.72969       0.16142       8.50000       0.03216      56.72385       1.10224       1.10386       1.08114       1.11616       3.03558       2.46545      24.38400       1.24556      21.65351 
   3477.00560       8.80624       0.15591       8.50000       0.04933      53.95529       1.12788       1.11847       1.10299       1.13143       3.53313       2.49419      24.33131       1.30790      21.64359 
