~Version Information
VERS  .          2.0                              :CWLS Log Ascii Standard - Version 2.0
WRAP  .          NO                               :One line per depth step
~Well Information Block
#MNEM.UNIT       Data Type                        Information
#---------       ---------                        -------------------------------
STRT  .M         2955.95000                       :START DEPTH
STOP  .M         3509.92500                       :STOP DEPTH
STEP  .M          0.15240                         :INCREMENT
NULL  .          -999.25                          :NULL DATA VALUE
COMP  .          StatoilHydro                                                                                                                      :COMPANY
WELL  .          15/9-F-4                         :WELL
FLD   .          Volve                            :FIELD
LOC   .                                           :LOCATION
PROV  .                                           :PROVINCE
STAT  .                                           :STATE
CNTY  .                                           :COUNTY
CTRY  .                                           :COUNTRY
DATE  .                                           :DATE
UWI   .          15/9-F-4                         :UNIQUE WELL UWI
LIC   .                                           :LICENSE NUMBER
API   .                                                                                                                                            :API NUMBER
SRVC  .                                           :SERVICE COMPANY
~Parameter Information Block
#MNEM.UNIT       Value                            Description
#---------       ---------                        -------------
~Curve Information Block
#MNEM.UNIT       API Code            Curve    Description
#--------        --------------      -----    -------------------
DEPT  .M                             :0       Index
BCAV  .IN                            :1       Best Caliper, Average Diameter
BPHI  .V/V                           :2       Best Thermal Neutron Porosity, Average
BS    .IN                            :3       Bit Size                      
DRHB  .G/C3                          :4       Bulk Density Correction, Bottom
GRMA  .GAPI                          :5       Gamma Ray, Average            
P16H  .OHMM                          :6       ARC Phase Shift Resistivity 16 inch Spacing at 2 MHz, Environmentally Corrected_
P22H  .OHMM                          :7       ARC Phase Shift Resistivity 22 inch Spacing at 2 MHz, Environmentally Corrected_
P34H  .OHMM                          :8       ARC Phase Shift Resistivity 34 inch Spacing at 2 MHz, Environmentally Corrected_
P40H  .OHMM                          :9       ARC Phase Shift Resistivity 40 inch Spacing at 2 MHz, Environmentally Corrected_
PEB   .                              :10      Photoelectric Factor, Bottom  
ROBB  .G/C3                          :11      Bulk Density, Bottom          
ROP5_RM.M/HR                          :12      Rate of penetration averaged over last 5 ft(1_5 m), Recorded Mode
RT_ARC.OHMM                          :13      ARC True Formation Resistivity
SIFA  .CU                            :14      Sigma Formation, Average      
~Ascii Data Section
# ...
   3141.26840       8.51708       0.27538       8.50000       0.00460     137.02339       1.66205       1.71745       1.73152       1.73906       3.48782       2.46079      12.27039       1.76343      36.67793 
   3141.42080       8.53982       0.27991       8.50000       0.00321     138.88045       1.59600       1.65117       1.69047       1.67619       3.57175       2.45179      12.52601       1.73150      36.04738 
   3141.57320       8.51732       0.27916       8.50000       0.00241     138.48152       1.60741       1.64424       1.68416       1.72028       3.72425       2.44249      12.52566       1.71457      37.28092 
   3141.72560       8.50735       0.29484       8.50000       0.00970     137.43607       1.63457       1.62815       1.66287       1.73606       3.95499       2.43843      12.52577       1.71448      36.24515 
   3141.87800       8.50147       0.28231       8.50000       0.00972     136.70937       1.65032       1.61397       1.67576       1.77173       3.97567       2.43627      19.87819       1.72830      36.73786 
   3142.03040       8.51715       0.27712       8.50000       0.00758     136.12578       1.73396       1.72216       1.86847       1.99754       3.98940       2.44354      19.87819       1.74775      37.07292 
   3142.18280       8.53001       0.28250       8.50000       0.00010     135.06020       1.70414       1.72834       1.91549       2.04695       3.82413       2.44756      19.84228       1.76415      35.14712 
   3142.33520       8.53767       0.28499       8.50000      -0.00100     134.53268       1.69034       1.69182       1.83510       1.96628       3.80019       2.45040      19.87819       1.77338      34.69160 
   3142.48760       8.54139       0.28185       8.50000      -0.00051     134.58138       1.67913       1.71116       1.85099       1.90366       3.93734       2.45412      19.87819       1.77872      35.30244 
   3142.64000       8.52327       0.27804       8.50000       0.00163     135.11250       1.65216       1.67589       1.79728       1.84215       4.08794       2.45229      19.87819       1.78417      36.21788 
   3142.79240       8.52362       0.27186       8.50000       0.00525     136.65730       1.71092       1.75078       1.93607       1.99174       4.10900       2.45414      19.87819       1.79044      35.98231 
   3142.94480       8.52150       0.27609       8.50000       0.00343     136.97670       1.67614       1.72823       1.78001       1.73770       3.77649       2.45124      19.84228       1.79654      35.42889 
   3143.09720       8.55705       0.26927       8.50000       0.00116     137.24516       1.71496       1.81146       1.87063       1.83692       3.61445       2.45540      19.87819       1.80320      34.24239 
   3143.24960       8.61174       0.27163       8.50000       0.00783     137.52504       1.68887       1.74307       1.76554       1.74447       3.88724       2.46444      19.84228       1.81224      35.73495 
   3143.40200       8.61699       0.27343       8.50000       0.01675     137.52925       1.74924       1.82138       1.89768       1.90936       4.42933       2.46445      19.80636       1.82046      35.56311 
   3143.55440       8.56119       0.27956       8.50000       0.02242     135.80023       1.72698       1.84243       2.01932       2.04334       4.62382       2.45749      19.87819       1.81801      36.53288 
   3143.70680       8.50312       0.28489       8.50000       0.01534     134.72989       1.75796       1.82763       1.91843       2.01866       4.29353       2.44240      19.87819       1.79843      36.70396 
   3143.85920       8.47814       0.28155       8.50000       0.00844     135.46600       1.68031       1.67588       1.76430       1.89069       3.80433       2.44001      19.87819       1.76584      36.55516 
   3144.01160       8.50328       0.27888       8.50000       0.00246     135.66176       1.64661       1.63245       1.73770       1.87442       3.63196       2.44204      19.59224       1.73314      36.94522 
   3144.16400       8.52983       0.28411       8.50000       0.00338     137.11316       1.59986       1.59366       1.76249       1.88280       3.71342       2.44519      19.59224       1.70911      36.51326 
   3144.31640       8.55577       0.27726       8.50000       0.01175     137.48466       1.63300       1.62581       1.80914       1.93890       4.15103       2.44956      19.59224       1.69468      35.41366 
   3144.46880       8.57524       0.28645       8.50000       0.02079     138.81642       1.56574       1.58207       1.73096       1.75496       4.43436       2.45539      19.59224       1.68722      37.16447 
   3144.62120       8.54009       0.28322       8.50000       0.01412     138.05901       1.55552       1.59706       1.76346       1.80317       4.37334       2.44911      19.59224       1.68437      36.92083 
   3144.77360       8.51336       0.27823       8.50000       0.00472     137.71292       1.57839       1.60213       1.79587       1.88829       4.01119       2.44227      19.59223       1.68396      36.36847 
   3144.92600       8.50463       0.27804       8.50000       0.00157     136.79982       1.58654       1.59712       1.75595       1.82309       3.93023       2.44337      19.59437       1.68341      35.98994 
   3145.07840       8.52493       0.27551       8.50000       0.01061     136.87460       1.56665       1.60526       1.73764       1.73711       4.07247       2.45275      19.59411       1.68116      37.11953 
   3145.23080       8.51292       0.28084       8.50000       0.01425     136.25204       1.54817       1.58705       1.70824       1.68821       4.15339       2.45252      17.81254       1.67928      35.38890 
   3145.38320       8.50477       0.28065       8.50000       0.01503     137.80157       1.51760       1.55759       1.66544       1.63929       4.15289       2.44619      17.81254       1.68089      35.61569 
   3145.53560       8.51744       0.29430       8.50000       0.01818     138.46704       1.53347       1.57632       1.71476       1.71746       4.09741       2.45060      17.81254       1.68754      36.96506 
   3145.68800       8.52057       0.27722       8.50000       0.01631     138.09322       1.55375       1.62519       1.65966       1.65894       4.01789       2.44983      17.81254       1.69756      37.04006 
   3145.84040       8.49014       0.27518       8.50000       0.01463     138.49121       1.59267       1.66108       1.70930       1.77162       4.21413       2.44385      17.81254       1.70907      37.98663 
   3145.99280       8.50050       0.28042       8.50000       0.02510     138.22800       1.56974       1.63919       1.65042       1.66306       4.60221       2.45329      17.81253       1.72345      38.02451 
   3146.14520       8.53942       0.29110       8.50000       0.03540     138.49139       1.60535       1.67182       1.68049       1.69029       4.94815       2.46629      17.39990       1.74459      38.35733 
   3146.29760       8.58211       0.27999       8.50000       0.04312     139.15280       1.66237       1.70898       1.73291       1.77455       5.06421       2.47699      16.98583       1.77274      36.83210 
   3146.45000       8.59263       0.28398       8.50000       0.04751     139.49680       1.74626       1.79321       1.90183       2.02053       5.25059       2.47612      15.11406       1.80055      37.40024 
   3146.60240       8.57856       0.27039       8.50000       0.04869     138.24344       1.78996       1.83897       1.98415       2.10655       5.64941       2.46210      14.55271       1.81649      35.69113 
   3146.75480       8.55990       0.26786       8.50000       0.04818     139.03018       1.75127       1.76119       1.90089       2.01074       5.64046       2.45561      14.59143       1.81515      35.90218 
   3146.90720       8.54707       0.26687       8.50000       0.04310     136.47792       1.71667       1.68791       1.80721       1.90265       5.52891       2.45067      13.21819       1.79877      35.59134 
