~Version Information
VERS  .          2.0                              :CWLS Log Ascii Standard - Version 2.0
WRAP  .          NO                               :One line per depth step
~Well Information Block
#MNEM.UNIT       Data Type                        Information
#---------       ---------                        -------------------------------
STRT  .M         2741.37100                       :START DEPTH
STOP  .M         2992.67900                       :STOP DEPTH
STEP  .M          0.15240                         :INCREMENT
NULL  .          -999.25                          :NULL DATA VALUE
COMP  .          StatoilHydro                                                                                                                      :COMPANY
WELL  .          15/9-F-4                         :WELL
FLD   .          Volve                            :FIELD
LOC   .                                           :LOCATION
PROV  .                                           :PROVINCE
STAT  .                                           :STATE
CNTY  .                                           :COUNTY
CTRY  .                                           :COUNTRY
DATE  .                                           :DATE
UWI   .          15/9-F-4                         :UNIQUE WELL UWI
LIC   .                                           :LICENSE NUMBER
API   .                                                                                                                                            :API NUMBER
SRVC  .                                           :SERVICE COMPANY
~Parameter Information Block
#MNEM.UNIT       Value                            Description
#---------       ---------                        -------------
~Curve Information Block
#MNEM.UNIT       API Code            Curve    Description
#--------        --------------      -----    -------------------
DEPT  .M                             :0       Index
BCAV  .IN                            :1       Best Caliper, Average Diameter
BPHI  .V/V                           :2       Best Thermal Neutron Porosity, Average
BS_ARC.IN                            :3       Bit Size                      
DRHB  .G/C3                          :4       Bulk Density Correction, Bottom
GRMA  .GAPI                          :5       Gamma Ray, Average            
P16H  .OHMM                          :6       ARC Phase Shift Resistivity 16 inch Spacing at 2 MHz, Environmentally Corrected_
P22H  .OHMM                          :7       ARC Phase Shift Resistivity 22 inch Spacing at 2 MHz, Environmentally Corrected_
P34H  .OHMM                          :8       ARC Phase Shift Resistivity 34 inch Spacing at 2 MHz, Environmentally Corrected_
P40H  .OHMM                          :9       ARC Phase Shift Resistivity 40 inch Spacing at 2 MHz, Environmentally Corrected_
PEB   .                              :10      Photoelectric Factor, Bottom  
ROBB  .G/C3                          :11      Bulk Density, Bottom          
ROP5_RM.M/HR                          :12      Rate of penetration averaged over last 5 ft(1_5 m), Recorded Mode
SIFA  .CU                            :13      Sigma Formation, Average      
~Ascii Data Section
# ...
   2885.08420       8.52509       0.07263       8.50000       0.00518      11.15438       6.02559       6.08006       6.12270       6.20485       5.30913       2.60703      15.85683      12.12541 
   2885.23660       8.52582       0.07659       8.50000       0.00384      11.69494       5.63991       5.65947       5.56766       5.62777       5.26192       2.59308      15.94896      12.91068 
   2885.38900       8.53675       0.07508       8.50000       0.00698      12.14344       5.25581       5.32239       5.36909       5.37412       5.27332       2.59193      15.99508      12.98171 
   2885.54140       8.54283       0.08149       8.50000       0.00706      12.58003       5.08736       5.14912       5.12473       5.15364       5.21961       2.59203      16.01878      12.87131 
   2885.69380       8.53301       0.08437       8.50000       0.00255      12.92141       5.04789       5.08464       5.05865       5.08677       5.16297       2.59196      16.04232      13.14639 
   2885.84620       8.53386       0.08144       8.50000       0.00041      12.18415       4.98358       5.01263       5.00354       4.96527       5.09380       2.59159      16.08899      12.85537 
   2885.99860       8.52792       0.08516       8.50000      -0.00313      11.94821       5.23797       5.22803       5.31711       5.28343       5.02844       2.58865      15.99508      12.34293 
   2886.15100       8.51984       0.08192       8.50000      -0.00351      12.17118       5.22352       5.19290       5.21005       5.15315       5.01383       2.58874      16.01878      12.26876 
   2886.30340       8.52876       0.08338       8.50000      -0.00083      11.92850       5.40170       5.31407       5.22820       5.20743       5.02208       2.59592      15.99566      12.11086 
   2886.45580       8.53534       0.07496       8.50000       0.00129      11.02266       5.51417       5.40179       5.25039       5.17968       5.09759       2.60108      16.06544      11.88537 
   2886.60820       8.53349       0.06745       8.50000       0.00333      11.47156       5.64316       5.56758       5.49440       5.54779       5.20960       2.59936      16.04190      11.79448 
   2886.76060       8.51912       0.08113       8.50000       0.00244      11.82847       5.57106       5.58380       5.51866       5.59613       5.26873       2.58852      16.13635      11.94710 
   2886.91300       8.52142       0.07718       8.50000       0.00010      11.61135       5.36426       5.40534       5.33978       5.36986       5.26754       2.58322      16.08928      12.65648 
   2887.06540       8.52835       0.08165       8.50000       0.00154      11.17430       5.05861       5.16706       5.12313       5.16997       5.30437       2.58205      16.06544      12.50231 
   2887.21780       8.53544       0.08558       8.50000       0.00281      12.03425       5.03603       5.09519       5.06263       5.06327       5.27938       2.58191      15.99550      12.03234 
   2887.37020       8.54702       0.07449       8.50000       0.00395      11.99718       5.01838       5.05954       5.09768       5.10077       5.22243       2.58761      16.01934      11.69210 
   2887.52260       8.56350       0.07760       8.50000       0.00679      11.29362       5.40515       5.46101       5.47503       5.45467       5.21674       2.60170      16.08957      11.48930 
   2887.67500       8.55930       0.07016       8.50000       0.00477      11.04097       5.79546       5.79512       5.75581       5.68782       5.20940       2.61243      16.18414      11.44165 
   2887.82740       8.52780       0.07143       8.50000      -0.00019      11.18900       6.10663       6.03636       6.01079       5.90512       5.23623       2.60443      16.23193      11.45791 
   2887.97980       8.50549       0.07153       8.50000      -0.00375      10.94914       6.31217       6.32315       6.19700       6.10822       5.19040       2.59710      16.23193      12.15513 
   2888.13220       8.50301       0.06310       8.50000      -0.00330      10.66296       6.46558       6.42932       6.22735       6.14203       5.24115       2.58941      16.18400      11.71840 
   2888.28460       8.50951       0.06742       8.50000       0.00075      10.62362       6.71065       6.67928       6.54815       6.47101       5.29907       2.59505      16.13635      11.66625 
   2888.43700       8.52409       0.07045       8.50000       0.00250      10.23898       6.69887       6.61353       6.45932       6.34949       5.30083       2.59942      16.13635      11.20836 
   2888.58940       8.53565       0.06197       8.50000       0.00383      10.48012       6.80429       6.76378       6.69782       6.68465       5.27261       2.60995      16.20797      11.86244 
   2888.74180       8.54618       0.06283       8.50000       0.00154      11.31677       6.68103       6.59750       6.43863       6.34540       5.29916       2.61490      16.18414      11.59563 
   2888.89420       8.53046       0.06642       8.50000      -0.00156      12.03261       6.68784       6.66721       6.74354       6.89416       5.22422       2.61107      16.04245      11.83384 
   2889.04660       8.52719       0.07015       8.50000      -0.00070      12.16029       6.20050       6.18275       6.17205       6.18352       5.22500       2.60806      15.94854      11.90778 
   2889.19900       8.51595       0.06727       8.50000      -0.00014      12.44392       5.97325       6.05127       6.18471       6.30043       5.23073       2.60195      15.94882      11.63899 
   2889.35140       8.51667       0.07278       8.50000       0.00148      12.75374       5.48233       5.43026       5.39168       5.37286       5.30626       2.60243      15.92569      11.91689 
   2889.50380       8.51196       0.07725       8.50000       0.00161      13.17894       5.63974       5.83801       6.01194       6.10720       5.24424       2.59979      15.94924      12.27646 
   2889.65620       8.51289       0.07479       8.50000       0.00227      12.89217       5.16357       5.20707       5.24715       5.25905       5.20686       2.59487      15.99566      11.86515 
   2889.80860       8.52418       0.07592       8.50000       0.00542      12.81381       5.65141       5.73231       5.77176       5.72303       5.17843       2.59969      16.04190      12.01791 
   2889.96100       8.51177       0.07216       8.50000      -0.00039      11.81541       5.95079       5.92796       5.83830       5.77739       5.26176       2.59765      16.06573      11.90748 
   2890.11340       8.52766       0.06711       8.50000       0.00313      10.83446       6.76636       6.68802       6.69365       6.64490       5.29300       2.60924      16.08957      11.63072 
   2890.26580       8.53158       0.06625       8.50000       0.00139       9.59704       7.07654       6.88202       6.88163       6.82150       5.36011       2.61854      16.18400      11.40305 
   2890.41820       8.55481       0.05856       8.50000       0.00538       9.08699       7.82728       7.79065       7.86853       7.81344       5.25998       2.63526      16.45150      10.89868 
   2890.57060       8.55410       0.05792       8.50000       0.00683       8.86734       7.73607       7.79196       7.79101       7.76241       5.24783       2.63896      16.50043      11.20744 
   2890.72300       8.55353       0.06148       8.50000       0.00899       9.07821       7.48364       7.55432       7.36044       7.25649       5.21897       2.62993      16.45090      11.63289 
   2890.87540       8.54989       0.06546       8.50000       0.00538       8.81949       7.48904       7.50573       7.48480       7.51667       5.27406       2.61542      16.42652      11.07060 
   2891.02780       8.54845       0.06467       8.50000       0.00201       8.66039       7.71196       7.84394       7.88288       7.86855       5.18357       2.61760      16.50043      11.05409 
   2891.18020       8.54361       0.06702       8.50000       0.00144       8.91301       7.99543       8.10752       8.17537       8.33597       5.16235       2.61753      16.52496      11.34341 
