~Version Information
VERS  .          2.0                              :CWLS Log Ascii Standard - Version 2.0
WRAP  .          NO                               :One line per depth step
~Well Information Block
#MNEM.UNIT       Data Type                        Information
#---------       ---------                        -------------------------------
STRT  .M         2741.37100                       :START DEPTH
STOP  .M         2992.67900                       :STOP DEPTH
STEP  .M          0.15240                         :INCREMENT
NULL  .          -999.25                          :NULL DATA VALUE
COMP  .          StatoilHydro                                                                                                                      :COMPANY
WELL  .          15/9-F-4                         :WELL
FLD   .          Volve                            :FIELD
LOC   .                                           :LOCATION
PROV  .                                           :PROVINCE
STAT  .                                           :STATE
CNTY  .                                           :COUNTY
CTRY  .                                           :COUNTRY
DATE  .                                           :DATE
UWI   .          15/9-F-4                         :UNIQUE WELL UWI
LIC   .                                           :LICENSE NUMBER
API   .                                                                                                                                            :API NUMBER
SRVC  .                                           :SERVICE COMPANY
~Parameter Information Block
#MNEM.UNIT       Value                            Description
#---------       ---------                        -------------
~Curve Information Block
#MNEM.UNIT       API Code            Curve    Description
#--------        --------------      -----    -------------------
DEPT  .M                             :0       Index
BCAV  .IN                            :1       Best Caliper, Average Diameter
BPHI  .V/V                           :2       Best Thermal Neutron Porosity, Average
BS_ARC.IN                            :3       Bit Size                      
DRHB  .G/C3                          :4       Bulk Density Correction, Bottom
GRMA  .GAPI                          :5       Gamma Ray, Average            
P16H  .OHMM                          :6       ARC Phase Shift Resistivity 16 inch Spacing at 2 MHz, Environmentally Corrected_
P22H  .OHMM                          :7       ARC Phase Shift Resistivity 22 inch Spacing at 2 MHz, Environmentally Corrected_
P34H  .OHMM                          :8       ARC Phase Shift Resistivity 34 inch Spacing at 2 MHz, Environmentally Corrected_
P40H  .OHMM                          :9       ARC Phase Shift Resistivity 40 inch Spacing at 2 MHz, Environmentally Corrected_
PEB   .                              :10      Photoelectric Factor, Bottom  
ROBB  .G/C3                          :11      Bulk Density, Bottom          
ROP5_RM.M/HR                          :12      Rate of penetration averaged over last 5 ft(1_5 m), Recorded Mode
SIFA  .CU                            :13      Sigma Formation, Average      
~Ascii Data Section
# ...
   2760.11620      15.25000       0.40077       8.50000      -1.18488      11.71954    5000.00000    5000.00000    5000.00000    5000.00000      58.20912       1.90559    -304.57141      17.94547 
   2760.26860      15.25000       0.40150       8.50000      -1.27919      11.83881     416.45828    5000.00000       3.48463       3.10621      61.42424       1.84749    -304.57141      17.89721 
   2760.42100      15.25000       0.40046       8.50000      -1.37876      12.21945    5000.00000    5000.00000       1.43149       0.71951      65.09763       1.78956    -304.57141      17.44053 
   2760.57340      15.25000       0.39680       8.50000      -1.36563      12.39561    5000.00000    5000.00000       1.33186       0.83632      65.16252       1.83682    -304.57141      17.66667 
   2760.72580      15.25000       0.34889       8.50000      -1.32549      12.38743    5000.00000    5000.00000      11.06693    5000.00000      62.61098       1.90624    -304.57141      17.66251 
   2760.87820      15.25000       0.33650       8.50000      -1.38329      11.93646    5000.00000    5000.00000    5000.00000    5000.00000      66.06278       1.96836    -304.57141      17.77791 
   2761.03060      15.25000       0.34283       8.50000      -1.60078      11.40451     128.43626      35.76605    5000.00000    5000.00000      70.87045       1.92396    -304.57141      18.21350 
   2761.18300      15.25000       0.32556       8.50000      -1.60709      11.16411     103.21480    5000.00000    5000.00000    5000.00000      65.57620       2.02292    -304.57141      18.08383 
   2761.33540      11.18605       0.24107       8.50000      -0.79232      11.86066      13.78201    5000.00000    5000.00000    5000.00000      31.93584       2.46752    -304.57141      17.71785 
   2761.48780       8.88027       0.28806       8.50000      -0.19487      13.34590       0.10709       0.14548       0.30485       0.24528      20.23332       2.44466    -304.57141      17.72313 
   2761.64020       9.25280       0.26918       8.50000       0.14250      14.58470    5000.00000    5000.00000    5000.00000    5000.00000      17.09735       2.36022    -304.57141      16.84034 
   2761.79260      10.39851       0.26882       8.50000       0.36510      14.64946    5000.00000    5000.00000      10.14590       8.52713      17.73318       2.40000    -304.57141      17.26786 
   2761.94500      10.01898       0.26511       8.50000       0.26826      13.90453       5.11320       4.64774       1.59758       1.55254      23.26463       2.26384    -304.57141      17.02229 
   2762.09740       9.84441       0.23775       8.50000       0.17084      13.44376       1.23251       1.21803      11.00764      10.72175      29.88511       2.21622    -304.57141      16.78461 
   2762.24980       9.60768       0.23791       8.50000       0.13746      12.23013       5.03183       5.16468       4.69819       4.77466      33.19152       2.18189    -304.57141      16.86972 
   2762.40220       9.61620       0.22288       8.50000       0.11636      11.78364       5.35255       5.42154       5.19811       5.21605      35.18244       2.14903    -304.57141      17.26773 
   2762.55460       9.61149       0.20371       8.50000       0.10923      11.47280       5.47637       5.18415       4.31097       4.16518      35.99520       2.13769    -304.57141      16.75599 
   2762.70700       9.69895       0.21092       8.50000       0.13585      11.36779       6.46921       6.26453       5.71477       5.59354      34.66958       2.16866    -304.57141      16.18740 
   2762.85940       9.80364       0.18969       8.50000       0.15707      10.19699       7.80728       7.51452       7.24776       6.94625      33.01578       2.20508    -304.57141      15.71068 
   2763.01180       9.79466       0.19740       8.50000       0.16120       9.76896       8.19818       7.88689       7.79270       7.41678      32.59617       2.20840    -304.57141      15.30325 
   2763.16420       9.80989       0.20014       8.50000       0.16689       9.37582       8.24097       8.04489       7.78697       7.77908      32.14118       2.21622    -304.57141      15.65520 
   2763.31660       9.89505       0.19491       8.50000       0.18434       9.39172       8.00676       7.87663       7.34902       7.43099      31.25588       2.24089    -304.57141      16.06777 
   2763.46900      10.00631       0.19011       8.50000       0.20800       9.47835       7.28657       7.18655       7.01363       7.10844      29.48613       2.27364    -304.57141      15.88343 
   2763.62140      10.15847       0.17750       8.50000       0.24034       9.66325       6.97126       6.66605       6.38860       6.35955      27.34917       2.31302    -304.57141      15.15804 
   2763.77380      10.25812       0.17203       8.50000       0.26327       9.39614       6.68121       6.15424       5.69921       5.58133      25.84093       2.33651    -304.57141      15.51165 
   2763.92620      10.25779       0.20493       8.50000       0.26408       9.11331       5.59921       5.25787       5.04979       5.03154      25.77945       2.33076    -304.57141      15.10653 
   2764.07860      10.16551       0.22390       8.50000       0.23890       8.86845       4.53692       4.32275       4.29383       4.38485      26.55767       2.28693    -304.57141      15.79095 
   2764.23100      10.11599       0.24046       8.50000       0.23112       8.45380       3.62301       3.45682       3.40160       3.43303      27.05189       2.26392    -304.57141      15.65159 
   2764.38340      10.26764       0.23715       8.50000       0.28208       8.08670       3.11604       2.92097       2.81388       2.82762      24.48492       2.29849    -304.57141      15.89243 
   2764.53580      10.46320       0.23834       8.50000       0.34682       7.93666       2.84355       2.63085       2.49063       2.47400      21.35306       2.37003    -304.57141      16.32144 
   2764.68820      10.51396       0.21653       8.50000       0.31990       7.87660       2.61102       2.42096       2.27540       2.22404      19.15341       2.40129    -304.57141      15.96905 
   2764.84060      10.56055       0.21689       8.50000       0.32337       7.93662       2.58538       2.41198       2.28919       2.22203      18.32187       2.43680    -304.57141      15.82536 
   2764.99300      10.58200       0.21604       8.50000       0.34044       8.18635       2.64692       2.47909       2.32054       2.25155      17.95147       2.46846    -304.57141      15.77716 
   2765.14540      10.64305       0.19194       8.50000       0.37533       8.45886       2.84478       2.67172       2.44709       2.36265      18.45552       2.50586    -304.57141      15.85053 
   2765.29780      10.70115       0.18625       8.50000       0.42172       8.39847       3.17062       2.98875       2.67171       2.54665      18.86485       2.54596    -304.57141      16.26897 
   2765.45020      10.70118       0.18300       8.50000       0.43671       8.43479       3.63897       3.42981       3.06075       2.90739      19.31603       2.56420    -304.57141      15.64488 
   2765.60260      10.67725       0.17387       8.50000       0.44771       8.59105       4.17787       3.88774       3.47255       3.33944      19.68448       2.58083    -304.57141      15.60053 
   2765.75500      10.61618       0.15473       8.50000       0.41499       8.57984       4.75176       4.41170       3.89330       3.78417      19.43899       2.56318    -304.57141      15.10340 
   2765.90740      10.63265       0.16380       8.50000       0.41588       8.41738       5.09865       4.97204       4.58258       4.57189      19.07380       2.56547    -304.57141      15.35124 
   2766.05980      10.64240       0.17379       8.50000       0.40392       8.48005       4.80009       4.85928       4.63971       4.75802      18.19635       2.54292    -304.57141      15.62876 
   2766.21220      10.68071       0.18178       8.50000       0.40469       8.53842       4.32529       4.45171       4.28347       4.44163      17.79855       2.54450    -304.57141      15.35464 
