~Version Information
VERS  .          2.0                              :CWLS Log Ascii Standard - Version 2.0
WRAP  .          NO                               :One line per depth step
~Well Information Block
#MNEM.UNIT       Data Type                        Information
#---------       ---------                        -------------------------------
STRT  .M         2955.95000                       :START DEPTH
STOP  .M         3509.92500                       :STOP DEPTH
STEP  .M          0.15240                         :INCREMENT
NULL  .          -999.25                          :NULL DATA VALUE
COMP  .          StatoilHydro                                                                                                                      :COMPANY
WELL  .          15/9-F-4                         :WELL
FLD   .          Volve                            :FIELD
LOC   .                                           :LOCATION
PROV  .                                           :PROVINCE
STAT  .                                           :STATE
CNTY  .                                           :COUNTY
CTRY  .                                           :COUNTRY
DATE  .                                           :DATE
UWI   .          15/9-F-4                         :UNIQUE WELL UWI
LIC   .                                           :LICENSE NUMBER
API   .                                                                                                                                            :API NUMBER
SRVC  .                                           :SERVICE COMPANY
~Parameter Information Block
#MNEM.UNIT       Value                            Description
#---------       ---------                        -------------
~Curve Information Block
#MNEM.UNIT       API Code            Curve    Description
#--------        --------------      -----    -------------------
DEPT  .M                             :0       Index
BCAV  .IN                            :1       Best Caliper, Average Diameter
BPHI  .V/V                           :2       Best Thermal Neutron Porosity, Average
BS    .IN                            :3       Bit Size                      
DRHB  .G/C3                          :4       Bulk Density Correction, Bottom
GRMA  .GAPI                          :5       Gamma Ray, Average            
P16H  .OHMM                          :6       ARC Phase Shift Resistivity 16 inch Spacing at 2 MHz, Environmentally Corrected_
P22H  .OHMM                          :7       ARC Phase Shift Resistivity 22 inch Spacing at 2 MHz, Environmentally Corrected_
P34H  .OHMM                          :8       ARC Phase Shift Resistivity 34 inch Spacing at 2 MHz, Environmentally Corrected_
P40H  .OHMM                          :9       ARC Phase Shift Resistivity 40 inch Spacing at 2 MHz, Environmentally Corrected_
PEB   .                              :10      Photoelectric Factor, Bottom  
ROBB  .G/C3                          :11      Bulk Density, Bottom          
ROP5_RM.M/HR                          :12      Rate of penetration averaged over last 5 ft(1_5 m), Recorded Mode
RT_ARC.OHMM                          :13      ARC True Formation Resistivity
SIFA  .CU                            :14      Sigma Formation, Average      
~Ascii Data Section
# ...
   3210.76280       8.62803       0.17088       8.50000      -0.00881      80.88792       2.24113       2.26133       2.48945       2.64161       4.35881       2.67519      30.14390       2.39484      27.32125 
   3210.91520       8.57905       0.17174       8.50000      -0.00036      81.90845       2.20644       2.24838       2.40470       2.49607       4.08522       2.65202      29.18097       2.37538      27.77062 
   3211.06760       8.49469       0.19210       8.50000      -0.00639      85.73078       2.13102       2.16658       2.32233       2.43795       3.98676       2.61644      27.56656       2.28984      28.77198 
   3211.22000       8.41850       0.21832       8.50000      -0.00366      91.92734       2.08183       2.13967       2.28976       2.36367       3.88929       2.56750      25.77964       2.17951      29.59533 
   3211.37240       8.40160       0.22517       8.50000      -0.00044      99.80307       2.03725       2.07133       2.12164       2.18125       3.61099       2.53220      24.78522       2.07178      29.31650 
   3211.52480       8.41107       0.22540       8.50000       0.01216     104.96853       1.83079       1.81311       1.95335       1.99475       3.48123       2.51660      24.32228       1.98340      30.87308 
   3211.67720       8.42328       0.23304       8.50000       0.00987     106.19782       1.73048       1.77566       1.88698       1.86314       3.33645       2.50846      24.27600       1.91913      31.92710 
   3211.82960       8.43433       0.23109       8.50000       0.00542     106.89016       1.82327       1.87899       1.96299       2.02888       3.26475       2.49807      24.23012       1.87371      31.34091 
   3211.98200       8.47141       0.22338       8.50000       0.00355     105.22672       1.70056       1.75347       1.77812       1.77320       3.22496       2.50010      24.16896       1.83815      30.22581 
   3212.13440       8.50829       0.22042       8.50000       0.00852     102.88915       1.68476       1.72501       1.79047       1.81217       3.28552       2.50675      24.27603       1.80638      29.43259 
   3212.28680       8.54168       0.23714       8.50000       0.01263      99.69298       1.69413       1.73130       1.89630       1.99480       3.39828       2.51411      25.40757       1.77601      30.85919 
   3212.43920       8.51624       0.23828       8.50000       0.00281      99.72366       1.64562       1.69230       1.83818       1.91617       3.50086       2.49621      26.48507       1.74557      32.83810 
   3212.59160       8.51914       0.22477       8.50000      -0.00080      98.40430       1.60450       1.69894       1.78937       1.74016       3.57619       2.49159      27.65983       1.71976      31.00775 
   3212.74400       8.50053       0.20974       8.50000       0.00115      97.88678       1.58827       1.67953       1.72747       1.62578       3.69954       2.48941      28.85404       1.70668      30.97763 
   3212.89640       8.50568       0.23766       8.50000       0.01646      97.50086       1.67366       1.68775       1.71271       1.68828       3.88849       2.50265      29.81599       1.70703      31.98472 
   3213.04880       8.51595       0.24105       8.50000       0.02126      98.78543       1.66003       1.68860       1.79345       1.82565       3.99408       2.50893      30.99627       1.69678      30.75151 
   3213.20120       8.51693       0.23178       8.50000       0.02207      98.62501       1.56687       1.70135       1.95720       2.01525       3.98011       2.51828      31.09701       1.64741      32.61302 
   3213.35360       8.47588       0.23915       8.50000      -0.00249      99.82614       1.34331       1.44795       1.54052       1.53895       3.90868       2.50500      31.17256       1.56657      31.16323 
   3213.50600       8.49436       0.23943       8.50000      -0.01195     100.56791       1.15078       1.13770       1.01749       0.95828       3.62232       2.50178      31.17256       1.50032      31.03917 
   3213.65840       8.49670       0.25888       8.50000      -0.01461     102.01146       1.20991       1.16203       1.07254       1.03393       3.44099       2.49654      31.17688       1.48538      31.95752 
   3213.81080       8.48550       0.24843       8.50000      -0.00402     103.54550       1.50912       1.56622       1.71680       1.85476       3.19509       2.49590      31.17255       1.51806      33.06318 
   3213.96320       8.46932       0.24461       8.50000      -0.00000     105.74983       1.54792       1.58956       1.70664       1.81249       3.29222       2.48120      30.92156       1.56560      32.28556 
   3214.11560       8.47193       0.25924       8.50000      -0.00034     106.01016       1.52125       1.51423       1.61599       1.71399       3.27308       2.46791      30.82196       1.60415      32.35350 
   3214.26800       8.47041       0.24913       8.50000      -0.00070     105.22737       1.55050       1.58563       1.61128       1.62729       3.25630       2.45576      30.82196       1.63135      32.08396 
   3214.42040       8.48166       0.25887       8.50000      -0.00184     103.19397       1.61164       1.67590       1.71668       1.70960       3.12718       2.46155      30.72347       1.65737      33.76429 
   3214.57280       8.48110       0.24845       8.50000      -0.00293     101.95219       1.59569       1.62915       1.63662       1.59474       3.16390       2.46520      30.64961       1.68678      33.21523 
   3214.72520       8.51820       0.22946       8.50000      -0.00331     100.70402       1.58275       1.65213       1.78650       1.75107       3.17845       2.47839      30.48330       1.72029      33.49451 
   3214.87760       8.52546       0.23425       8.50000      -0.00389     101.26442       1.62962       1.69420       1.79164       1.85589       3.24121       2.47732      30.31062       1.75734      32.40525 
   3215.03000       8.52848       0.24238       8.50000      -0.00100     101.45546       1.70502       1.77721       1.88469       1.99234       3.17975       2.48509      30.31061       1.79932      32.14994 
   3215.18240       8.55437       0.23221       8.50000       0.01017     100.45801       1.70471       1.67566       1.77115       1.92701       3.23427       2.50885      30.07497       1.85079      33.36790 
   3215.33480       8.61379       0.22333       8.50000       0.02080      96.78836       1.77729       1.77023       1.92200       2.07304       3.59136       2.56713      29.98105       1.91923      30.97584 
   3215.48720       8.64539       0.19323       8.50000       0.01263      89.44500       1.92018       1.96132       2.06374       2.10516       4.37838       2.63452      30.07326       2.01370      28.99553 
   3215.63960       8.70507       0.17077       8.50000      -0.00234      81.29784       2.09883       2.10777       2.21688       2.22075       5.28934       2.72066      30.14623       2.13667      29.30475 
   3215.79200       8.71871       0.15763       8.50000      -0.02532      74.06078       2.30662       2.26436       2.35709       2.33670       5.90097       2.75014      29.88834       2.27105      29.73652 
   3215.94440       8.59618       0.17415       8.50000      -0.03695      69.67803       2.34593       2.31951       2.47906       2.54957       5.28454       2.70979      28.89005       2.36969      29.61064 
   3216.09680       8.73628       0.18751       8.50000      -0.03084      70.59701       2.33573       2.40836       2.66073       2.75906       4.60873       2.61180      26.50347       2.37867      29.39453 
   3216.24920       8.74140       0.20950       8.50000      -0.00997      76.85368       2.34124       2.32385       2.36217       2.32505       3.98569       2.53887      26.50334       2.28989      29.51486 
   3216.40160       8.57948       0.24875       8.50000       0.00551      83.19672       2.22403       2.08504       2.06238       2.10538       3.74549       2.49497      20.17075       2.14587      31.59725 
