~Version Information
VERS  .          2.0                              :CWLS Log Ascii Standard - Version 2.0
WRAP  .          NO                               :One line per depth step
~Well Information Block
#MNEM.UNIT       Data Type                        Information
#---------       ---------                        -------------------------------
STRT  .M         2741.37100                       :START DEPTH
STOP  .M         2992.67900                       :STOP DEPTH
STEP  .M          0.15240                         :INCREMENT
NULL  .          -999.25                          :NULL DATA VALUE
COMP  .          StatoilHydro                                                                                                                      :COMPANY
WELL  .          15/9-F-4                         :WELL
FLD   .          Volve                            :FIELD
LOC   .                                           :LOCATION
PROV  .                                           :PROVINCE
STAT  .                                           :STATE
CNTY  .                                           :COUNTY
CTRY  .                                           :COUNTRY
DATE  .                                           :DATE
UWI   .          15/9-F-4                         :UNIQUE WELL UWI
LIC   .                                           :LICENSE NUMBER
API   .                                                                                                                                            :API NUMBER
SRVC  .                                           :SERVICE COMPANY
~Parameter Information Block
#MNEM.UNIT       Value                            Description
#---------       ---------                        -------------
~Curve Information Block
#MNEM.UNIT       API Code            Curve    Description
#--------        --------------      -----    -------------------
DEPT  .M                             :0       Index
BCAV  .IN                            :1       Best Caliper, Average Diameter
BPHI  .V/V                           :2       Best Thermal Neutron Porosity, Average
BS_ARC.IN                            :3       Bit Size                      
DRHB  .G/C3                          :4       Bulk Density Correction, Bottom
GRMA  .GAPI                          :5       Gamma Ray, Average            
P16H  .OHMM                          :6       ARC Phase Shift Resistivity 16 inch Spacing at 2 MHz, Environmentally Corrected_
P22H  .OHMM                          :7       ARC Phase Shift Resistivity 22 inch Spacing at 2 MHz, Environmentally Corrected_
P34H  .OHMM                          :8       ARC Phase Shift Resistivity 34 inch Spacing at 2 MHz, Environmentally Corrected_
P40H  .OHMM                          :9       ARC Phase Shift Resistivity 40 inch Spacing at 2 MHz, Environmentally Corrected_
PEB   .                              :10      Photoelectric Factor, Bottom  
ROBB  .G/C3                          :11      Bulk Density, Bottom          
ROP5_RM.M/HR                          :12      Rate of penetration averaged over last 5 ft(1_5 m), Recorded Mode
SIFA  .CU                            :13      Sigma Formation, Average      
~Ascii Data Section
# ...
   2935.07140       8.51510       0.16798       8.50000       0.00504      14.27831       1.54828       1.55952       1.55530       1.54852       4.75777       2.44107      25.05272      15.45085 
   2935.22380       8.53309       0.17444       8.50000       0.00971      13.50403       1.51871       1.53031       1.50861       1.51732       4.82296       2.44493      24.91633      15.14354 
   2935.37620       8.55381       0.17360       8.50000       0.00632      13.22345       1.52969       1.51593       1.48345       1.47195       4.84387       2.45441      24.65837      15.37828 
   2935.52860       8.56270       0.16723       8.50000      -0.00010      13.12916       1.60393       1.59386       1.57557       1.58758       4.83100       2.45931      24.60291      15.02897 
   2935.68100       8.55306       0.16847       8.50000      -0.00303      13.99836       1.69842       1.69751       1.70570       1.72084       4.82436       2.46013      24.55522      15.38379 
   2935.83340       8.55496       0.16581       8.50000      -0.00029      15.38357       1.67178       1.67474       1.65278       1.65992       4.86964       2.46009      24.71434      16.02593 
   2935.98580       8.55453       0.16847       8.50000       0.00448      16.09812       1.65257       1.65967       1.61903       1.62386       4.82427       2.46996      24.88158      15.72300 
   2936.13820       8.54767       0.17404       8.50000       0.00153      16.53741       1.67557       1.67418       1.63825       1.66098       4.77833       2.46723      25.65743      15.58792 
   2936.29060       8.54347       0.15017       8.50000       0.00079      16.48446       1.74019       1.72718       1.70956       1.71779       4.75033       2.47083      26.37748      15.28832 
   2936.44300       8.52995       0.16090       8.50000      -0.00166      15.59758       1.78617       1.77158       1.75476       1.74602       4.69985       2.46877      26.50348      15.18087 
   2936.59540       8.51868       0.15928       8.50000      -0.00020      14.79935       1.84164       1.84250       1.84066       1.88063       4.67289       2.46787      26.89426      15.23989 
   2936.74780       8.51719       0.15487       8.50000       0.00282      14.74496       1.84141       1.83018       1.83385       1.84408       4.55376       2.46622      27.26969      14.83656 
   2936.90020       8.51651       0.16034       8.50000       0.00642      13.98120       1.84330       1.85986       1.83071       1.84141       4.57762       2.46358      27.43200      15.08324 
   2937.05260       8.54435       0.14793       8.50000       0.01153      13.10553       1.84973       1.86185       1.84747       1.86512       4.53846       2.47325      27.56998      14.65149 
   2937.20500       8.55013       0.15825       8.50000       0.01023      12.82191       1.88291       1.86854       1.83481       1.80847       4.63528       2.47518      27.56998      14.78673 
   2937.35740       8.56256       0.15122       8.50000       0.00922      12.57995       1.87597       1.87221       1.86556       1.86096       4.67036       2.47643      27.21423      14.60417 
   2937.50980       8.56995       0.14839       8.50000       0.00345      12.17529       1.94397       1.94767       1.95729       1.97079       4.78939       2.47820      27.00118      14.68773 
   2937.66220       8.57884       0.14711       8.50000       0.00165      13.66433       2.00664       2.00994       1.98787       1.98479       4.81062       2.48737      26.89518      14.63733 
   2937.81460       8.58566       0.14646       8.50000       0.00176      16.97907       2.10247       2.12815       2.14631       2.19926       4.83734       2.50096      24.96111      15.23740 
   2937.96700       8.56412       0.14569       8.50000       0.00458      19.39870       2.15798       2.17798       2.19841       2.22601       4.79064       2.50842      24.82577      15.19667 
   2938.11940       8.55231       0.13998       8.50000       0.00291      20.89626       2.24469       2.24214       2.22442       2.22749       4.76100       2.51030      24.49296      14.26467 
   2938.27180       8.55068       0.14502       8.50000       0.00389      21.36591       2.34783       2.27773       2.24542       2.22451       4.67778       2.52306      24.17025      13.77289 
   2938.42420       8.55360       0.12088       8.50000       0.00284      20.39708       2.48897       2.46927       2.45019       2.42904       4.64912       2.52602      23.95767      13.82797 
   2938.57660       8.56174       0.12002       8.50000       0.00679      18.90357       2.64188       2.63265       2.62271       2.58602       4.74652       2.52833      23.89587      14.37413 
   2938.72900       8.56986       0.11800       8.50000       0.00589      17.29188       2.72418       2.70772       2.69385       2.66558       4.84152       2.52544      23.85467      14.35546 
   2938.88140       8.56557       0.12227       8.50000       0.00757      15.54384       2.89733       2.86091       2.83443       2.86081       4.85923       2.53571      23.44821      14.25138 
   2939.03380       8.55058       0.12469       8.50000       0.00361      14.67606       2.93788       2.89641       2.88107       2.89157       4.75956       2.53586      23.05369      14.14978 
   2939.18620       8.55191       0.12581       8.50000       0.00410      14.73207       2.94784       2.93259       2.91404       2.94350       4.75190       2.52949      23.40937      13.71982 
   2939.33860       8.53253       0.14034       8.50000       0.00350      15.01342       2.88341       2.92552       2.90150       2.89724       4.84240       2.51278      23.95893      13.85211 
   2939.49100       8.54031       0.12979       8.50000       0.00865      15.87926       2.74800       2.76629       2.75163       2.77683       4.97328       2.50867      22.76480      14.23770 
   2939.64340       8.54526       0.13492       8.50000       0.01005      16.24627       2.45220       2.46589       2.45674       2.48239       4.91332       2.51548      21.59965      14.27379 
   2939.79580       8.55073       0.12183       8.50000       0.00701      16.56102       2.56882       2.59585       2.59806       2.59105       4.79219       2.51755      20.47121      13.61410 
   2939.94820       8.53457       0.11944       8.50000       0.00190      17.77616       2.63513       2.61503       2.63351       2.65179       4.63915       2.51458      19.45567      13.92952 
   2940.10060       8.51443       0.13588       8.50000      -0.00254      18.68672       2.54893       2.58146       2.59485       2.61956       4.62849       2.49959      18.44566      14.58714 
   2940.25300       8.52250       0.14189       8.50000      -0.00093      18.71424       2.25371       2.27136       2.26547       2.33516       4.67976       2.50061      17.95397      15.10950 
   2940.40540       8.52285       0.12938       8.50000      -0.00351      19.92349       2.14264       2.13249       2.02738       2.08540       4.65380       2.49940      17.52839      15.20328 
   2940.55780       8.51404       0.15832       8.50000       0.00019      22.16847       2.18962       2.23063       2.29232       2.32164       4.85261       2.49027      16.75508      15.63554 
   2940.71020       8.58682       0.15391       8.50000       0.02359      21.87152       1.84998       1.87867       1.89367       1.87493       5.20291       2.51400      16.33066      15.47649 
   2940.86260       8.59530       0.14018       8.50000       0.02408      20.24755       1.82359       1.80873       1.77820       1.76033       5.24557       2.51892      16.20825      14.74304 
   2941.01500       8.58345       0.13713       8.50000       0.01733      18.81479       2.10652       2.08953       2.12791       2.16261       4.98771       2.52614      16.42785      14.54738 
   2941.16740       8.50891       0.14620       8.50000      -0.00536      17.43831       2.22550       2.23172       2.27568       2.26243       4.63655       2.48928      16.88732      14.43033 
