~Version Information
VERS  .          2.0                              :CWLS Log Ascii Standard - Version 2.0
WRAP  .          NO                               :One line per depth step
~Well Information Block
#MNEM.UNIT       Data Type                        Information
#---------       ---------                        -------------------------------
STRT  .M         2955.95000                       :START DEPTH
STOP  .M         3509.92500                       :STOP DEPTH
STEP  .M          0.15240                         :INCREMENT
NULL  .          -999.25                          :NULL DATA VALUE
COMP  .          StatoilHydro                                                                                                                      :COMPANY
WELL  .          15/9-F-4                         :WELL
FLD   .          Volve                            :FIELD
LOC   .                                           :LOCATION
PROV  .                                           :PROVINCE
STAT  .                                           :STATE
CNTY  .                                           :COUNTY
CTRY  .                                           :COUNTRY
DATE  .                                           :DATE
UWI   .          15/9-F-4                         :UNIQUE WELL UWI
LIC   .                                           :LICENSE NUMBER
API   .                                                                                                                                            :API NUMBER
SRVC  .                                           :SERVICE COMPANY
~Parameter Information Block
#MNEM.UNIT       Value                            Description
#---------       ---------                        -------------
~Curve Information Block
#MNEM.UNIT       API Code            Curve    Description
#--------        --------------      -----    -------------------
DEPT  .M                             :0       Index
BCAV  .IN                            :1       Best Caliper, Average Diameter
BPHI  .V/V                           :2       Best Thermal Neutron Porosity, Average
BS    .IN                            :3       Bit Size                      
DRHB  .G/C3                          :4       Bulk Density Correction, Bottom
GRMA  .GAPI                          :5       Gamma Ray, Average            
P16H  .OHMM                          :6       ARC Phase Shift Resistivity 16 inch Spacing at 2 MHz, Environmentally Corrected_
P22H  .OHMM                          :7       ARC Phase Shift Resistivity 22 inch Spacing at 2 MHz, Environmentally Corrected_
P34H  .OHMM                          :8       ARC Phase Shift Resistivity 34 inch Spacing at 2 MHz, Environmentally Corrected_
P40H  .OHMM                          :9       ARC Phase Shift Resistivity 40 inch Spacing at 2 MHz, Environmentally Corrected_
PEB   .                              :10      Photoelectric Factor, Bottom  
ROBB  .G/C3                          :11      Bulk Density, Bottom          
ROP5_RM.M/HR                          :12      Rate of penetration averaged over last 5 ft(1_5 m), Recorded Mode
RT_ARC.OHMM                          :13      ARC True Formation Resistivity
SIFA  .CU                            :14      Sigma Formation, Average      
~Ascii Data Section
# ...
   3361.33400       8.52674       0.17638       8.50000       0.00809      15.77859      77.25562      75.61739      77.46098      78.66322       2.13022       2.25418      29.49882      76.84160       9.93178 
   3361.48640       8.53175       0.18340       8.50000       0.00500      16.39224      77.05499      76.44938      78.01836      79.14838       2.10893       2.24470      25.75621      76.84180      10.20075 
   3361.63880       8.48997       0.19495       8.50000       0.00515      16.12465      73.07896      74.06684      76.92252      77.56454       2.03387       2.22764      25.75769      76.61239       9.61113 
   3361.79120       8.51205       0.19756       8.50000       0.00832      16.51328      71.75066      73.29286      76.57902      76.54259       1.98711       2.22110      25.75916      76.41659      10.00187 
   3361.94360       8.47889       0.20454       8.50000       0.00282      16.71539      71.34225      73.62428      76.39426      77.70658       2.00963       2.20763      25.75916      76.40020      10.54601 
   3362.09600       8.49751       0.19742       8.50000      -0.00000      16.18291      71.74871      75.19677      78.19189      79.34386       2.03449       2.21082      25.81701      76.55162      10.60757 
   3362.24840       8.47726       0.19445       8.50000      -0.00448      15.61687      74.37484      74.47571      75.77276      77.31234       2.05312       2.20916      25.75621      76.99352      10.36798 
   3362.40080       8.49784       0.19754       8.50000      -0.00223      15.93889      71.63435      73.10841      76.09058      77.20903       2.10393       2.21622      25.75916      78.03632      10.12767 
   3362.55320       8.50162       0.19646       8.50000       0.00103      15.78977      75.13018      77.22609      80.67843      82.25709       2.17527       2.21668      25.75769      79.79771       9.86993 
   3362.70560       8.50897       0.19045       8.50000       0.00375      15.75194      79.45364      80.35737      83.75630      85.69586       2.20194       2.21773      25.75621      81.98881       9.73634 
   3362.85800       8.51451       0.18610       8.50000       0.00357      15.74122      81.95316      81.32896      85.34431      86.74096       2.17420       2.22765      25.75634      84.16928       9.59899 
   3363.01040       8.52680       0.19376       8.50000       0.00494      16.06293      87.59597      84.75392      85.85411      86.15850       2.11870       2.24275      29.49894      86.22771       9.63689 
   3363.16280       8.53336       0.17637       8.50000       0.00048      15.75439      89.79464      87.79053      88.28960      89.13652       2.13640       2.25448      29.49894      88.39647       9.70236 
   3363.31520       8.53023       0.17007       8.50000       0.00145      15.70313      92.65512      90.67433      92.06993      91.21407       2.18519       2.27353      29.33720      90.98986       9.57582 
   3363.46760       8.52853       0.16641       8.50000       0.00075      15.50952      99.22961      95.60594      92.58286      91.39204       2.23915       2.29832      29.41805      94.23889       9.44832 
   3363.62000       8.51862       0.16432       8.50000      -0.00071      14.90269     108.31487     101.67605      98.05636      96.98625       2.31585       2.32030      29.34103      98.12495       9.63445 
   3363.77240       8.49887       0.15070       8.50000      -0.00307      13.96946     116.80832     107.70747     103.69995     102.93859       2.37903       2.32527      29.33911     102.28157       9.41102 
   3363.92480       8.48180       0.14952       8.50000      -0.00035      13.08551     121.63079     114.29882     107.20012     105.27549       2.39135       2.31846      29.21290     106.04971       9.27246 
   3364.07720       8.46919       0.15629       8.50000       0.00678      12.17410     126.01809     119.23336     110.11899     107.47007       2.34692       2.30515      28.96253     108.82474       9.05189 
   3364.22960       8.49331       0.17600       8.50000       0.01043      11.32373     125.58764     120.15351     111.51413     109.74311       2.28364       2.28709      28.96467     110.40449       9.38559 
   3364.38200       8.54905       0.17382       8.50000       0.01453      11.71485     118.83492     117.07925     112.52206     112.28999       2.27408       2.27866      29.03022     111.02271       9.94311 
   3364.53440       8.57562       0.17564       8.50000       0.00603      11.72490     119.22644     115.03085     111.51519     111.47314       2.25759       2.26777      28.87357     111.11398       9.07604 
   3364.68680       8.60603       0.17807       8.50000       0.01013      11.68624     119.67175     118.67847     111.71008     110.79266       2.30312       2.27671      28.96308     110.97901       9.43274 
   3364.83920       8.57318       0.16538       8.50000       0.00724      11.43507     116.93455     114.85169     113.19158     112.75140       2.33846       2.27771      29.03022     110.67400       9.56274 
   3364.99160       8.55253       0.17519       8.50000       0.00267      11.89200     115.51872     113.76733     111.73819     111.43217       2.35639       2.27625      28.87569     110.18005       9.57530 
   3365.14400       8.51413       0.17569       8.50000      -0.00170      11.77459     115.33251     112.52761     110.58063     113.43340       2.31044       2.26356      28.96094     109.52271       9.48916 
   3365.29640       8.49461       0.18596       8.50000      -0.00278      11.51723     110.20077     112.53490     111.99200     112.86181       2.27595       2.24214      29.02647     108.74057       9.49097 
   3365.44880       8.47226       0.19362       8.50000       0.00352      12.48598     111.60438     109.56835     110.94506     112.13766       2.18409       2.22112      29.10752     107.80896       9.71873 
   3365.60120       8.48157       0.20500       8.50000       0.00696      13.70819     110.83380     108.33075     109.92702     112.08723       2.13000       2.20397      29.36210     106.72046       9.94825 
   3365.75360       8.49884       0.20650       8.50000       0.00705      14.36317     109.29459     106.08129     108.50020     111.05897       2.05169       2.19740      29.49507     105.63089       9.64239 
   3365.90600       8.52732       0.20555       8.50000       0.01191      14.72303     104.43102     105.67310     107.72395     108.54866       2.07912       2.19039      29.33912     104.77776       9.73258 
   3366.05840       8.53019       0.22049       8.50000       0.01083      15.58097     107.80563     105.24846     107.90221     108.95294       2.07657       2.17576      29.43127     104.35303      10.02544 
   3366.21080       8.52347       0.21423       8.50000       0.01162      15.49706     102.29037     104.23967     109.37965     110.35860       2.09534       2.16706      29.49894     104.32497       9.86396 
   3366.36320       8.50790       0.22628       8.50000       0.00519      15.61782     109.03451     108.07197     109.88502     110.62946       2.09062       2.16253      29.33720     104.42548       9.87954 
   3366.51560       8.50807       0.21911       8.50000       0.00984      16.10813     104.54268     106.08553     110.93971     111.23222       2.07515       2.17417      29.42962     104.35538       9.93797 
   3366.66800       8.53715       0.21147       8.50000       0.01228      15.40305     109.81794     108.12017     110.42056     112.78325       2.15616       2.18632      29.49894     104.11230       9.40119 
   3366.82040       8.54552       0.20104       8.50000       0.01334      15.06847     111.82556     106.36241     107.89503     108.66001       2.14666       2.20332      29.33939     104.11010       9.56471 
   3366.97280       8.52487       0.19918       8.50000       0.00194      14.42117     115.29032     109.01117     106.94756     106.97242       2.17019       2.19911      29.42741     104.73450       9.61792 
