~Version Information
VERS  .          2.0                              :CWLS Log Ascii Standard - Version 2.0
WRAP  .          NO                               :One line per depth step
~Well Information Block
#MNEM.UNIT       Data Type                        Information
#---------       ---------                        -------------------------------
STRT  .M         2741.37100                       :START DEPTH
STOP  .M         2992.67900                       :STOP DEPTH
STEP  .M          0.15240                         :INCREMENT
NULL  .          -999.25                          :NULL DATA VALUE
COMP  .          StatoilHydro                                                                                                                      :COMPANY
WELL  .          15/9-F-4                         :WELL
FLD   .          Volve                            :FIELD
LOC   .                                           :LOCATION
PROV  .                                           :PROVINCE
STAT  .                                           :STATE
CNTY  .                                           :COUNTY
CTRY  .                                           :COUNTRY
DATE  .                                           :DATE
UWI   .          15/9-F-4                         :UNIQUE WELL UWI
LIC   .                                           :LICENSE NUMBER
API   .                                                                                                                                            :API NUMBER
SRVC  .                                           :SERVICE COMPANY
~Parameter Information Block
#MNEM.UNIT       Value                            Description
#---------       ---------                        -------------
~Curve Information Block
#MNEM.UNIT       API Code            Curve    Description
#--------        --------------      -----    -------------------
DEPT  .M                             :0       Index
BCAV  .IN                            :1       Best Caliper, Average Diameter
BPHI  .V/V                           :2       Best Thermal Neutron Porosity, Average
BS_ARC.IN                            :3       Bit Size                      
DRHB  .G/C3                          :4       Bulk Density Correction, Bottom
GRMA  .GAPI                          :5       Gamma Ray, Average            
P16H  .OHMM                          :6       ARC Phase Shift Resistivity 16 inch Spacing at 2 MHz, Environmentally Corrected_
P22H  .OHMM                          :7       ARC Phase Shift Resistivity 22 inch Spacing at 2 MHz, Environmentally Corrected_
P34H  .OHMM                          :8       ARC Phase Shift Resistivity 34 inch Spacing at 2 MHz, Environmentally Corrected_
P40H  .OHMM                          :9       ARC Phase Shift Resistivity 40 inch Spacing at 2 MHz, Environmentally Corrected_
PEB   .                              :10      Photoelectric Factor, Bottom  
ROBB  .G/C3                          :11      Bulk Density, Bottom          
ROP5_RM.M/HR                          :12      Rate of penetration averaged over last 5 ft(1_5 m), Recorded Mode
SIFA  .CU                            :13      Sigma Formation, Average      
~Ascii Data Section
# ...
   2853.84220       8.48997       0.12666       8.50000      -0.00195      15.96171       2.53031       2.56159       2.54902       2.59391       5.10357       2.51803      25.39960      15.30258 
   2853.99460       8.51877       0.15502       8.50000       0.00771      15.01353       2.34054       2.36840       2.31661       2.36330       5.10614       2.50761      24.93874      15.57416 
   2854.14700       8.54897       0.15976       8.50000       0.01408      13.85678       2.04606       2.04284       1.99978       1.97231       5.18869       2.49968      25.28244      14.80488 
   2854.29940       8.53999       0.15465       8.50000       0.01187      12.18622       2.05708       2.04979       2.08935       2.11454       5.32607       2.47893      25.28244      14.67293 
   2854.45180       8.53684       0.16618       8.50000       0.00581      11.24665       2.03999       2.02693       2.06903       2.10107       5.32268       2.46685      25.39961      14.22176 
   2854.60420       8.52726       0.15558       8.50000       0.00521      10.39121       1.86740       1.85706       1.84726       1.84647       5.21435       2.46067      26.31354      14.49816 
   2854.75660       8.56539       0.16356       8.50000       0.01362      11.17164       1.89551       1.87618       1.89771       1.92523       5.06783       2.47655      26.06680      15.02284 
   2854.90900       8.55465       0.16215       8.50000       0.00977      12.48871       1.92377       1.90960       1.83658       1.84049       5.08984       2.47712      25.52006      14.99074 
   2855.06140       8.56900       0.14623       8.50000       0.00888      14.11789       1.97574       1.95880       1.92947       1.92640       5.03104       2.49318      25.22440      15.18146 
   2855.21380       8.55350       0.15512       8.50000       0.00060      14.64324       2.09770       2.09165       2.06812       2.09508       5.04092       2.49606      25.16635      15.06805 
   2855.36620       8.55258       0.15520       8.50000       0.00177      15.04448       2.17417       2.16049       2.11225       2.13188       4.97068       2.50757      25.16635      14.93944 
   2855.51860       8.53402       0.14538       8.50000      -0.00298      14.90853       2.22532       2.22670       2.18669       2.21214       4.97738       2.49820      24.93735      15.19600 
   2855.67100       8.53088       0.14566       8.50000       0.00025      14.00900       2.30777       2.31774       2.26456       2.28760       5.01187       2.49883      24.49296      15.15950 
   2855.82340       8.52412       0.14586       8.50000       0.00305      13.04089       2.36751       2.35869       2.29527       2.28652       5.05191       2.49771      24.16894      15.06241 
   2855.97580       8.54166       0.13456       8.50000       0.00670      12.81766       2.46976       2.44174       2.40245       2.38784       5.08123       2.50972      23.03749      14.59044 
   2856.12820       8.54750       0.13044       8.50000       0.00372      12.57512       2.63875       2.60187       2.56946       2.62460       5.04824       2.52211      22.62530      14.09541 
   2856.28060       8.54553       0.13337       8.50000       0.00234      12.63988       2.74837       2.74492       2.82636       3.13439       5.03637       2.52696      22.56020      14.09053 
   2856.43300       8.53022       0.12676       8.50000      -0.00047      13.31037       2.71470       2.71778       2.65930       2.63909       5.03049       2.52473      22.76637      13.89923 
   2856.58540       8.51530       0.13846       8.50000      -0.00201      13.49597       2.69083       2.78499       2.80307       2.92474       4.99062       2.51576      22.86093      14.44867 
   2856.73780       8.51689       0.13586       8.50000      -0.00160      13.32202       2.71957       2.80966       2.77965       2.79120       5.00169       2.51655      22.81287      14.24384 
   2856.89020       8.51469       0.12784       8.50000       0.00344      13.14417       2.79548       2.86343       2.85285       2.87155       5.16554       2.51624      22.90764      14.20387 
   2857.04260       8.56248       0.11935       8.50000       0.01879      12.56317       3.00421       2.93573       2.90116       2.82287       5.27567       2.54190      22.86016      13.67635 
   2857.19500       8.56154       0.09661       8.50000       0.00904      11.72298       3.60575       3.47783       3.39315       3.33169       5.30943       2.55949      22.76482      12.91514 
   2857.34740       8.55608       0.08474       8.50000       0.00628      11.78158       4.49850       4.30326       4.29759       4.26977       5.23341       2.59535      22.76482      12.00234 
   2857.49980       8.53737       0.08013       8.50000      -0.00070      11.54518       4.91889       4.82912       4.79316       4.83715       5.34556       2.60565      22.62474      12.06056 
   2857.65220       8.50897       0.08289       8.50000       0.00606      11.29203       4.83274       4.83116       4.70953       4.74197       5.37611       2.59969      22.39317      12.66981 
   2857.80460       8.51764       0.08447       8.50000       0.00537      11.24375       4.53279       4.58177       4.51507       4.57209       5.30761       2.58560      22.03647      12.75582 
   2857.95700       8.50126       0.08404       8.50000       0.00011      12.17510       4.30679       4.38434       4.23811       4.23550       5.17989       2.57058      21.77125      12.60083 
   2858.10940       8.51186       0.09374       8.50000      -0.00032      12.71176       4.01499       4.02403       4.01315       4.01991       5.06868       2.57502      21.18229      13.27976 
   2858.26180       8.52209       0.09714       8.50000       0.00477      13.19844       4.00629       4.11007       4.16686       4.20376       5.07194       2.58727      20.70633      13.23801 
   2858.41420       8.51672       0.09060       8.50000       0.00280      13.44501       3.77252       3.75742       3.73165       3.73106       5.05344       2.58500      20.32148      12.98723 
   2858.56660       8.51700       0.09432       8.50000       0.00281      13.88351       4.13764       4.18509       4.38635       4.35991       5.08780       2.58085      20.17080      13.20026 
   2858.71900       8.50755       0.09857       8.50000      -0.00009      12.90283       3.84832       3.83356       3.76962       3.67952       5.15329       2.56934      20.09685      13.61007 
   2858.87140       8.52099       0.08903       8.50000       0.00187      11.78734       3.99418       3.93379       3.90003       3.85334       5.12161       2.57389      19.80723      12.91266 
   2859.02380       8.52650       0.09305       8.50000       0.00286      11.18883       4.40466       4.29600       4.24903       4.24106       5.09786       2.58844      19.56039      12.36272 
   2859.17620       8.53346       0.08632       8.50000       0.00142      10.86742       4.58732       4.59456       4.61650       4.72677       5.05986       2.59623      19.45569      12.18992 
   2859.32860       8.52546       0.08351       8.50000       0.00415      11.12914       4.46809       4.51584       4.51907       4.59840       5.09806       2.59570      19.25069      12.55195 
   2859.48100       8.51831       0.09195       8.50000       0.00335      12.21824       4.20195       4.25097       4.22116       4.23446       5.16089       2.58333      19.52415      12.93587 
   2859.63340       8.51381       0.09059       8.50000       0.00078      13.31443       4.04437       4.11776       4.11327       4.14341       5.15558       2.57425      19.70008      13.29285 
   2859.78580       8.52098       0.09277       8.50000      -0.00068      13.59184       4.04180       4.04447       4.05389       3.99679       5.09359       2.57329      19.69964      13.23510 
   2859.93820       8.53040       0.08719       8.50000      -0.00163      13.59932       4.39460       4.32276       4.33735       4.30094       5.09189       2.58128      19.73504      12.87855 
