~Version Information
VERS  .          2.0                              :CWLS Log Ascii Standard - Version 2.0
WRAP  .          NO                               :One line per depth step
~Well Information Block
#MNEM.UNIT       Data Type                        Information
#---------       ---------                        -------------------------------
STRT  .M         2741.37100                       :START DEPTH
STOP  .M         2992.67900                       :STOP DEPTH
STEP  .M          0.15240                         :INCREMENT
NULL  .          -999.25                          :NULL DATA VALUE
COMP  .          StatoilHydro                                                                                                                      :COMPANY
WELL  .          15/9-F-4                         :WELL
FLD   .          Volve                            :FIELD
LOC   .                                           :LOCATION
PROV  .                                           :PROVINCE
STAT  .                                           :STATE
CNTY  .                                           :COUNTY
CTRY  .                                           :COUNTRY
DATE  .                                           :DATE
UWI   .          15/9-F-4                         :UNIQUE WELL UWI
LIC   .                                           :LICENSE NUMBER
API   .                                                                                                                                            :API NUMBER
SRVC  .                                           :SERVICE COMPANY
~Parameter Information Block
#MNEM.UNIT       Value                            Description
#---------       ---------                        -------------
~Curve Information Block
#MNEM.UNIT       API Code            Curve    Description
#--------        --------------      -----    -------------------
DEPT  .M                             :0       Index
BCAV  .IN                            :1       Best Caliper, Average Diameter
BPHI  .V/V                           :2       Best Thermal Neutron Porosity, Average
BS_ARC.IN                            :3       Bit Size                      
DRHB  .G/C3                          :4       Bulk Density Correction, Bottom
GRMA  .GAPI                          :5       Gamma Ray, Average            
P16H  .OHMM                          :6       ARC Phase Shift Resistivity 16 inch Spacing at 2 MHz, Environmentally Corrected_
P22H  .OHMM                          :7       ARC Phase Shift Resistivity 22 inch Spacing at 2 MHz, Environmentally Corrected_
P34H  .OHMM                          :8       ARC Phase Shift Resistivity 34 inch Spacing at 2 MHz, Environmentally Corrected_
P40H  .OHMM                          :9       ARC Phase Shift Resistivity 40 inch Spacing at 2 MHz, Environmentally Corrected_
PEB   .                              :10      Photoelectric Factor, Bottom  
ROBB  .G/C3                          :11      Bulk Density, Bottom          
ROP5_RM.M/HR                          :12      Rate of penetration averaged over last 5 ft(1_5 m), Recorded Mode
SIFA  .CU                            :13      Sigma Formation, Average      
~Ascii Data Section
# ...
   2803.85500       8.50538       0.07946       8.50000      -0.00048       7.53265       6.14245       6.08473       5.99659       5.93656       5.33084       2.57037      11.62397      11.08834 
   2804.00740       8.51344       0.08034       8.50000      -0.00262       7.81753       6.49405       6.42800       6.28111       6.16955       5.18630       2.58521      11.59930      11.22445 
   2804.15980       8.51000       0.07802       8.50000      -0.00305       7.57098       6.74618       6.66141       6.48195       6.36843       5.19658       2.59054      11.71102      11.48915 
   2804.31220       8.52552       0.06879       8.50000      -0.00061       7.37660       7.09669       6.94742       6.61412       6.47404       5.25340       2.60264      11.77344      10.94301 
   2804.46460       8.51382       0.06742       8.50000      -0.00381       7.71218       7.34786       7.08468       6.73199       6.57108       5.31009       2.59065      11.98814      10.54374 
   2804.61700       8.51923       0.07526       8.50000      -0.00399       7.13970       7.54820       7.31738       7.05392       7.00402       5.22289       2.59594      12.07150      10.80300 
   2804.76940       8.50647       0.07533       8.50000      -0.00572       7.20168       7.54202       7.36272       7.15749       7.17188       5.23279       2.58943      12.08497      11.00656 
   2804.92180       8.51287       0.07289       8.50000      -0.00408       8.24652       7.10173       7.02027       6.87751       6.84057       5.19619       2.59760      11.95307      11.20839 
   2805.07420       8.51144       0.07368       8.50000      -0.00325       8.77714       6.93152       6.88878       6.66716       6.66700       5.26199       2.58999      11.95323      11.05293 
   2805.22660       8.52042       0.07600       8.50000       0.00021       9.06638       6.54713       6.51317       6.44794       6.51528       5.30962       2.58778      12.03225      11.79202 
   2805.37900       8.51780       0.07204       8.50000       0.00245       9.10136       6.20630       6.14027       6.07560       6.03709       5.38886       2.58109      12.22034      11.22034 
   2805.53140       8.51467       0.06625       8.50000       0.00468       8.87683       6.37911       6.17504       6.07543       6.01353       5.38910       2.58569      12.38470      10.94384 
   2805.68380       8.52368       0.07656       8.50000       0.00575       8.74631       6.26539       6.09823       6.04979       6.02766       5.41348       2.59219      12.41289      11.17165 
   2805.83620       8.52513       0.07734       8.50000       0.01442       8.36511       5.92216       5.76720       5.66247       5.72779       5.48471       2.59892      12.42702      10.90221 
   2805.98860       8.51105       0.08417       8.50000       0.01445       8.38294       5.57606       5.58015       5.65845       5.65466       5.51119       2.58294      12.44093      11.46622 
   2806.14100       8.51183       0.08410       8.50000       0.01468       8.43246       5.05240       5.13605       5.21671       5.34512       5.49972       2.56940      12.44098      11.62537 
   2806.29340       8.54380       0.09629       8.50000       0.01249       8.25475       4.65720       4.77927       4.83288       4.92698       5.54670       2.55510      12.49766      11.82274 
   2806.44580       8.57824       0.09746       8.50000       0.01143       7.99252       4.41233       4.46314       4.48137       4.55293       5.54653       2.55296      12.70029      11.59557 
   2806.59820       8.55278       0.10174       8.50000       0.00438       7.89805       4.51471       4.55919       4.60854       4.64976       5.58265       2.54184      12.97039      11.68290 
   2806.75060       8.52516       0.10712       8.50000       0.00133       7.54197       4.51990       4.54986       4.61928       4.67526       5.43508       2.54103      13.15677      11.44173 
   2806.90300       8.53413       0.10282       8.50000       0.00543       7.97135       4.60871       4.59486       4.74792       4.78376       5.47855       2.55328      13.31675      11.31420 
   2807.05540       8.52606       0.09425       8.50000       0.00476       8.29205       4.74636       4.81530       5.01463       5.05367       5.41002       2.55337      13.43657      11.58037 
   2807.20780       8.54010       0.09180       8.50000       0.00517       7.87217       4.86140       4.93778       4.93828       4.98218       5.36190       2.55597      13.73564      11.78774 
   2807.36020       8.52400       0.09022       8.50000       0.00203       8.42966       5.10837       5.21173       5.33901       5.45225       5.27963       2.55550      13.92474      11.12189 
   2807.51260       8.52216       0.08397       8.50000       0.00134       8.55217       5.35143       5.49439       5.53786       5.59430       5.23718       2.56222      14.75362      11.53464 
   2807.66500       8.52335       0.08667       8.50000      -0.00048       8.21474       5.76447       5.81695       5.86916       5.89115       5.25394       2.57034      15.03147      11.29373 
   2807.81740       8.52839       0.08502       8.50000      -0.00061       8.07317       6.29378       6.25679       6.25375       6.24866       5.18438       2.57956      15.56784      10.78281 
   2807.96980       8.52167       0.07533       8.50000      -0.00388       8.06244       7.02357       6.97154       7.05156       7.04878       5.18225       2.58383      15.81095      10.35772 
   2808.12220       8.51662       0.06593       8.50000      -0.00491       7.59116       7.76208       7.66240       7.79761       7.97450       5.11616       2.59561      16.06618      10.54039 
   2808.27460       8.51654       0.07021       8.50000      -0.00749       7.61806       7.99911       7.97724       7.91539       7.92137       5.18772       2.59412      16.18398      10.53144 
   2808.42700       8.51499       0.06833       8.50000      -0.00360       7.75982       7.85649       7.84756       7.84425       7.90893       5.22268       2.60377      16.23186      10.49533 
   2808.57940       8.49383       0.07044       8.50000      -0.00336       7.49938       7.92815       8.09030       8.10470       8.16774       5.28227       2.59005      16.23186      10.68829 
   2808.73180       8.48606       0.07433       8.50000      -0.00177       7.67504       7.75525       7.90377       7.86999       7.89699       5.18909       2.58464      16.23186      11.15587 
   2808.88420       8.50934       0.06653       8.50000       0.00049       7.43559       7.64294       7.58257       7.56803       7.49534       5.18250       2.58299      15.45550      10.95778 
   2809.03660       8.52590       0.06501       8.50000       0.00126       7.60416       8.40528       8.29085       8.20556       8.16882       5.17990       2.60019      15.67652       9.94685 
   2809.18900       8.52562       0.06661       8.50000       0.00002       7.45831       9.14371       8.97559       8.92527       8.88271       5.25216       2.61441      15.78803      10.55009 
   2809.34140       8.51252       0.06207       8.50000      -0.00034       7.85653       9.11036       8.96869       8.84459       8.72274       5.25551       2.62354      15.41201      11.00602 
   2809.49380       8.50211       0.05984       8.50000      -0.00100       7.87037       9.11497       9.03167       8.79479       8.68022       5.24508       2.61779      15.23976      11.09720 
   2809.64620       8.50365       0.06257       8.50000      -0.00193       8.15565       9.13205       9.11274       8.96967       8.97075       5.25987       2.60325      15.67574      10.98195 
   2809.79860       8.52605       0.06287       8.50000       0.00468       8.16841       8.95956       9.04191       8.90915       8.93500       5.23989       2.60360      15.99095      10.74457 
   2809.95100       8.52796       0.06239       8.50000       0.00289       8.27954       9.04965       9.09338       8.97958       8.97237       5.25562       2.59604      16.42652      10.28222 
