~Version Information
VERS  .          2.0                              :CWLS Log Ascii Standard - Version 2.0
WRAP  .          NO                               :One line per depth step
~Well Information Block
#MNEM.UNIT       Data Type                        Information
#---------       ---------                        -------------------------------
STRT  .M         2955.95000                       :START DEPTH
STOP  .M         3509.92500                       :STOP DEPTH
STEP  .M          0.15240                         :INCREMENT
NULL  .          -999.25                          :NULL DATA VALUE
COMP  .          StatoilHydro                                                                                                                      :COMPANY
WELL  .          15/9-F-4                         :WELL
FLD   .          Volve                            :FIELD
LOC   .                                           :LOCATION
PROV  .                                           :PROVINCE
STAT  .                                           :STATE
CNTY  .                                           :COUNTY
CTRY  .                                           :COUNTRY
DATE  .                                           :DATE
UWI   .          15/9-F-4                         :UNIQUE WELL UWI
LIC   .                                           :LICENSE NUMBER
API   .                                                                                                                                            :API NUMBER
SRVC  .                                           :SERVICE COMPANY
~Parameter Information Block
#MNEM.UNIT       Value                            Description
#---------       ---------                        -------------
~Curve Information Block
#MNEM.UNIT       API Code            Curve    Description
#--------        --------------      -----    -------------------
DEPT  .M                             :0       Index
BCAV  .IN                            :1       Best Caliper, Average Diameter
BPHI  .V/V                           :2       Best Thermal Neutron Porosity, Average
BS    .IN                            :3       Bit Size                      
DRHB  .G/C3                          :4       Bulk Density Correction, Bottom
GRMA  .GAPI                          :5       Gamma Ray, Average            
P16H  .OHMM                          :6       ARC Phase Shift Resistivity 16 inch Spacing at 2 MHz, Environmentally Corrected_
P22H  .OHMM                          :7       ARC Phase Shift Resistivity 22 inch Spacing at 2 MHz, Environmentally Corrected_
P34H  .OHMM                          :8       ARC Phase Shift Resistivity 34 inch Spacing at 2 MHz, Environmentally Corrected_
P40H  .OHMM                          :9       ARC Phase Shift Resistivity 40 inch Spacing at 2 MHz, Environmentally Corrected_
PEB   .                              :10      Photoelectric Factor, Bottom  
ROBB  .G/C3                          :11      Bulk Density, Bottom          
ROP5_RM.M/HR                          :12      Rate of penetration averaged over last 5 ft(1_5 m), Recorded Mode
RT_ARC.OHMM                          :13      ARC True Formation Resistivity
SIFA  .CU                            :14      Sigma Formation, Average      
~Ascii Data Section
# ...
   3176.01560       8.52691       0.25315       8.50000       0.01289     112.32429       1.63784       1.66376       1.76758       1.77114       4.55419       2.45633      25.05161       1.74441      32.60326 
   3176.16800       8.56219       0.26539       8.50000       0.02356     112.93847       1.66021       1.68745       1.76367       1.77016       4.77210       2.46184      25.04993       1.74175      32.29263 
   3176.32040       8.54412       0.24971       8.50000       0.02649     113.68825       1.66615       1.71546       1.83734       1.86443       5.01055       2.45263      25.00545       1.73346      31.00203 
   3176.47280       8.55161       0.24891       8.50000       0.02849     113.63049       1.62046       1.67898       1.76832       1.77286       5.12615       2.45469      24.93874       1.72409      31.68838 
   3176.62520       8.52727       0.26031       8.50000       0.02269     112.07058       1.59978       1.64233       1.68269       1.68755       5.01786       2.45237      25.05272       1.71835      31.86304 
   3176.77760       8.51923       0.24198       8.50000       0.01922     112.12811       1.61850       1.65810       1.67291       1.68226       4.81722       2.45857      25.05272       1.71953      34.60866 
   3176.93000       8.49995       0.25416       8.50000       0.01375     111.57336       1.64188       1.69566       1.74418       1.74673       4.70465       2.45417      25.05272       1.72606      32.11762 
   3177.08240       8.48954       0.25637       8.50000       0.01411     110.05807       1.66037       1.72085       1.77804       1.77660       4.74392       2.45038      25.05272       1.73425      31.75720 
   3177.23480       8.48048       0.26724       8.50000       0.00525     110.79042       1.67070       1.72133       1.75052       1.76119       4.80200       2.43796      25.05272       1.74112      31.55096 
   3177.38720       8.49573       0.25411       8.50000       0.00656     110.25489       1.69865       1.73079       1.75165       1.76891       4.79356       2.44597      25.04993       1.74560      30.46573 
   3177.53960       8.53168       0.24280       8.50000       0.00500     110.06265       1.68849       1.72546       1.74538       1.73970       4.84763       2.45107      25.04993       1.74692      31.38285 
   3177.69200       8.53708       0.25721       8.50000       0.00970     110.51038       1.71920       1.74518       1.82741       1.89833       4.71934       2.45571      25.05273       1.74431      32.54177 
   3177.84440       8.52877       0.23873       8.50000       0.00909     111.76859       1.68259       1.70215       1.72168       1.75299       4.58313       2.45194      25.22688       1.73952      31.97303 
   3177.99680       8.52060       0.26068       8.50000       0.00935     112.03698       1.63253       1.63668       1.61901       1.61926       4.45500       2.44962      25.40104       1.73584      31.63638 
   3178.14920       8.53017       0.25506       8.50000       0.00643     115.25246       1.69178       1.72075       1.74862       1.78950       4.22802       2.46042      25.85581       1.73463      33.07470 
   3178.30160       8.55363       0.24294       8.50000       0.00766     116.34893       1.67569       1.69390       1.76725       1.84157       4.07797       2.47302      26.00056       1.73548      32.69131 
   3178.45400       8.55424       0.24498       8.50000       0.01213     116.90686       1.64251       1.63806       1.70983       1.77343       4.20210       2.47942      25.45838       1.73874      32.12553 
   3178.60640       8.55339       0.23860       8.50000       0.02344     116.30933       1.66479       1.66633       1.74078       1.80967       4.59793       2.47989      25.28101       1.74646      33.24474 
   3178.75880       8.54122       0.24945       8.50000       0.02411     116.32160       1.70864       1.71774       1.79867       1.89022       4.97032       2.47080      25.16493       1.75797      32.65437 
   3178.91120       8.51696       0.24904       8.50000       0.01884     115.27312       1.73806       1.74919       1.85860       1.95725       4.82051       2.46590      24.54892       1.77007      31.64464 
   3179.06360       8.48434       0.25155       8.50000       0.00502     113.13579       1.72076       1.72269       1.77187       1.83752       4.41337       2.45595      24.31232       1.78085      31.40360 
   3179.21600       8.49230       0.24987       8.50000       0.00035     111.94739       1.73218       1.73506       1.83974       1.93076       4.03364       2.45716      24.38594       1.79235      32.64428 
   3179.36840       8.50450       0.24637       8.50000      -0.00041     111.49446       1.73138       1.71726       1.77996       1.86144       3.89468       2.46102      24.66630       1.80637      32.15735 
   3179.52080       8.51118       0.24000       8.50000       0.00306     110.86116       1.76585       1.78515       1.92934       2.02462       4.02177       2.45945      24.71383       1.82132      30.90936 
   3179.67320       8.53384       0.24515       8.50000       0.00863     109.87269       1.74449       1.76708       1.88980       1.95907       4.17425       2.46161      24.15579       1.83387      30.23237 
   3179.82560       8.52058       0.23599       8.50000       0.01175     110.39513       1.76033       1.78001       1.91229       1.99183       4.17595       2.46045      23.65008       1.84296      30.87632 
   3179.97800       8.52900       0.23710       8.50000       0.01403     110.67412       1.74828       1.76872       1.88304       1.91172       4.08100       2.46961      24.34186       1.84911      30.80879 
   3180.13040       8.48586       0.24269       8.50000       0.01062     109.69719       1.77624       1.83311       1.97449       1.99733       4.09266       2.46120      24.99886       1.85243      30.50333 
   3180.28280       8.47591       0.25308       8.50000       0.00923     109.50677       1.75815       1.80776       1.97885       2.01813       4.21696       2.45449      25.56905       1.85198      31.08084 
   3180.43520       8.46163       0.23619       8.50000       0.00783     108.71791       1.75373       1.76833       1.89469       1.93998       4.24341       2.44449      25.75917       1.84873      31.99056 
   3180.58760       8.50623       0.24223       8.50000       0.01389     109.76176       1.74943       1.77718       1.82822       1.83303       4.11687       2.45685      26.31792       1.84416      31.63655 
   3180.74000       8.54284       0.25401       8.50000       0.01603     109.02006       1.75907       1.82190       1.89274       1.88057       4.08382       2.46616      26.63225       1.83881      31.34999 
   3180.89240       8.57514       0.24740       8.50000       0.01662     109.64478       1.72688       1.79153       1.90764       1.87275       4.04503       2.47461      26.33047       1.83257      31.17354 
   3181.04480       8.56327       0.24464       8.50000       0.01132     109.35328       1.71551       1.75828       1.78896       1.72649       3.94852       2.47754      25.81701       1.82703      31.28554 
   3181.19720       8.55926       0.24923       8.50000       0.00803     111.59466       1.74297       1.76838       1.80085       1.77513       3.84218       2.48875      25.75622       1.82306      31.42678 
   3181.34960       8.53899       0.24675       8.50000       0.00629     113.72472       1.74606       1.80067       1.91281       1.91662       3.93052       2.49187      26.24961       1.81882      32.77815 
   3181.50200       8.54061       0.25000       8.50000       0.01455     116.51838       1.70958       1.78122       1.83904       1.83723       4.27009       2.48417      25.88078       1.81272      32.59233 
   3181.65440       8.52532       0.24995       8.50000       0.02345     118.22897       1.67868       1.71017       1.72280       1.74721       4.55960       2.47956      24.96749       1.80960      33.60154 
