~Version Information
VERS  .          2.0                              :CWLS Log Ascii Standard - Version 2.0
WRAP  .          NO                               :One line per depth step
~Well Information Block
#MNEM.UNIT       Data Type                        Information
#---------       ---------                        -------------------------------
STRT  .M         2741.37100                       :START DEPTH
STOP  .M         2992.67900                       :STOP DEPTH
STEP  .M          0.15240                         :INCREMENT
NULL  .          -999.25                          :NULL DATA VALUE
COMP  .          StatoilHydro                                                                                                                      :COMPANY
WELL  .          15/9-F-4                         :WELL
FLD   .          Volve                            :FIELD
LOC   .                                           :LOCATION
PROV  .                                           :PROVINCE
STAT  .                                           :STATE
CNTY  .                                           :COUNTY
CTRY  .                                           :COUNTRY
DATE  .                                           :DATE
UWI   .          15/9-F-4                         :UNIQUE WELL UWI
LIC   .                                           :LICENSE NUMBER
API   .                                                                                                                                            :API NUMBER
SRVC  .                                           :SERVICE COMPANY
~Parameter Information Block
#MNEM.UNIT       Value                            Description
#---------       ---------                        -------------
~Curve Information Block
#MNEM.UNIT       API Code            Curve    Description
#--------        --------------      -----    -------------------
DEPT  .M                             :0       Index
BCAV  .IN                            :1       Best Caliper, Average Diameter
BPHI  .V/V                           :2       Best Thermal Neutron Porosity, Average
BS_ARC.IN                            :3       Bit Size                      
DRHB  .G/C3                          :4       Bulk Density Correction, Bottom
GRMA  .GAPI                          :5       Gamma Ray, Average            
P16H  .OHMM                          :6       ARC Phase Shift Resistivity 16 inch Spacing at 2 MHz, Environmentally Corrected_
P22H  .OHMM                          :7       ARC Phase Shift Resistivity 22 inch Spacing at 2 MHz, Environmentally Corrected_
P34H  .OHMM                          :8       ARC Phase Shift Resistivity 34 inch Spacing at 2 MHz, Environmentally Corrected_
P40H  .OHMM                          :9       ARC Phase Shift Resistivity 40 inch Spacing at 2 MHz, Environmentally Corrected_
PEB   .                              :10      Photoelectric Factor, Bottom  
ROBB  .G/C3                          :11      Bulk Density, Bottom          
ROP5_RM.M/HR                          :12      Rate of penetration averaged over last 5 ft(1_5 m), Recorded Mode
SIFA  .CU                            :13      Sigma Formation, Average      
~Ascii Data Section
# ...
   2903.82940       8.54415       0.12700       8.50000       0.00568      11.82764       3.19129       3.16544       3.10738       3.13332       5.26480       2.52845      17.69820      13.69363 
   2903.98180       8.54200       0.12840       8.50000       0.00131      12.23495       3.19126       3.16395       3.14521       3.19522       5.13066       2.53255      17.75554      13.40440 
   2904.13420       8.52291       0.11471       8.50000      -0.00010      12.87555       3.25941       3.27258       3.31392       3.35771       5.10653       2.52699      17.98791      13.58789 
   2904.28660       8.53472       0.11955       8.50000       0.00280      12.36941       3.20123       3.24546       3.29202       3.35013       5.02063       2.52666      17.98863      13.47829 
   2904.43900       8.52708       0.11819       8.50000       0.00488      11.36294       3.12754       3.10388       3.00800       2.98358       5.11649       2.52546      18.04714      12.98155 
   2904.59140       8.52129       0.11547       8.50000      -0.00102      11.12014       3.23581       3.37100       3.40496       3.41250       5.12821       2.52239      18.04714      13.86092 
   2904.74380       8.51705       0.12727       8.50000      -0.00391      10.99118       3.28931       3.30849       3.28599       3.29075       5.15406       2.52742      18.01789      14.01055 
   2904.89620       8.53957       0.12024       8.50000      -0.00668      11.64014       3.33449       3.35355       3.36438       3.35521       5.06278       2.53130      17.98827      13.90465 
   2905.04860       8.56202       0.11220       8.50000      -0.00000      12.43899       3.70025       3.67271       3.62673       3.58853       5.11455       2.54207      18.01788      13.65783 
   2905.20100       8.53486       0.10371       8.50000      -0.00446      12.33706       3.75739       3.69675       3.65488       3.61034       5.13579       2.53828      18.04714      12.94184 
   2905.35340       8.53267       0.10097       8.50000       0.00524      11.70848       4.26011       4.12714       4.06968       4.06650       5.19281       2.55554      18.04786      12.96486 
   2905.50580       8.50364       0.09974       8.50000      -0.00157      11.44317       4.42114       4.32501       4.26105       4.24792       5.22550       2.55494      18.13676      12.76085 
   2905.65820       8.50169       0.09795       8.50000      -0.00018      10.45980       4.25720       4.30067       4.32525       4.45607       5.13001       2.55661      18.10675      12.23426 
   2905.81060       8.47965       0.10179       8.50000      -0.00335       9.78455       4.10863       4.10672       4.01157       4.02843       5.13540       2.53394      18.04713      12.67538 
   2905.96300       8.50659       0.10094       8.50000      -0.00055       9.65675       3.85156       3.92071       3.90099       3.96773       4.99975       2.53432      17.92907      12.73936 
   2906.11540       8.52471       0.10784       8.50000      -0.00022      10.28448       3.79034       3.82473       3.81349       3.83271       4.99095       2.52967      17.81324      13.29867 
   2906.26780       8.53385       0.10797       8.50000      -0.00067      10.47420       3.76885       3.79141       3.82319       3.75403       4.93354       2.53432      17.52859      13.38845 
   2906.42020       8.53213       0.10688       8.50000      -0.00063      10.66413       4.09413       4.02104       4.00335       4.03201       4.95121       2.54572      17.47252      13.11417 
   2906.57260       8.51592       0.09711       8.50000      -0.00421      10.69806       4.35759       4.27011       4.26642       4.22533       4.95166       2.55624      17.22614      12.42982 
   2906.72500       8.52804       0.09439       8.50000      -0.00304      11.62262       4.46344       4.47068       4.45042       4.38403       4.94716       2.57438      17.14526      12.88661 
   2906.87740       8.50655       0.08928       8.50000      -0.00439      12.14795       4.57269       4.57515       4.57968       4.55243       4.90278       2.57213      17.11821      12.87805 
   2907.02980       8.53120       0.09964       8.50000       0.00277      12.05279       4.40936       4.47367       4.43333       4.41794       4.91732       2.57586      17.06526      12.86048 
   2907.18220       8.54018       0.10300       8.50000       0.00268      12.11921       4.30273       4.33996       4.27426       4.21712       4.90873       2.56789      17.03871      13.17373 
   2907.33460       8.56434       0.09142       8.50000       0.00401      12.31184       4.44473       4.39799       4.35663       4.38323       4.99022       2.56866      16.90746      12.70131 
   2907.48700       8.55542       0.08623       8.50000      -0.00061      12.30060       4.50127       4.51738       4.45201       4.43252       5.08026       2.56637      16.88141      12.72094 
   2907.63940       8.53652       0.09430       8.50000      -0.00431      12.16692       4.54010       4.53782       4.45490       4.43181       5.13999       2.56164      16.82965      12.81813 
   2907.79180       8.52397       0.10217       8.50000      -0.00173      12.58952       4.23710       4.29183       4.27842       4.25053       5.35474       2.55043      16.93361      12.67939 
   2907.94420       8.51959       0.10225       8.50000       0.00028      12.41598       4.10018       4.11095       4.04348       4.13207       5.33311       2.54322      16.98613      13.23260 
   2908.09660       8.54444       0.09860       8.50000       0.00852      12.01091       3.96325       3.94921       3.96690       4.10226       5.27407       2.55583      16.98612      13.41846 
   2908.24900       8.54683       0.09495       8.50000       0.00448      11.02185       4.01124       3.96022       3.91116       3.84150       5.14754       2.56114      16.98609      12.87280 
   2908.40140       8.58754       0.10019       8.50000       0.01510      10.17397       4.22763       4.05033       3.95627       3.98676       5.10000       2.58079      16.82955      12.81352 
   2908.55380       8.58242       0.10514       8.50000       0.01184       9.45021       3.72438       3.70856       3.64227       3.56674       5.17721       2.56435      16.67599      12.83553 
   2908.70620       8.57308       0.10307       8.50000       0.01248       9.40948       3.43548       3.39393       3.42792       3.46516       5.09030       2.55689      16.72728      12.90048 
   2908.85860       8.52076       0.11631       8.50000       0.00121       9.66285       3.23048       3.23365       3.24430       3.27105       5.16319       2.52211      16.77798      13.19597 
   2909.01100       8.48641       0.13457       8.50000       0.00095      10.27905       2.79534       2.83667       2.81889       2.83356       5.26983       2.49207      16.77863      14.11056 
   2909.16340       8.53177       0.14081       8.50000       0.01471      10.31509       2.55756       2.55520       2.50163       2.59724       5.33711       2.49037      16.72676      14.48549 
   2909.31580       8.53977       0.13570       8.50000       0.01015      10.59641       2.32223       2.31334       2.18737       2.17703       5.31507       2.48565      15.41107      14.08337 
   2909.46820       8.56670       0.13569       8.50000       0.01229      10.52893       2.57919       2.54945       2.55158       2.59468       5.18961       2.50324      15.41158      14.35084 
   2909.62060       8.53855       0.14029       8.50000       0.00489      10.17645       2.50123       2.46059       2.47730       2.48620       5.11816       2.49671      15.49839      13.71087 
   2909.77300       8.55271       0.13359       8.50000       0.01035       9.44216       2.69629       2.62273       2.56240       2.53161       5.21003       2.50826      15.54221      13.47715 
   2909.92540       8.52845       0.12204       8.50000       0.00451      10.12538       2.87233       2.95991       2.98783       3.08101       5.18476       2.51215      15.76578      13.15203 
