~Version Information
VERS  .          2.0                              :CWLS Log Ascii Standard - Version 2.0
WRAP  .          NO                               :One line per depth step
~Well Information Block
#MNEM.UNIT       Data Type                        Information
#---------       ---------                        -------------------------------
STRT  .M         2955.95000                       :START DEPTH
STOP  .M         3509.92500                       :STOP DEPTH
STEP  .M          0.15240                         :INCREMENT
NULL  .          -999.25                          :NULL DATA VALUE
COMP  .          StatoilHydro                                                                                                                      :COMPANY
WELL  .          15/9-F-4                         :WELL
FLD   .          Volve                            :FIELD
LOC   .                                           :LOCATION
PROV  .                                           :PROVINCE
STAT  .                                           :STATE
CNTY  .                                           :COUNTY
CTRY  .                                           :COUNTRY
DATE  .                                           :DATE
UWI   .          15/9-F-4                         :UNIQUE WELL UWI
LIC   .                                           :LICENSE NUMBER
API   .                                                                                                                                            :API NUMBER
SRVC  .                                           :SERVICE COMPANY
~Parameter Information Block
#MNEM.UNIT       Value                            Description
#---------       ---------                        -------------
~Curve Information Block
#MNEM.UNIT       API Code            Curve    Description
#--------        --------------      -----    -------------------
DEPT  .M                             :0       Index
BCAV  .IN                            :1       Best Caliper, Average Diameter
BPHI  .V/V                           :2       Best Thermal Neutron Porosity, Average
BS    .IN                            :3       Bit Size                      
DRHB  .G/C3                          :4       Bulk Density Correction, Bottom
GRMA  .GAPI                          :5       Gamma Ray, Average            
P16H  .OHMM                          :6       ARC Phase Shift Resistivity 16 inch Spacing at 2 MHz, Environmentally Corrected_
P22H  .OHMM                          :7       ARC Phase Shift Resistivity 22 inch Spacing at 2 MHz, Environmentally Corrected_
P34H  .OHMM                          :8       ARC Phase Shift Resistivity 34 inch Spacing at 2 MHz, Environmentally Corrected_
P40H  .OHMM                          :9       ARC Phase Shift Resistivity 40 inch Spacing at 2 MHz, Environmentally Corrected_
PEB   .                              :10      Photoelectric Factor, Bottom  
ROBB  .G/C3                          :11      Bulk Density, Bottom          
ROP5_RM.M/HR                          :12      Rate of penetration averaged over last 5 ft(1_5 m), Recorded Mode
RT_ARC.OHMM                          :13      ARC True Formation Resistivity
SIFA  .CU                            :14      Sigma Formation, Average      
~Ascii Data Section
# ...
   3251.30120       8.49893       0.22323       8.50000       0.00443      26.66970      38.14585      37.29668      38.78432      39.20669       2.10316       2.20806      30.53138      38.64248      11.14918 
   3251.45360       8.48256       0.21634       8.50000      -0.00031      26.85726      37.37284      37.54396      38.96849      39.17306       2.11546       2.20437      30.82196      37.75685      11.54978 
   3251.60600       8.48026       0.21713       8.50000       0.00030      26.60357      33.34224      34.13379      35.26320      35.12167       2.13179       2.20475      30.92401      36.81624      11.27703 
   3251.75840       8.50314       0.22103       8.50000       0.00595      28.09362      34.23463      34.07087      35.75129      36.55364       2.21587       2.21210      30.99871      36.05341      11.76288 
   3251.91080       8.51468       0.22625       8.50000       0.01136      28.81920      33.63593      33.98058      35.36068      35.16840       2.26774       2.21428      30.99627      35.55318      11.73055 
   3252.06320       8.50449       0.22713       8.50000       0.01080      28.98657      33.12386      33.57207      34.52137      34.12441       2.24856       2.21148      31.17255      35.28779      11.64422 
   3252.21560       8.46701       0.21608       8.50000       0.00630      28.91251      34.12191      33.50114      34.01056      34.16935       2.24766       2.20167      30.99627      35.16081      12.06118 
   3252.36800       8.44568       0.22093       8.50000      -0.00254      28.30837      35.39795      34.54196      35.35230      36.01903       2.24153       2.19235      30.99626      35.06467      11.76480 
   3252.52040       8.44109       0.22019       8.50000      -0.00268      27.27575      33.47982      33.33286      33.91622      34.36338       2.19740       2.18835      30.47917      34.87669      11.23517 
   3252.67280       8.45392       0.20796       8.50000      -0.00116      26.75521      34.07281      33.36494      34.28683      35.02796       2.11157       2.19576      30.14391      34.52925      11.60278 
   3252.82520       8.47736       0.21284       8.50000       0.00329      25.49540      33.15352      32.92455      34.10195      34.58286       2.06134       2.20769      29.77709      34.08073      11.98667 
   3252.97760       8.48318       0.21828       8.50000      -0.00180      25.62177      31.20478      31.50312      32.30472      32.49964       2.08104       2.21636      29.49894      33.67384      11.96808 
   3253.13000       8.45163       0.22950       8.50000      -0.01866      26.52047      31.60487      32.05326      33.55310      33.88122       2.41465       2.20124      29.36047      33.42477      12.34628 
   3253.28240       8.49044       0.21205       8.50000      -0.00350      26.91521      31.59146      31.55742      32.77637      32.85534       2.30583       2.25577      29.18263      33.31604      12.16183 
   3253.43480       8.51302       0.20984       8.50000       0.00251      27.53410      32.29248      32.47908      33.38999      33.16362       2.29035       2.26158      29.18480      33.17411      11.82689 
   3253.58720       8.60516       0.20930       8.50000       0.01612      28.98809      32.14090      32.41850      33.40175      33.11889       2.00150       2.27324      29.18101      32.82794      12.03275 
   3253.73960       8.49242       0.21543       8.50000      -0.00311      29.11242      30.83599      31.49363      32.70788      32.24171       2.07685       2.21253      29.18101      32.32130      11.75954 
   3253.89200       8.46706       0.22608       8.50000      -0.00203      28.76183      29.50072      29.53048      30.46985      29.71608       2.09662       2.19610      29.45553      31.87718      11.35220 
   3254.04440       8.43030       0.21977       8.50000       0.00110      28.95750      31.31868      31.27513      31.59762      31.09753       2.01067       2.18772      29.84170      31.65795      11.83718 
   3254.19680       8.44940       0.22374       8.50000      -0.00181      28.15143      31.49534      31.72009      32.02155      31.75379       1.98454       2.18521      29.81685      31.57919      11.56976 
   3254.34920       8.46600       0.21369       8.50000      -0.00283      27.35205      31.27099      30.91387      31.36475      31.35992       1.98822       2.19502      29.65466      31.44151      11.78584 
   3254.50160       8.47995       0.22229       8.50000      -0.00283      26.95197      31.31404      30.92200      31.08498      30.97730       2.04200       2.20810      29.98145      31.17408      11.20600 
   3254.65400       8.45741       0.22182       8.50000      -0.00595      26.93274      31.37769      30.62649      29.98022      29.74288       2.02993       2.20485      29.98302      30.93904      11.53336 
   3254.80640       8.45009       0.20612       8.50000      -0.00524      25.35124      30.92319      29.96883      30.05937      29.64691       1.97197       2.20865      29.03020      30.93245      11.67279 
   3254.95880       8.44351       0.21101       8.50000      -0.00291      24.00747      32.10780      30.61052      30.87890      30.52246       1.90814       2.20686      28.13608      31.19056      11.12689 
   3255.11120       8.46578       0.20986       8.50000       0.00147      22.47017      34.04966      32.40268      31.87336      31.25137       1.89862       2.21575      27.70936      31.52711      10.97519 
   3255.26360       8.46252       0.20867       8.50000       0.00027      22.03230      34.19691      32.65897      32.03596      31.36201       1.94222       2.20890      27.43196      31.70711      10.73117 
   3255.41600       8.48082       0.21130       8.50000       0.00150      21.50243      32.92390      31.91139      31.25071      31.21362       1.95899       2.21470      25.88703      31.67010      10.92973 
   3255.56840       8.48526       0.20971       8.50000       0.00322      22.29675      32.48111      31.56565      30.94562      30.46853       2.00490       2.20681      25.21438      31.54104      10.88232 
   3255.72080       8.49072       0.20360       8.50000       0.00304      22.77946      32.57846      31.47144      31.05828      30.77179       1.94034       2.20860      24.93874      31.45811      10.84365 
   3255.87320       8.49423       0.21078       8.50000      -0.00009      22.62930      33.06938      31.57023      31.19093      31.13501       1.95709       2.20565      25.05271      31.40874      10.93306 
   3256.02560       8.48878       0.21438       8.50000      -0.00256      22.28066      32.26674      31.28727      31.44822      31.46426       1.97753       2.20985      24.49295      31.26238      11.10748 
   3256.17800       8.48938       0.20029       8.50000      -0.00236      23.44140      31.18846      30.79631      31.04552      31.04476       2.07763       2.21964      23.75004      30.88466      11.30279 
   3256.33040       8.48893       0.20529       8.50000       0.00100      23.75660      30.25530      29.80794      31.01187      31.63517       2.15692       2.23621      23.59678      30.25233      11.62056 
   3256.48280       8.51502       0.19342       8.50000       0.00002      25.01529      27.58801      27.59599      28.69843      29.30746       2.25895       2.26723      23.54597      29.45617      11.92265 
   3256.63520       8.53315       0.19392       8.50000      -0.00318      27.05591      25.93229      26.57532      28.76414      29.47625       2.41209       2.29695      22.53666      28.63002      12.42769 
   3256.78760       8.50611       0.19956       8.50000      -0.00543      28.81051      24.88669      26.11094      28.24763      28.20588       2.47755       2.30227      22.12310      27.92173      12.62907 
   3256.94000       8.47164       0.20288       8.50000      -0.00449      28.91916      24.51320      24.82399      25.98667      25.47284       2.41382       2.28626      21.56824      27.51133      12.74279 
