~Version Information
VERS  .          2.0                              :CWLS Log Ascii Standard - Version 2.0
WRAP  .          NO                               :One line per depth step
~Well Information Block
#MNEM.UNIT       Data Type                        Information
#---------       ---------                        -------------------------------
STRT  .M         2741.37100                       :START DEPTH
STOP  .M         2992.67900                       :STOP DEPTH
STEP  .M          0.15240                         :INCREMENT
NULL  .          -999.25                          :NULL DATA VALUE
COMP  .          StatoilHydro                                                                                                                      :COMPANY
WELL  .          15/9-F-4                         :WELL
FLD   .          Volve                            :FIELD
LOC   .                                           :LOCATION
PROV  .                                           :PROVINCE
STAT  .                                           :STATE
CNTY  .                                           :COUNTY
CTRY  .                                           :COUNTRY
DATE  .                                           :DATE
UWI   .          15/9-F-4                         :UNIQUE WELL UWI
LIC   .                                           :LICENSE NUMBER
API   .                                                                                                                                            :API NUMBER
SRVC  .                                           :SERVICE COMPANY
~Parameter Information Block
#MNEM.UNIT       Value                            Description
#---------       ---------                        -------------
~Curve Information Block
#MNEM.UNIT       API Code            Curve    Description
#--------        --------------      -----    -------------------
DEPT  .M                             :0       Index
BCAV  .IN                            :1       Best Caliper, Average Diameter
BPHI  .V/V                           :2       Best Thermal Neutron Porosity, Average
BS_ARC.IN                            :3       Bit Size                      
DRHB  .G/C3                          :4       Bulk Density Correction, Bottom
GRMA  .GAPI                          :5       Gamma Ray, Average            
P16H  .OHMM                          :6       ARC Phase Shift Resistivity 16 inch Spacing at 2 MHz, Environmentally Corrected_
P22H  .OHMM                          :7       ARC Phase Shift Resistivity 22 inch Spacing at 2 MHz, Environmentally Corrected_
P34H  .OHMM                          :8       ARC Phase Shift Resistivity 34 inch Spacing at 2 MHz, Environmentally Corrected_
P40H  .OHMM                          :9       ARC Phase Shift Resistivity 40 inch Spacing at 2 MHz, Environmentally Corrected_
PEB   .                              :10      Photoelectric Factor, Bottom  
ROBB  .G/C3                          :11      Bulk Density, Bottom          
ROP5_RM.M/HR                          :12      Rate of penetration averaged over last 5 ft(1_5 m), Recorded Mode
SIFA  .CU                            :13      Sigma Formation, Average      
~Ascii Data Section
# ...
   2922.57460       8.56309       0.15434       8.50000       0.01226      16.24415       2.19372       2.19199       2.17274       2.19367       4.91475       2.51873      15.07293      15.54793 
   2922.72700       8.55675       0.14490       8.50000       0.00658      15.28580       2.15330       2.12968       2.09777       2.12466       4.96116       2.50789      15.30540      15.59001 
   2922.87940       8.53955       0.14623       8.50000       0.00404      14.69044       2.19914       2.16808       2.14100       2.19805       4.92874       2.50005      15.61029      15.09295 
   2923.03180       8.50647       0.15545       8.50000       0.00428      12.98971       2.11864       2.11555       2.13687       2.17390       5.01677       2.48084      15.95099      15.02993 
   2923.18420       8.51363       0.15759       8.50000       0.01384      12.31633       1.89222       1.89979       1.87209       1.89263       5.05998       2.46796      16.43153      15.19641 
   2923.33660       8.52930       0.16420       8.50000       0.01661      11.16412       1.77827       1.80134       1.80488       1.82146       5.11321       2.45741      17.04460      15.26870 
   2923.48900       8.52190       0.15318       8.50000       0.01434      10.73578       1.76190       1.75238       1.73520       1.76980       5.09963       2.45118      17.73500      14.90340 
   2923.64140       8.52545       0.17249       8.50000       0.01152      10.61625       1.80616       1.80968       1.78986       1.81005       4.99598       2.45204      18.10750      15.24669 
   2923.79380       8.53656       0.16054       8.50000       0.01066      10.62988       1.81683       1.81351       1.78771       1.78035       4.98870       2.46331      18.97925      14.44842 
   2923.94620       8.55662       0.15219       8.50000       0.01443      10.94834       1.92655       1.89111       1.84483       1.84780       5.11302       2.47885      19.85051      14.25371 
   2924.09860       8.53802       0.14650       8.50000       0.00805      11.68319       2.03707       2.00247       1.97437       1.97214       4.91194       2.48550      20.35827      14.04981 
   2924.25100       8.52676       0.14494       8.50000       0.00742      12.56777       2.15198       2.12931       2.10439       2.13269       4.85404       2.48702      20.47123      14.67697 
   2924.40340       8.54555       0.15071       8.50000       0.00636      12.73790       2.13138       2.15110       2.14650       2.18559       4.72643       2.48532      20.54827      15.01978 
   2924.55580       8.54974       0.15255       8.50000       0.01047      13.20744       2.03102       2.04815       2.02941       2.07493       4.93478       2.48146      20.62530      15.19763 
   2924.70820       8.54848       0.15862       8.50000       0.00359      13.49328       1.94319       1.97737       1.96647       2.01289       4.83422       2.47427      20.54798      14.98006 
   2924.86060       8.52496       0.16011       8.50000       0.00525      14.09328       1.91457       1.91497       1.88204       1.88969       4.75773       2.47489      20.86425      15.29751 
   2925.01300       8.53113       0.15993       8.50000      -0.00082      13.15255       1.90833       1.91031       1.90506       1.90883       4.70337       2.47680      21.10076      15.23484 
   2925.16540       8.53036       0.15582       8.50000       0.00236      12.82189       1.93340       1.92691       1.92849       1.93507       4.79165       2.48651      22.03897      14.95218 
   2925.31780       8.52341       0.15519       8.50000      -0.00098      12.74491       1.99691       1.98222       2.00014       2.01123       4.91282       2.47931      22.39281      15.15190 
   2925.47020       8.51751       0.16093       8.50000       0.00108      12.57381       1.98538       1.97689       1.96714       1.98013       4.99868       2.47263      23.14942      14.96946 
   2925.62260       8.55928       0.14800       8.50000       0.00397      13.10902       1.96322       1.94646       1.91295       1.92351       5.06296       2.48012      23.75006      15.21818 
   2925.77500       8.58029       0.15581       8.50000       0.00141      14.41027       1.99963       1.99652       1.97776       1.99905       4.96116       2.49293      24.38401      16.31024 
   2925.92740       8.57541       0.15973       8.50000       0.00339      15.46863       2.00553       2.00718       1.97984       1.98646       4.95331       2.50376      25.23150      15.79379 
   2926.07980       8.51277       0.15741       8.50000      -0.00027      15.78149       1.95543       1.96609       1.96053       1.97698       4.96492       2.48927      25.63723      15.45117 
   2926.23220       8.49828       0.15746       8.50000      -0.00086      15.89697       1.92214       1.93356       1.92999       1.95173       4.97097       2.47248      26.89524      15.35020 
   2926.38460       8.51487       0.16744       8.50000      -0.00011      14.73230       1.91114       1.91447       1.87802       1.88000       4.84627       2.47313      28.42782      15.09827 
   2926.53700       8.52938       0.15715       8.50000      -0.00352      14.27550       1.92567       1.91264       1.89077       1.88637       4.76877       2.47213      28.57616      15.26187 
   2926.68940       8.54764       0.14906       8.50000       0.00352      14.95242       1.99071       1.95510       1.91385       1.91971       4.85042       2.49174      28.57435      15.81607 
   2926.84180       8.53617       0.15503       8.50000       0.00034      15.19181       2.01666       2.00333       2.00560       2.02694       4.94267       2.49033      28.72501      15.83261 
   2926.99420       8.51806       0.14457       8.50000       0.00336      14.98769       1.98590       1.97454       1.98062       2.00481       4.84686       2.49522      28.72409      14.94781 
   2927.14660       8.50627       0.15419       8.50000       0.00034      14.29392       1.89620       1.91030       1.91115       1.93100       4.77916       2.47100      28.57617      14.97237 
   2927.29900       8.51409       0.16003       8.50000       0.00227      13.98515       1.75924       1.77194       1.74601       1.76118       4.67696       2.45476      29.14039      14.66115 
   2927.45140       8.54119       0.16585       8.50000       0.00691      12.50758       1.66496       1.67698       1.66073       1.69055       4.79799       2.44994      29.33910      15.08483 
   2927.60380       8.54803       0.16642       8.50000       0.00810      11.66033       1.65616       1.67852       1.68034       1.71048       4.78862       2.46181      28.72593      15.26337 
   2927.75620       8.56075       0.15439       8.50000       0.01136      11.54290       1.74338       1.77298       1.79291       1.81433       4.88716       2.47388      28.80067      14.96696 
   2927.90860       8.54418       0.15366       8.50000       0.00327      12.65457       1.78933       1.81536       1.84887       1.86103       4.85687       2.47005      28.72593      14.77610 
   2928.06100       8.55110       0.15224       8.50000       0.00357      13.02028       1.81825       1.83239       1.83351       1.84521       4.84607       2.47733      28.72488      15.01131 
   2928.21340       8.51837       0.14992       8.50000      -0.00239      12.98949       1.92009       1.93661       1.92649       1.92939       4.74649       2.46829      28.72488      15.44675 
   2928.36580       8.52533       0.15420       8.50000      -0.00355      12.97958       2.00985       2.00218       2.00412       2.00958       4.67554       2.48036      28.72409      15.27881 
   2928.51820       8.52624       0.14825       8.50000      -0.00377      13.37448       2.10842       2.08735       2.07021       2.04075       4.67490       2.48670      28.72501      14.52842 
   2928.67060       8.54314       0.13954       8.50000      -0.00145      13.48264       2.27514       2.23297       2.21997       2.19683       4.71877       2.50746      28.72409      14.69476 
