~Version Information
VERS  .          2.0                              :CWLS Log Ascii Standard - Version 2.0
WRAP  .          NO                               :One line per depth step
~Well Information Block
#MNEM.UNIT       Data Type                        Information
#---------       ---------                        -------------------------------
STRT  .M         2955.95000                       :START DEPTH
STOP  .M         3509.92500                       :STOP DEPTH
STEP  .M          0.15240                         :INCREMENT
NULL  .          -999.25                          :NULL DATA VALUE
COMP  .          StatoilHydro                                                                                                                      :COMPANY
WELL  .          15/9-F-4                         :WELL
FLD   .          Volve                            :FIELD
LOC   .                                           :LOCATION
PROV  .                                           :PROVINCE
STAT  .                                           :STATE
CNTY  .                                           :COUNTY
CTRY  .                                           :COUNTRY
DATE  .                                           :DATE
UWI   .          15/9-F-4                         :UNIQUE WELL UWI
LIC   .                                           :LICENSE NUMBER
API   .                                                                                                                                            :API NUMBER
SRVC  .                                           :SERVICE COMPANY
~Parameter Information Block
#MNEM.UNIT       Value                            Description
#---------       ---------                        -------------
~Curve Information Block
#MNEM.UNIT       API Code            Curve    Description
#--------        --------------      -----    -------------------
DEPT  .M                             :0       Index
BCAV  .IN                            :1       Best Caliper, Average Diameter
BPHI  .V/V                           :2       Best Thermal Neutron Porosity, Average
BS    .IN                            :3       Bit Size                      
DRHB  .G/C3                          :4       Bulk Density Correction, Bottom
GRMA  .GAPI                          :5       Gamma Ray, Average            
P16H  .OHMM                          :6       ARC Phase Shift Resistivity 16 inch Spacing at 2 MHz, Environmentally Corrected_
P22H  .OHMM                          :7       ARC Phase Shift Resistivity 22 inch Spacing at 2 MHz, Environmentally Corrected_
P34H  .OHMM                          :8       ARC Phase Shift Resistivity 34 inch Spacing at 2 MHz, Environmentally Corrected_
P40H  .OHMM                          :9       ARC Phase Shift Resistivity 40 inch Spacing at 2 MHz, Environmentally Corrected_
PEB   .                              :10      Photoelectric Factor, Bottom  
ROBB  .G/C3                          :11      Bulk Density, Bottom          
ROP5_RM.M/HR                          :12      Rate of penetration averaged over last 5 ft(1_5 m), Recorded Mode
RT_ARC.OHMM                          :13      ARC True Formation Resistivity
SIFA  .CU                            :14      Sigma Formation, Average      
~Ascii Data Section
# ...
   3396.08120       8.52869       0.18215       8.50000       0.00624      19.54557       7.91749       8.33712       8.94763       9.54329       1.99631       2.28192      29.18101       9.42096      11.57383 
   3396.23360       8.51346       0.16248       8.50000      -0.00162      20.03576       7.92815       8.18112       8.81087       9.15861       2.00852       2.27164      29.18480       9.12440      11.70807 
   3396.38600       8.50373       0.16939       8.50000      -0.00143      19.81544       8.71736       8.72457       9.26546       9.30800       2.15797       2.26591      29.27188       9.01346      11.05405 
   3396.53840       8.49023       0.17460       8.50000      -0.00358      20.79913       9.09169       8.95573       9.42018       9.26453       2.16416       2.26191      29.33719       8.97628      11.29815 
   3396.69080       8.49763       0.16479       8.50000       0.00029      21.05294       9.26911       9.09017       9.39324       9.14011       2.17881       2.27711      29.18290       8.89271      10.86657 
   3396.84320       8.50399       0.17143       8.50000      -0.00300      20.23925       8.95051       8.91968       9.31671       8.97947       2.30979       2.27750      29.18480       8.71512      10.98946 
   3396.99560       8.50184       0.16877       8.50000      -0.00646      20.96423       8.79760       8.72816       9.03076       8.71353       2.32568       2.28098      29.18480       8.45533      10.74233 
   3397.14800       8.47531       0.16013       8.50000      -0.00865      21.43853       8.58352       8.41038       8.58805       8.34369       2.30538       2.27137      29.33720       8.13552      10.44017 
   3397.30040       8.42040       0.15862       8.50000      -0.00927      20.92195       8.42073       8.14969       8.15014       7.91269       2.01879       2.25165      29.33719       7.74587      10.82312 
   3397.45280       8.40772       0.17896       8.50000      -0.00268      21.59774       7.94433       7.80267       7.92528       7.74886       1.93179       2.23373      29.18480       7.26354      10.75242 
   3397.60520       8.45433       0.19204       8.50000       0.01144      22.10389       7.22196       7.11894       7.09872       6.83144       1.94086       2.23976      29.18480       6.68810      11.35651 
   3397.75760       8.54546       0.19918       8.50000       0.01407      22.51378       6.35504       6.34145       6.31423       6.03468       2.03449       2.25971      29.18480       6.06622      11.60001 
   3397.91000       8.58224       0.18631       8.50000       0.01296      22.95255       5.45296       5.52501       5.58546       5.58456       2.01966       2.28244      29.26100       5.46660      11.77779 
   3398.06240       8.55172       0.18467       8.50000      -0.00630      22.86913       4.81107       4.96455       5.19891       5.31284       2.07861       2.27423      29.18480       4.96430      12.53445 
   3398.21480       8.50519       0.20062       8.50000      -0.00466      23.19967       3.85473       3.91019       3.98872       4.09584       2.02909       2.25353      29.18480       4.61343      12.30320 
   3398.36720       8.47497       0.22567       8.50000      -0.00272      24.04526       4.08505       4.17311       4.31568       4.26502       2.16846       2.21923      29.27188       4.43047      13.39470 
   3398.51960       8.51041       0.23361       8.50000       0.01283      24.50953       4.07212       4.16934       4.09878       3.96114       2.14725       2.21883      29.33719       4.38900      13.74902 
   3398.67200       8.54853       0.22896       8.50000       0.00950      23.93373       4.22216       4.30417       4.23798       4.10144       2.12275       2.22359      29.18480       4.43549      13.65425 
   3398.82440       8.54168       0.21765       8.50000       0.00366      24.37906       4.39211       4.51441       4.71624       4.78203       2.09274       2.21962      29.18480       4.51155      13.69626 
   3398.97680       8.49556       0.22731       8.50000      -0.00046      24.84978       4.52971       4.66335       4.91106       4.93667       2.11963       2.19534      29.18480       4.57548      13.47262 
   3399.12920       8.47754       0.23510       8.50000       0.00351      23.80410       4.71133       4.69033       4.83378       4.83467       2.12050       2.18769      29.33720       4.60394      13.01571 
   3399.28160       8.51735       0.22853       8.50000       0.01325      22.76358       4.70172       4.66457       4.75798       4.76873       2.09508       2.20819      29.33719       4.59760      13.23538 
   3399.43400       8.55334       0.23286       8.50000       0.01108      22.73178       4.66460       4.66349       4.81261       4.84326       2.06471       2.22289      29.18480       4.56758      12.92086 
   3399.58640       8.58999       0.22956       8.50000       0.01328      23.29153       4.50793       4.55429       4.91250       4.87570       2.11380       2.23701      29.18480       4.52629      13.11140 
   3399.73880       8.57976       0.22182       8.50000       0.00794      23.40070       4.52508       4.53307       4.72813       4.66416       2.20504       2.23845      29.18101       4.48286      13.20473 
   3399.89120       8.56307       0.20568       8.50000       0.00932      24.83002       4.50643       4.48439       4.60224       4.63845       2.19084       2.24285      29.26100       4.44292      13.11086 
   3400.04360       8.50010       0.21787       8.50000       0.00383      25.14053       4.46503       4.40722       4.53694       4.56189       2.21696       2.22319      29.18480       4.40200      13.19396 
   3400.19600       8.45801       0.24348       8.50000       0.00203      24.85411       4.41391       4.33605       4.56361       4.62341       2.14546       2.19829      29.18318       4.33769      13.13219 
   3400.34840       8.46785       0.23543       8.50000       0.00756      23.13235       4.19963       4.16907       4.50760       4.77091       2.15608       2.19709      29.27026       4.22433      13.35090 
   3400.50080       8.51191       0.22787       8.50000       0.00693      22.74471       3.83069       3.97412       4.28263       4.59115       2.18424       2.19991      29.33719       4.06398      13.44685 
   3400.65320       8.56296       0.22991       8.50000       0.01003      22.07756       3.55231       3.84579       4.03836       3.90159       2.23074       2.21850      29.18480       3.89834      13.18152 
   3400.80560       8.60501       0.22437       8.50000       0.01311      22.23657       3.51764       3.73001       3.77942       3.52181       2.30995       2.23328      29.18480       3.77703      13.12879 
   3400.95800       8.60853       0.22177       8.50000       0.01431      23.27005       3.48219       3.54062       3.57942       3.46827       2.34681       2.25860      29.18101       3.71817      13.23291 
   3401.11040       8.55927       0.21314       8.50000       0.00672      24.95035       3.49271       3.64078       3.98723       4.11651       2.40669       2.25998      29.33911       3.68484      13.36719 
   3401.26280       8.50342       0.22691       8.50000      -0.00215      25.26934       3.43075       3.63939       4.18041       4.22828       2.36877       2.24231      29.34102       3.61146      14.05981 
   3401.41520       8.43721       0.22250       8.50000      -0.00153      25.77860       3.26178       3.34793       3.77288       3.95553       2.25449       2.22716      29.18318       3.46422      14.29020 
   3401.56760       8.48732       0.23039       8.50000       0.01090      25.71533       2.78806       2.95245       3.09036       3.30868       2.26909       2.25149      29.27026       3.28632      14.66447 
   3401.72000       8.55677       0.21039       8.50000       0.00895      26.60332       2.64315       2.73925       2.82808       2.97745       2.24888       2.28118      29.33720       3.15841      14.75874 
