~Version Information
VERS  .          2.0                              :CWLS Log Ascii Standard - Version 2.0
WRAP  .          NO                               :One line per depth step
~Well Information Block
#MNEM.UNIT       Data Type                        Information
#---------       ---------                        -------------------------------
STRT  .M         2955.95000                       :START DEPTH
STOP  .M         3509.92500                       :STOP DEPTH
STEP  .M          0.15240                         :INCREMENT
NULL  .          -999.25                          :NULL DATA VALUE
COMP  .          StatoilHydro                                                                                                                      :COMPANY
WELL  .          15/9-F-4                         :WELL
FLD   .          Volve                            :FIELD
LOC   .                                           :LOCATION
PROV  .                                           :PROVINCE
STAT  .                                           :STATE
CNTY  .                                           :COUNTY
CTRY  .                                           :COUNTRY
DATE  .                                           :DATE
UWI   .          15/9-F-4                         :UNIQUE WELL UWI
LIC   .                                           :LICENSE NUMBER
API   .                                                                                                                                            :API NUMBER
SRVC  .                                           :SERVICE COMPANY
~Parameter Information Block
#MNEM.UNIT       Value                            Description
#---------       ---------                        -------------
~Curve Information Block
#MNEM.UNIT       API Code            Curve    Description
#--------        --------------      -----    -------------------
DEPT  .M                             :0       Index
BCAV  .IN                            :1       Best Caliper, Average Diameter
BPHI  .V/V                           :2       Best Thermal Neutron Porosity, Average
BS    .IN                            :3       Bit Size                      
DRHB  .G/C3                          :4       Bulk Density Correction, Bottom
GRMA  .GAPI                          :5       Gamma Ray, Average            
P16H  .OHMM                          :6       ARC Phase Shift Resistivity 16 inch Spacing at 2 MHz, Environmentally Corrected_
P22H  .OHMM                          :7       ARC Phase Shift Resistivity 22 inch Spacing at 2 MHz, Environmentally Corrected_
P34H  .OHMM                          :8       ARC Phase Shift Resistivity 34 inch Spacing at 2 MHz, Environmentally Corrected_
P40H  .OHMM                          :9       ARC Phase Shift Resistivity 40 inch Spacing at 2 MHz, Environmentally Corrected_
PEB   .                              :10      Photoelectric Factor, Bottom  
ROBB  .G/C3                          :11      Bulk Density, Bottom          
ROP5_RM.M/HR                          :12      Rate of penetration averaged over last 5 ft(1_5 m), Recorded Mode
RT_ARC.OHMM                          :13      ARC True Formation Resistivity
SIFA  .CU                            :14      Sigma Formation, Average      
~Ascii Data Section
# ...
   3065.98280       8.52563       0.07344       8.50000      -0.00378      26.09649       5.57134       5.47752       5.08939       5.41625       4.92797       2.60899       3.03786       4.90662      15.15693 
   3066.13520       8.49660       0.09874       8.50000      -0.00270      33.05167       4.56742       4.87845       4.72909       4.94249       4.89432       2.57391       2.67238       4.12401      17.19808 
   3066.28760       8.50265       0.12265       8.50000       0.00065      39.61604       2.91624       2.93042       2.86241       2.75660       4.71993       2.54864       2.67238       3.36279      19.30665 
   3066.44000       8.53446       0.13866       8.50000       0.00389      44.02918       2.16737       2.12039       2.03045       2.09817       4.52357       2.53838       2.55318       2.81688      19.47754 
   3066.59240       8.57908       0.15171       8.50000       0.00270      47.20130       2.12425       2.09374       2.06336       2.18738       4.43195       2.54620       2.53179       2.51956      19.06664 
   3066.74480       8.58634       0.14524       8.50000      -0.00105      47.21399       2.06200       2.12819       2.17619       2.22980       4.45082       2.54780       2.54828       2.40831      18.49607 
   3066.89720       8.59902       0.14602       8.50000       0.00073      44.52142       2.26072       2.27516       2.60036       2.67891       4.42311       2.56219       2.55300       2.40747      18.34832 
   3067.04960       8.59339       0.13549       8.50000       0.00141      41.10515       2.32576       2.28871       1.98915       1.90448       4.41992       2.56721       2.55182       2.47457      17.21328 
   3067.20200       8.59119       0.12457       8.50000       0.00122      39.36809       2.59349       2.53547       2.40180       2.37706       4.43866       2.57435       2.92808       2.56132      16.46409 
   3067.35440       8.56944       0.13171       8.50000      -0.00267      39.38163       2.66454       2.69505       2.98190       3.22711       4.47322       2.56550       3.11022       2.58341      16.92886 
   3067.50680       8.54606       0.13844       8.50000      -0.00329      41.53880       2.44674       2.50299       2.73262       2.90709       4.38318       2.55398       4.81459       2.47787      18.68292 
   3067.65920       8.55185       0.14477       8.50000      -0.00028      43.75819       2.02116       2.02450       2.04730       2.03767       4.21357       2.54199       5.60981       2.29130      19.63192 
   3067.81160       8.58746       0.15454       8.50000      -0.00024      46.04313       1.80593       1.72102       1.66000       1.69613       4.11891       2.53609       7.33068       2.13210      19.70062 
   3067.96400       8.62071       0.16388       8.50000      -0.00283      47.40228       1.94298       2.02057       2.08085       2.07332       4.08701       2.53473       7.82699       2.06030      19.23870 
   3068.11640       8.63947       0.16048       8.50000       0.00157      47.22518       1.96662       1.99871       2.01449       1.98383       4.25438       2.54214       8.04464       2.07117      18.27670 
   3068.26880       8.64036       0.14798       8.50000       0.00844      44.12209       2.00765       1.97960       1.89859       1.87452       4.43664       2.55044       8.18857       2.13494      17.65808 
   3068.42120       8.62430       0.14164       8.50000       0.01148      41.90179       2.23773       2.19751       2.12101       2.20094       4.55199       2.55310       8.89567       2.21458      17.70461 
   3068.57360       8.57988       0.14291       8.50000      -0.00008      40.61174       2.24439       2.25918       2.45840       2.64872       4.35570       2.53960       9.20542       2.25483      17.93547 
   3068.72600       8.55161       0.15284       8.50000      -0.00089      40.49129       2.20725       2.24605       2.49312       2.67122       4.01303       2.52670       8.70449       2.21301      18.31390 
   3068.87840       8.56143       0.15380       8.50000       0.00027      40.85912       1.86246       1.85414       1.75183       1.66470       3.79239       2.51918       8.13189       2.11165      18.83568 
   3069.03080       8.58910       0.15650       8.50000       0.00284      42.48648       1.82098       1.82390       1.71883       1.66369       3.69383       2.51835       7.84893       2.01716      18.73287 
   3069.18320       8.59659       0.15969       8.50000      -0.00116      44.17053       1.89505       1.91489       1.91438       1.92632       3.66247       2.51877       7.20948       1.97381      19.15591 
   3069.33560       8.57827       0.15828       8.50000      -0.00454      45.73750       1.81970       1.82053       1.96671       2.02246       3.64316       2.51328       7.89062       1.97802      19.10753 
   3069.48800       8.57032       0.16340       8.50000      -0.00407      46.46149       1.90882       1.93373       1.92794       1.90651       3.62883       2.51363       8.14007       2.00585      18.51608 
   3069.64040       8.55947       0.16208       8.50000      -0.00466      46.11454       1.98650       1.99557       1.85311       1.82537       3.66196       2.51157       8.14007       2.04031      18.72869 
   3069.79280       8.56517       0.15742       8.50000      -0.00397      45.99761       2.04978       2.09850       2.09746       2.06865       3.70845       2.51761       8.14007       2.06875      18.65670 
   3069.94520       8.56661       0.16062       8.50000      -0.00671      45.93436       2.03986       2.08891       2.16435       2.14280       3.69287       2.51738       7.67300       2.08013      18.74637 
   3070.09760       8.57934       0.15697       8.50000      -0.00498      45.65835       2.03430       2.10378       2.13354       2.13241       3.75994       2.51862       7.65535       2.06942      19.09322 
   3070.25000       8.58683       0.16386       8.50000      -0.00409      45.82333       1.96449       1.97165       1.93680       1.95601       3.75991       2.51844       7.65461       2.04661      19.43839 
   3070.40240       8.57301       0.16043       8.50000      -0.00302      46.01298       1.92430       1.90677       1.88371       1.92078       3.81870       2.51759       7.65901       2.02992      19.16219 
   3070.55480       8.55994       0.16421       8.50000      -0.00487      46.54930       1.92593       1.89866       1.93490       1.99866       3.72106       2.51825       7.65535       2.03094      19.04339 
   3070.70720       8.56014       0.15997       8.50000      -0.00389      46.28264       1.96478       1.92665       1.97393       2.04857       3.71653       2.52231       7.66947       2.04887      19.24667 
   3070.85960       8.56823       0.16040       8.50000      -0.00335      45.94247       2.00951       1.97741       2.05638       2.14445       3.76325       2.52648       7.67333       2.07506      19.19706 
   3071.01200       8.56288       0.15370       8.50000      -0.00260      44.98347       1.98657       2.00806       2.12346       2.14368       3.80642       2.52893       7.77603       2.10261      19.07463 
   3071.16440       8.56595       0.15316       8.50000      -0.00264      44.54836       2.06686       2.10714       2.06042       2.02851       3.87124       2.53173       7.91716       2.12934      18.65295 
   3071.31680       8.56936       0.15226       8.50000      -0.00174      42.82965       2.12855       2.12359       2.08879       2.10943       3.93772       2.53749       8.02152       2.15569      18.66145 
   3071.46920       8.58136       0.15018       8.50000      -0.00109      42.01965       2.11562       2.07456       2.15673       2.21981       4.08097       2.54622       8.08022       2.18052      18.36206 
   3071.62160       8.56747       0.14527       8.50000      -0.00317      42.08960       2.18395       2.14747       2.16805       2.24889       4.13007       2.54262       8.23780       2.20011      18.79269 
