~Version Information
VERS  .          2.0                              :CWLS Log Ascii Standard - Version 2.0
WRAP  .          NO                               :One line per depth step
~Well Information Block
#MNEM.UNIT       Data Type                        Information
#---------       ---------                        -------------------------------
STRT  .M         2955.95000                       :START DEPTH
STOP  .M         3509.92500                       :STOP DEPTH
STEP  .M          0.15240                         :INCREMENT
NULL  .          -999.25                          :NULL DATA VALUE
COMP  .          StatoilHydro                                                                                                                      :COMPANY
WELL  .          15/9-F-4                         :WELL
FLD   .          Volve                            :FIELD
LOC   .                                           :LOCATION
PROV  .                                           :PROVINCE
STAT  .                                           :STATE
CNTY  .                                           :COUNTY
CTRY  .                                           :COUNTRY
DATE  .                                           :DATE
UWI   .          15/9-F-4                         :UNIQUE WELL UWI
LIC   .                                           :LICENSE NUMBER
API   .                                                                                                                                            :API NUMBER
SRVC  .                                           :SERVICE COMPANY
~Parameter Information Block
#MNEM.UNIT       Value                            Description
#---------       ---------                        -------------
~Curve Information Block
#MNEM.UNIT       API Code            Curve    Description
#--------        --------------      -----    -------------------
DEPT  .M                             :0       Index
BCAV  .IN                            :1       Best Caliper, Average Diameter
BPHI  .V/V                           :2       Best Thermal Neutron Porosity, Average
BS    .IN                            :3       Bit Size                      
DRHB  .G/C3                          :4       Bulk Density Correction, Bottom
GRMA  .GAPI                          :5       Gamma Ray, Average            
P16H  .OHMM                          :6       ARC Phase Shift Resistivity 16 inch Spacing at 2 MHz, Environmentally Corrected_
P22H  .OHMM                          :7       ARC Phase Shift Resistivity 22 inch Spacing at 2 MHz, Environmentally Corrected_
P34H  .OHMM                          :8       ARC Phase Shift Resistivity 34 inch Spacing at 2 MHz, Environmentally Corrected_
P40H  .OHMM                          :9       ARC Phase Shift Resistivity 40 inch Spacing at 2 MHz, Environmentally Corrected_
PEB   .                              :10      Photoelectric Factor, Bottom  
ROBB  .G/C3                          :11      Bulk Density, Bottom          
ROP5_RM.M/HR                          :12      Rate of penetration averaged over last 5 ft(1_5 m), Recorded Mode
RT_ARC.OHMM                          :13      ARC True Formation Resistivity
SIFA  .CU                            :14      Sigma Formation, Average      
~Ascii Data Section
# ...
   3031.23560       8.64480       0.14389       8.50000       0.00020      39.02028       2.32465       2.35648       2.35455       2.32106       4.25295       2.54009       7.09756       2.40032      17.28196 
   3031.38800       8.64923       0.14502       8.50000      -0.00051      39.69271       2.35590       2.32922       2.33304       2.36751       4.21903       2.53792       7.64130       2.40454      17.56578 
   3031.54040       8.65114       0.14569       8.50000      -0.00132      40.18887       2.32456       2.32055       2.36762       2.37512       4.16401       2.53910       7.95142       2.41435      17.22061 
   3031.69280       8.63655       0.14077       8.50000      -0.00331      39.97291       2.32511       2.35160       2.30648       2.27285       4.10692       2.53981       8.23247       2.43119      17.34456 
   3031.84520       8.63939       0.13921       8.50000      -0.00347      39.36800       2.37391       2.34952       2.38096       2.45508       4.07479       2.54341       8.45615       2.45878      17.09875 
   3031.99760       8.64007       0.14181       8.50000      -0.00288      38.84558       2.36720       2.38412       2.46290       2.48656       4.04022       2.54314       8.59953       2.49913      17.19420 
   3032.15000       8.64975       0.13915       8.50000      -0.00306      37.69908       2.44563       2.49644       2.50139       2.46814       4.03805       2.54540       6.01579       2.55415      16.80168 
   3032.30240       8.64910       0.13346       8.50000      -0.00318      35.57067       2.51378       2.46745       2.48577       2.51381       4.09139       2.54783       5.82203       2.62746      16.16037 
   3032.45480       8.63954       0.12932       8.50000      -0.00354      34.61102       2.62329       2.63513       2.65306       2.62827       4.19009       2.55186       5.68880       2.71895      16.32567 
   3032.60720       8.62354       0.12348       8.50000      -0.00448      33.71235       2.85580       2.85373       2.84019       2.84551       4.21682       2.55533       5.63279       2.81806      16.14750 
   3032.75960       8.60307       0.12355       8.50000      -0.00417      32.12635       2.99486       2.97024       3.01850       3.07950       4.21161       2.55665       5.52498       2.90490      15.93428 
   3032.91200       8.60621       0.12295       8.50000      -0.00377      32.01537       3.01306       3.02962       3.14484       3.18048       4.17792       2.55814       5.33170       2.96319      15.80002 
   3033.06440       8.61091       0.11997       8.50000      -0.00323      32.61039       2.99605       3.01704       2.94220       2.90612       4.18499       2.55920       5.05188       2.99119      15.68655 
   3033.21680       8.61894       0.12188       8.50000      -0.00384      33.59832       3.04582       3.01173       3.04707       3.12266       4.16989       2.55853       4.87241       2.99652      15.99667 
   3033.36920       8.61965       0.12162       8.50000      -0.00412      34.01421       2.97171       3.00532       3.07134       3.06657       4.12882       2.55897       4.68354       2.98718      16.13391 
   3033.52160       8.62267       0.12502       8.50000      -0.00185      34.74205       2.89380       2.93668       2.93993       2.90765       4.13037       2.56193       5.26727       2.96828      15.80819 
   3033.67400       8.62730       0.12202       8.50000      -0.00109      35.16461       2.91586       2.93978       2.93258       2.95320       4.15447       2.56335       5.86171       2.94446      16.17434 
   3033.82640       8.63032       0.12729       8.50000      -0.00138      35.00914       2.88869       2.84621       2.84280       2.90016       4.18302       2.56129       5.84600       2.92119      16.22589 
   3033.97880       8.62625       0.12684       8.50000      -0.00344      34.72788       2.80457       2.79901       2.85229       2.86993       4.16024       2.55769       5.86783       2.90048      15.87717 
   3034.13120       8.63071       0.12444       8.50000      -0.00326      35.15606       2.86156       2.86108       2.90376       2.96465       4.13411       2.55906       5.87411       2.88099      16.19736 
   3034.28360       8.62870       0.12837       8.50000      -0.00400      35.52185       2.82454       2.83325       2.78728       2.78376       4.12341       2.56034       5.88673       2.86179      16.11220 
   3034.43600       8.63212       0.12434       8.50000      -0.00548      35.97785       2.80915       2.77079       2.72913       2.76830       4.12652       2.56007       6.09727       2.84477      16.38605 
   3034.58840       8.62759       0.12470       8.50000      -0.00699      36.88994       2.76474       2.76867       2.81566       2.80541       4.15405       2.55643       6.22776       2.83574      16.45682 
   3034.74080       8.63378       0.12777       8.50000      -0.00457      36.89569       2.72486       2.75021       2.72564       2.68050       4.19948       2.56159       6.33599       2.83939      16.51894 
   3034.89320       8.63603       0.12181       8.50000      -0.00411      36.85581       2.83479       2.84519       2.78585       2.72850       4.24632       2.56224       6.40182       2.85600      16.45705 
   3035.04560       8.65032       0.12678       8.50000      -0.00253      37.46823       2.89042       2.87605       2.79204       2.76244       4.26765       2.56821       6.49732       2.87949      16.13473 
   3035.19800       8.64800       0.12844       8.50000      -0.00328      37.57543       2.92500       2.88425       2.91525       2.97767       4.28025       2.56679       6.56269       2.90094      16.31473 
   3035.35040       8.64519       0.12833       8.50000      -0.00189      37.81534       2.84830       2.84646       2.91088       2.92857       4.26992       2.56752       6.68251       2.91435      16.56884 
   3035.50280       8.63712       0.12677       8.50000      -0.00062      38.42519       2.85936       2.90356       2.95329       2.93205       4.32561       2.56689       6.71943       2.92184      16.60091 
   3035.65520       8.62971       0.12439       8.50000       0.00095      38.83559       2.87654       2.85052       2.74298       2.74204       4.41863       2.56611       6.72350       2.93117      16.32157 
   3035.80760       8.63384       0.12319       8.50000       0.00228      37.70620       2.92937       2.91032       2.84050       2.86609       4.43439       2.56953       6.55916       2.95036      16.36636 
   3035.96000       8.62095       0.12166       8.50000       0.00066      36.84834       2.88381       2.87436       2.90701       2.90891       4.43246       2.56799       6.50433       2.98329      16.17180 
   3036.11240       8.60488       0.12129       8.50000      -0.00063      36.42689       2.98175       2.95435       2.90902       2.93343       4.39770       2.56728       6.48513       3.02826      16.32262 
   3036.26480       8.59497       0.11795       8.50000       0.00025      36.01789       3.07046       3.07636       3.05814       3.08012       4.46781       2.57136       6.46983       3.07883      15.92290 
   3036.41720       8.58541       0.11670       8.50000       0.00012      34.99864       3.14530       3.11996       3.13278       3.17729       4.47324       2.57274       6.37214       3.12517      15.93834 
   3036.56960       8.59315       0.11151       8.50000      -0.00062      35.30447       3.20764       3.17325       3.20703       3.24596       4.42734       2.57595       6.26301       3.15629      15.63842 
   3036.72200       8.58638       0.11055       8.50000      -0.00386      35.24544       3.19200       3.18259       3.22286       3.24360       4.40228       2.57046       6.13017       3.16025      15.77194 
   3036.87440       8.58153       0.11515       8.50000      -0.00283      35.14612       3.25684       3.26387       3.28908       3.34438       4.40004       2.57242       6.08254       3.12711      16.02852 
