~Version Information
VERS  .          2.0                              :CWLS Log Ascii Standard - Version 2.0
WRAP  .          NO                               :One line per depth step
~Well Information Block
#MNEM.UNIT       Data Type                        Information
#---------       ---------                        -------------------------------
STRT  .M         2741.37100                       :START DEPTH
STOP  .M         2992.67900                       :STOP DEPTH
STEP  .M          0.15240                         :INCREMENT
NULL  .          -999.25                          :NULL DATA VALUE
COMP  .          StatoilHydro                                                                                                                      :COMPANY
WELL  .          15/9-F-4                         :WELL
FLD   .          Volve                            :FIELD
LOC   .                                           :LOCATION
PROV  .                                           :PROVINCE
STAT  .                                           :STATE
CNTY  .                                           :COUNTY
CTRY  .                                           :COUNTRY
DATE  .                                           :DATE
UWI   .          15/9-F-4                         :UNIQUE WELL UWI
LIC   .                                           :LICENSE NUMBER
API   .                                                                                                                                            :API NUMBER
SRVC  .                                           :SERVICE COMPANY
~Parameter Information Block
#MNEM.UNIT       Value                            Description
#---------       ---------                        -------------
~Curve Information Block
#MNEM.UNIT       API Code            Curve    Description
#--------        --------------      -----    -------------------
DEPT  .M                             :0       Index
BCAV  .IN                            :1       Best Caliper, Average Diameter
BPHI  .V/V                           :2       Best Thermal Neutron Porosity, Average
BS_ARC.IN                            :3       Bit Size                      
DRHB  .G/C3                          :4       Bulk Density Correction, Bottom
GRMA  .GAPI                          :5       Gamma Ray, Average            
P16H  .OHMM                          :6       ARC Phase Shift Resistivity 16 inch Spacing at 2 MHz, Environmentally Corrected_
P22H  .OHMM                          :7       ARC Phase Shift Resistivity 22 inch Spacing at 2 MHz, Environmentally Corrected_
P34H  .OHMM                          :8       ARC Phase Shift Resistivity 34 inch Spacing at 2 MHz, Environmentally Corrected_
P40H  .OHMM                          :9       ARC Phase Shift Resistivity 40 inch Spacing at 2 MHz, Environmentally Corrected_
PEB   .                              :10      Photoelectric Factor, Bottom  
ROBB  .G/C3                          :11      Bulk Density, Bottom          
ROP5_RM.M/HR                          :12      Rate of penetration averaged over last 5 ft(1_5 m), Recorded Mode
SIFA  .CU                            :13      Sigma Formation, Average      
~Ascii Data Section
# ...
   2822.60020       8.49106       0.05438       8.50000      -0.00215       9.01612       8.95134       9.06845       9.30247       9.28194       5.24641       2.60149      13.81975      10.86965 
   2822.75260       8.50842       0.05807       8.50000      -0.00475       9.03055       8.71530       8.85097       8.82742       8.75394       5.12228       2.60732      13.64811      10.45563 
   2822.90500       8.53289       0.06197       8.50000       0.00474       8.90525       9.19967       9.09838       8.99091       8.94731       5.10199       2.62930      13.42505      10.59754 
   2823.05740       8.53333       0.05296       8.50000       0.00265       9.04667       8.98402       8.88055       8.68786       8.56645       5.11151       2.63782      13.38154      10.57641 
   2823.20980       8.51824       0.05073       8.50000       0.00363       8.50496       9.40669       9.20753       9.05633       8.90283       5.05585       2.63604      13.26819      10.36473 
   2823.36220       8.50672       0.06072       8.50000      -0.00029       8.11994       9.48751       9.30226       9.19655       9.11971       5.08844       2.62746      13.25213      10.77742 
   2823.51460       8.49099       0.05977       8.50000      -0.00296       8.19038       8.89957       8.83222       8.60803       8.58808       5.08750       2.61450      13.54691      10.78420 
   2823.66700       8.47416       0.05582       8.50000      -0.00488       8.39528       8.90402       8.81723       8.73462       8.74757       5.23118       2.60240      13.70593      11.09743 
   2823.81940       8.48290       0.05793       8.50000      -0.00427       8.53090       8.59261       8.49692       8.18695       8.15579       5.22524       2.60300      13.88936      10.70508 
   2823.97180       8.49040       0.06826       8.50000       0.00293       9.15728       8.11198       8.16080       8.03228       7.98804       5.34606       2.60801      14.08757      11.09765 
   2824.12420       8.50853       0.06335       8.50000       0.00862       9.35533       7.93078       7.91209       7.92962       7.99287       5.26117       2.61846      14.40160      10.72096 
   2824.27660       8.52026       0.06720       8.50000       0.01182       9.68927       7.35888       7.41607       7.46508       7.49322       5.27109       2.62526      14.55272      11.03253 
   2824.42900       8.52587       0.06816       8.50000       0.00867       9.58855       7.46119       7.44076       7.50907       7.53876       5.17764       2.62678      15.20050      11.31990 
   2824.58140       8.52732       0.06665       8.50000       0.00527       9.39790       7.08373       7.12989       7.08593       7.07116       5.28530       2.61230      15.41098      10.87034 
   2824.73380       8.51500       0.07294       8.50000       0.00356       8.91192       7.18179       7.18391       7.31395       7.37506       5.35022       2.59309      15.94965      10.97442 
   2824.88620       8.51142       0.07644       8.50000       0.00011       8.93007       7.20266       7.24333       7.30819       7.22879       5.38942       2.57890      16.04247      10.87423 
   2825.03860       8.50790       0.07971       8.50000       0.00359       8.89969       7.04716       7.09177       7.23633       7.18406       5.32234       2.57628      16.11295      10.54785 
   2825.19100       8.52387       0.07102       8.50000       0.00444       8.58181       7.00340       6.97191       6.95067       6.90652       5.32154       2.58401      16.18400      10.78194 
   2825.34340       8.52237       0.07070       8.50000       0.00502       8.28059       7.28406       7.24007       7.16180       7.10391       5.26111       2.59132      16.18400      11.12944 
   2825.49580       8.53183       0.06659       8.50000       0.00309       9.04308       7.76996       7.69155       7.59850       7.48552       5.33435       2.59880      16.18414      10.70686 
   2825.64820       8.53583       0.06887       8.50000       0.00262       8.95636       7.83558       7.74532       7.62930       7.50881       5.19810       2.59934      16.13636      11.15071 
   2825.80060       8.54873       0.05932       8.50000       0.00075       8.22519       7.54717       7.41832       7.37419       7.33949       5.09098       2.60943      16.37802      10.69741 
   2825.95300       8.53723       0.06128       8.50000      -0.00271       8.34830       7.94102       7.79667       7.71418       7.64345       5.03022       2.60969      16.47589      10.21103 
   2826.10540       8.49600       0.06547       8.50000      -0.00471       8.77050       8.05267       7.96234       7.83205       7.71836       5.08503       2.61141      16.47589      10.78658 
   2826.25780       8.47148       0.06830       8.50000      -0.00549       8.84732       7.82773       7.82251       7.64399       7.62230       5.14981       2.59985      16.67718      11.38879 
   2826.41020       8.47021       0.06695       8.50000      -0.00184       8.49071       7.15919       7.19770       7.13683       7.12127       5.16314       2.59698      16.90763      11.21223 
   2826.56260       8.48301       0.06811       8.50000      -0.00150       8.70830       7.02858       7.04657       7.03667       7.10964       5.13944       2.59198      17.17385      11.35850 
   2826.71500       8.49349       0.07454       8.50000      -0.00059       8.62195       7.00794       7.05236       7.08483       7.16702       5.14508       2.58330      17.50154      11.02560 
   2826.86740       8.50926       0.07802       8.50000       0.00172       8.24000       6.79089       6.87024       6.95841       7.05802       5.20361       2.58379      17.64124      11.33759 
   2827.01980       8.52170       0.07980       8.50000       0.00185       7.45866       6.36845       6.43202       6.54215       6.66260       5.14040       2.58537      18.17032      11.56427 
   2827.17220       8.54125       0.07566       8.50000       0.00490       7.88919       6.40490       6.45313       6.61496       6.63739       5.17623       2.59322      18.63213      11.25316 
   2827.32460       8.53229       0.07352       8.50000      -0.00109       8.30787       6.39562       6.46534       6.62300       6.60644       5.09077       2.59439      18.95168      11.17654 
   2827.47700       8.50890       0.07406       8.50000      -0.00069       8.51408       6.63059       6.60672       6.68089       6.62905       5.15676       2.58824      19.28706      11.20103 
   2827.62940       8.48585       0.07632       8.50000      -0.00295       8.58701       6.82086       6.68373       6.61016       6.57299       5.16489       2.58272      19.73735      11.00455 
   2827.78180       8.48066       0.07584       8.50000      -0.00391       8.37450       7.04155       6.92935       6.93073       6.83791       5.20864       2.57388      20.06022      10.71099 
   2827.93420       8.50743       0.07285       8.50000      -0.00439       8.18456       7.11982       7.03790       6.97262       6.95217       5.19193       2.57975      20.24468      10.38875 
   2828.08660       8.53931       0.07156       8.50000      -0.00043       7.75598       6.92189       6.92020       6.85209       6.85172       5.26645       2.58619      20.31945      10.86802 
   2828.23900       8.54108       0.07328       8.50000       0.00099       7.47390       6.67702       6.69296       6.66573       6.68188       5.27465       2.59211      20.35874      10.75840 
   2828.39140       8.52629       0.07225       8.50000       0.00348       7.18316       6.54441       6.57185       6.47394       6.49566       5.42490       2.59115      20.58768      11.36301 
   2828.54380       8.49567       0.07651       8.50000       0.00095       7.57735       6.22302       6.33956       6.37334       6.41704       5.34684       2.58822      20.70320      10.95138 
   2828.69620       8.49663       0.07718       8.50000       0.00357       7.36105       5.94871       6.10548       6.20359       6.21372       5.34820       2.58856      20.54797      11.05190 
