~Version Information
VERS  .          2.0                              :CWLS Log Ascii Standard - Version 2.0
WRAP  .          NO                               :One line per depth step
~Well Information Block
#MNEM.UNIT       Data Type                        Information
#---------       ---------                        -------------------------------
STRT  .M         2955.95000                       :START DEPTH
STOP  .M         3509.92500                       :STOP DEPTH
STEP  .M          0.15240                         :INCREMENT
NULL  .          -999.25                          :NULL DATA VALUE
COMP  .          StatoilHydro                                                                                                                      :COMPANY
WELL  .          15/9-F-4                         :WELL
FLD   .          Volve                            :FIELD
LOC   .                                           :LOCATION
PROV  .                                           :PROVINCE
STAT  .                                           :STATE
CNTY  .                                           :COUNTY
CTRY  .                                           :COUNTRY
DATE  .                                           :DATE
UWI   .          15/9-F-4                         :UNIQUE WELL UWI
LIC   .                                           :LICENSE NUMBER
API   .                                                                                                                                            :API NUMBER
SRVC  .                                           :SERVICE COMPANY
~Parameter Information Block
#MNEM.UNIT       Value                            Description
#---------       ---------                        -------------
~Curve Information Block
#MNEM.UNIT       API Code            Curve    Description
#--------        --------------      -----    -------------------
DEPT  .M                             :0       Index
BCAV  .IN                            :1       Best Caliper, Average Diameter
BPHI  .V/V                           :2       Best Thermal Neutron Porosity, Average
BS    .IN                            :3       Bit Size                      
DRHB  .G/C3                          :4       Bulk Density Correction, Bottom
GRMA  .GAPI                          :5       Gamma Ray, Average            
P16H  .OHMM                          :6       ARC Phase Shift Resistivity 16 inch Spacing at 2 MHz, Environmentally Corrected_
P22H  .OHMM                          :7       ARC Phase Shift Resistivity 22 inch Spacing at 2 MHz, Environmentally Corrected_
P34H  .OHMM                          :8       ARC Phase Shift Resistivity 34 inch Spacing at 2 MHz, Environmentally Corrected_
P40H  .OHMM                          :9       ARC Phase Shift Resistivity 40 inch Spacing at 2 MHz, Environmentally Corrected_
PEB   .                              :10      Photoelectric Factor, Bottom  
ROBB  .G/C3                          :11      Bulk Density, Bottom          
ROP5_RM.M/HR                          :12      Rate of penetration averaged over last 5 ft(1_5 m), Recorded Mode
RT_ARC.OHMM                          :13      ARC True Formation Resistivity
SIFA  .CU                            :14      Sigma Formation, Average      
~Ascii Data Section
# ...
   3320.79560       8.51782       0.26199       8.50000       0.00168      37.01205       4.69130       4.72591       4.84214       4.83020       2.29822       2.19771      12.82523       4.75284      15.60759 
   3320.94800       8.53565       0.25631       8.50000       0.00718      38.14080       4.66235       4.67651       4.81167       4.81356       2.27547       2.20953      12.52564       4.73169      15.39709 
   3321.10040       8.51082       0.24812       8.50000      -0.00082      37.99112       4.57691       4.60502       4.78274       4.79273       2.23912       2.19848      11.70355       4.70932      15.42224 
   3321.25280       8.48117       0.25364       8.50000      -0.00115      38.78353       4.56875       4.56953       4.74449       4.77267       2.17822       2.20265      11.45375       4.68607      15.49689 
   3321.40520       8.48095       0.24110       8.50000       0.00397      37.60992       4.48727       4.50859       4.69887       4.70456       2.22024       2.20815      10.97278       4.66273      15.63946 
   3321.55760       8.46914       0.25265       8.50000       0.00603      37.05263       4.47166       4.48369       4.61656       4.61644       2.24466       2.20764      10.36546       4.64134      15.42441 
   3321.71000       8.47990       0.24850       8.50000       0.00319      37.59714       4.44998       4.47572       4.56278       4.59133       2.23811       2.20601      10.12247       4.62507      15.27851 
   3321.86240       8.47502       0.25629       8.50000      -0.00168      38.68776       4.37941       4.40868       4.54635       4.58383       2.17130       2.19959      10.15572       4.61750      15.31470 
   3322.01480       8.48873       0.25173       8.50000      -0.00245      38.81314       4.37567       4.40389       4.52313       4.61898       2.15713       2.19554      10.37120       4.62189      15.62513 
   3322.16720       8.47477       0.24414       8.50000      -0.00010      40.20707       4.38336       4.40766       4.52676       4.65113       2.16312       2.20310      10.82117       4.64074      15.40751 
   3322.31960       8.48234       0.25226       8.50000       0.00319      39.98166       4.32895       4.40570       4.59701       4.77977       2.15945       2.20850      11.42991       4.67545      15.23324 
   3322.47200       8.47464       0.24940       8.50000       0.00619      39.31458       4.29206       4.42547       4.66225       4.87396       2.12936       2.21020      12.39392       4.72778      15.68363 
   3322.62440       8.48471       0.24583       8.50000       0.00306      39.64773       4.28978       4.44923       4.77541       5.10208       2.06428       2.20386      12.72931       4.80105      15.67553 
   3322.77680       8.50611       0.24479       8.50000       0.00620      39.44502       4.34102       4.46453       4.82243       5.14044       2.13082       2.20901      13.47991       4.89966      15.63292 
   3322.92920       8.54962       0.23912       8.50000       0.01401      38.42092       4.46633       4.61540       4.99548       5.27929       2.33025       2.23313      14.82259       5.02863      15.53947 
   3323.08160       8.56433       0.24182       8.50000       0.00899      38.85237       4.71996       4.80948       5.19514       5.45057       2.68822       2.24736      15.28317       5.19773      16.66466 
   3323.23400       8.53875       0.24206       8.50000       0.00297      39.40134       4.96330       4.86297       5.20383       5.31735       2.71404       2.24597      16.92564       5.43069      16.91043 
   3323.38640       8.46539       0.23456       8.50000      -0.00527      39.23871       5.22459       5.17387       5.44277       5.27890       2.55453       2.21891      17.47322       5.75364      16.43736 
   3323.53880       8.37704       0.24752       8.50000      -0.00211      39.26972       5.89073       5.90366       6.29864       6.23615       2.30855       2.19110      17.92998       6.17038      15.92637 
   3323.69120       8.39214       0.25250       8.50000      -0.00019      40.46695       6.35701       6.57330       7.10673       7.06071       2.29748       2.17622      17.98934       6.63902      15.80828 
   3323.84360       8.40407       0.26163       8.50000       0.00071      40.44208       6.89205       7.27813       7.73409       7.73980       2.31080       2.17926      17.78439       7.08969      15.28083 
   3323.99600       8.45369       0.24923       8.50000       0.00136      40.25752       7.40092       7.70347       7.86805       7.80183       2.24891       2.18633      17.75484       7.47919      14.79440 
   3324.14840       8.48810       0.25481       8.50000      -0.00025      40.26924       8.01984       8.12880       8.07837       7.95583       2.19106       2.18887      17.75484       7.81654      14.58379 
   3324.30080       8.47863       0.25674       8.50000       0.00568      40.84335       8.49675       8.46075       8.49393       8.31641       2.18752       2.19369      17.75483       8.12762      14.49061 
   3324.45320       8.45864       0.25517       8.50000      -0.00068      40.18727       8.83964       8.67274       8.97913       8.80317       2.20063       2.18450      17.69890       8.40328      14.16712 
   3324.60560       8.44801       0.25738       8.50000       0.00148      40.31123       9.05219       8.89392       9.25939       9.16799       2.20805       2.17865      17.75484       8.59472      13.83191 
   3324.75800       8.44771       0.27816       8.50000      -0.00292      39.89489       9.12098       9.04154       9.27054       9.03390       2.14520       2.16680      17.75484       8.67563      14.26930 
   3324.91040       8.44362       0.27382       8.50000       0.00378      39.61252       9.16031       9.09720       9.04692       8.81052       2.16478       2.16789      17.75554       8.67758      14.15487 
   3325.06280       8.44957       0.26050       8.50000       0.00089      38.88627       9.16915       8.98587       8.91894       8.86953       2.16261       2.16298      17.75624       8.66641      13.73494 
   3325.21520       8.48553       0.24988       8.50000       0.00856      39.71789       9.13526       8.91055       8.83459       8.87843       2.23053       2.18848      17.75484       8.67839      13.84734 
   3325.36760       8.52049       0.23802       8.50000       0.00932      40.60407       8.98685       8.97046       9.05053       9.18095       2.31759       2.21553      17.75484       8.68952      13.63066 
   3325.52000       8.54990       0.24455       8.50000       0.01615      42.17104       8.55348       8.88121       9.09617       9.35307       2.34640       2.24372      17.75554       8.64180      13.53960 
   3325.67240       8.53667       0.23898       8.50000       0.00692      42.88831       8.06946       8.69374       8.99863       9.26756       2.31172       2.23383      17.75624       8.53393      13.82038 
   3325.82480       8.53529       0.23321       8.50000      -0.00056      43.51095       7.49465       8.21781       8.77816       9.08925       2.28469       2.23122      17.75554       8.50826      13.81901 
   3325.97720       8.53502       0.20862       8.50000      -0.00482      41.59888       7.41515       7.96788       8.34518       8.40269       2.23428       2.25646      17.75483       8.87336      14.10425 
   3326.12960       8.50869       0.17597       8.50000      -0.01233      36.97608       7.63284       7.69384       8.38882       8.68388       2.17893       2.28876      17.69820      10.02273      12.95001 
   3326.28200       8.47894       0.17206       8.50000      -0.00394      31.28349      12.00463      11.53838      12.33027      12.48428       2.12830       2.31070      17.69890      12.30216      11.56017 
   3326.43440       8.44636       0.18246       8.50000      -0.00529      25.82903      18.72269      17.95453      18.19457      17.39444       2.18358       2.29786      17.69820      15.74675      10.27985 
