~Version Information
VERS  .          2.0                              :CWLS Log Ascii Standard - Version 2.0
WRAP  .          NO                               :One line per depth step
~Well Information Block
#MNEM.UNIT       Data Type                        Information
#---------       ---------                        -------------------------------
STRT  .M         2741.37100                       :START DEPTH
STOP  .M         2992.67900                       :STOP DEPTH
STEP  .M          0.15240                         :INCREMENT
NULL  .          -999.25                          :NULL DATA VALUE
COMP  .          StatoilHydro                                                                                                                      :COMPANY
WELL  .          15/9-F-4                         :WELL
FLD   .          Volve                            :FIELD
LOC   .                                           :LOCATION
PROV  .                                           :PROVINCE
STAT  .                                           :STATE
CNTY  .                                           :COUNTY
CTRY  .                                           :COUNTRY
DATE  .                                           :DATE
UWI   .          15/9-F-4                         :UNIQUE WELL UWI
LIC   .                                           :LICENSE NUMBER
API   .                                                                                                                                            :API NUMBER
SRVC  .                                           :SERVICE COMPANY
~Parameter Information Block
#MNEM.UNIT       Value                            Description
#---------       ---------                        -------------
~Curve Information Block
#MNEM.UNIT       API Code            Curve    Description
#--------        --------------      -----    -------------------
DEPT  .M                             :0       Index
BCAV  .IN                            :1       Best Caliper, Average Diameter
BPHI  .V/V                           :2       Best Thermal Neutron Porosity, Average
BS_ARC.IN                            :3       Bit Size                      
DRHB  .G/C3                          :4       Bulk Density Correction, Bottom
GRMA  .GAPI                          :5       Gamma Ray, Average            
P16H  .OHMM                          :6       ARC Phase Shift Resistivity 16 inch Spacing at 2 MHz, Environmentally Corrected_
P22H  .OHMM                          :7       ARC Phase Shift Resistivity 22 inch Spacing at 2 MHz, Environmentally Corrected_
P34H  .OHMM                          :8       ARC Phase Shift Resistivity 34 inch Spacing at 2 MHz, Environmentally Corrected_
P40H  .OHMM                          :9       ARC Phase Shift Resistivity 40 inch Spacing at 2 MHz, Environmentally Corrected_
PEB   .                              :10      Photoelectric Factor, Bottom  
ROBB  .G/C3                          :11      Bulk Density, Bottom          
ROP5_RM.M/HR                          :12      Rate of penetration averaged over last 5 ft(1_5 m), Recorded Mode
SIFA  .CU                            :13      Sigma Formation, Average      
~Ascii Data Section
# ...
   2872.58740       8.53668       0.06628       8.50000       0.01065      10.48253       6.63925       6.67300       6.61156       6.56322       5.71234       2.60879      21.34729      11.59745 
   2872.73980       8.54268       0.07020       8.50000       0.01148      10.75613       6.38159       6.42185       6.33274       6.31079       5.86841       2.59213      21.26447      12.10907 
   2872.89220       8.61658       0.07518       8.50000       0.02723      11.38181       6.16289       6.19287       6.13200       6.10701       5.82074       2.60317      21.14251      12.50643 
   2873.04460       8.58509       0.07606       8.50000       0.01130      11.52442       5.78053       5.78593       5.81538       5.84133       5.56124       2.58486      21.10174      12.58922 
   2873.19700       8.59224       0.07244       8.50000       0.01331      11.48900       5.52646       5.50392       5.55513       5.57116       5.43033       2.59559      21.02081      12.34592 
   2873.34940       8.54183       0.07768       8.50000       0.00405      11.89899       5.51848       5.49124       5.54803       5.51538       5.34690       2.58979      21.02081      12.65094 
   2873.50180       8.52854       0.08106       8.50000       0.00344      12.14806       5.39055       5.36998       5.38193       5.36220       5.30075       2.59022      21.02081      12.71002 
   2873.65420       8.51101       0.08334       8.50000       0.00431      12.64549       5.00413       4.95395       4.92737       4.91800       5.25939       2.58691      20.94050      12.66677 
   2873.80660       8.52084       0.08040       8.50000       0.00104      12.91248       4.78597       4.74468       4.64036       4.58553       5.25701       2.58824      20.86080      12.62705 
   2873.95900       8.53087       0.08551       8.50000       0.00359      12.93865       4.63545       4.58769       4.54825       4.48256       5.21014       2.59206      20.86077      12.51379 
   2874.11140       8.54351       0.09210       8.50000       0.00379      12.98429       4.44675       4.37299       4.33702       4.29833       5.19540       2.58990      18.49797      13.01597 
   2874.26380       8.52552       0.09802       8.50000      -0.00037      12.39301       4.12559       4.05450       3.98152       3.96816       5.23299       2.56529      16.29720      13.54039 
   2874.41620       8.52545       0.10139       8.50000      -0.00087      11.90280       3.88703       3.79242       3.75409       3.71697       5.36937       2.55158      16.41846      13.25537 
   2874.56860       8.52868       0.09840       8.50000      -0.00106      12.13695       3.68156       3.62068       3.59811       3.64866       5.34111       2.54375      16.45135      13.50010 
   2874.72100       8.52968       0.11037       8.50000       0.00019      12.32790       3.38972       3.50610       3.61486       3.73358       5.24324       2.53442      16.52496      13.99424 
   2874.87340       8.52432       0.13861       8.50000       0.00529      12.33247       2.92986       3.09087       3.18977       3.33431       5.26727       2.51597      16.71010      14.45190 
   2875.02580       8.52370       0.14224       8.50000       0.00461      12.82415       2.49971       2.58407       2.57618       2.58990       5.23644       2.49972      16.96533      14.53671 
   2875.17820       8.55277       0.12831       8.50000       0.00866      12.52049       2.39531       2.44347       2.46022       2.48686       5.25868       2.50453      17.13869      13.99016 
   2875.33060       8.54754       0.12550       8.50000       0.00349      11.83688       2.57111       2.62618       2.64765       2.59964       5.19730       2.51573      17.26499      13.69905 
   2875.48300       8.55939       0.13073       8.50000       0.00871      11.50746       2.85740       2.94207       3.06618       3.06282       5.25223       2.53107      17.96462      13.86535 
   2875.63540       8.54558       0.12488       8.50000       0.00359      11.15070       3.09989       3.17885       3.32720       3.36748       5.28433       2.53382      18.28800      13.68823 
   2875.78780       8.57152       0.11418       8.50000       0.01156      10.90754       3.29357       3.28222       3.30435       3.25093       5.20789       2.55842      18.72536      13.29501 
   2875.94020       8.55629       0.10844       8.50000       0.00183      11.42461       3.74411       3.78942       3.83928       3.88980       5.11479       2.56878      19.08555      13.24495 
   2876.09260       8.56497       0.09400       8.50000       0.00762      11.69570       4.24857       4.24756       4.20670       4.21639       5.07802       2.59389      19.38670      13.07286 
   2876.24500       8.53100       0.08861       8.50000      -0.00014      12.08454       4.56549       4.53805       4.44436       4.41849       5.08791       2.58970      19.45569      13.61199 
   2876.39740       8.53632       0.08470       8.50000       0.00592      12.28489       4.72191       4.69653       4.62112       4.59218       5.13847       2.60313      19.59394      12.75452 
   2876.54980       8.51492       0.07920       8.50000       0.00149      12.91048       4.89432       4.86312       4.87820       4.87312       5.23570       2.59426      19.59394      12.82238 
   2876.70220       8.52681       0.08257       8.50000       0.00292      12.54816       4.96972       4.99670       4.95636       4.96047       5.26707       2.59299      19.42134      13.00856 
   2876.85460       8.52319       0.08595       8.50000      -0.00090      12.28049       4.78749       4.83049       4.81706       4.84272       5.30105       2.57691      19.31854      12.85553 
   2877.00700       8.54086       0.08688       8.50000      -0.00123      11.93663       4.47699       4.54738       4.59752       4.63802       5.25434       2.57576      18.72654      12.75297 
   2877.15940       8.54300       0.09464       8.50000       0.00117      12.24278       4.51303       4.56848       4.55915       4.54519       5.21834       2.57444      18.53461      12.84976 
   2877.31180       8.54101       0.09208       8.50000       0.00468      11.92798       4.47056       4.46257       4.44257       4.49633       5.24045       2.57695      18.16677      12.70784 
   2877.46420       8.53871       0.08998       8.50000       0.00572      12.40705       4.41192       4.41637       4.45923       4.45640       5.18654       2.57775      18.04827      12.74989 
   2877.61660       8.51494       0.09101       8.50000       0.00071      12.31773       4.63638       4.59587       4.61758       4.60268       5.23995       2.56934      17.92943      13.17396 
   2877.76900       8.50071       0.08458       8.50000      -0.00366      13.01974       4.50644       4.44214       4.44792       4.48932       5.17425       2.57216      17.92907      12.84179 
   2877.92140       8.49057       0.08406       8.50000      -0.00339      13.16565       4.60928       4.57197       4.64794       4.71621       5.14777       2.57804      17.78439      12.27626 
   2878.07380       8.48344       0.09010       8.50000      -0.00643      13.19408       4.45860       4.45648       4.52993       4.64568       5.13503       2.56880      17.75554      12.54221 
   2878.22620       8.48703       0.09495       8.50000      -0.00208      13.27663       4.09677       4.27679       4.37268       4.41293       5.11044       2.55884      17.81324      13.06618 
   2878.37860       8.50826       0.10361       8.50000       0.00134      14.41164       3.72676       3.82968       3.85335       3.94362       5.19358       2.55157      17.75519      13.73295 
   2878.53100       8.54647       0.10386       8.50000       0.01106      14.06693       3.76528       3.83007       3.85513       3.89646       5.19038       2.56558      17.72687      12.96846 
   2878.68340       8.55524       0.09048       8.50000       0.00836      13.39299       3.75556       3.71880       3.73606       3.70840       5.18219       2.57895      17.69821      12.70551 
