~Version Information
VERS  .          2.0                              :CWLS Log Ascii Standard - Version 2.0
WRAP  .          NO                               :One line per depth step
~Well Information Block
#MNEM.UNIT       Data Type                        Information
#---------       ---------                        -------------------------------
STRT  .M         2955.95000                       :START DEPTH
STOP  .M         3509.92500                       :STOP DEPTH
STEP  .M          0.15240                         :INCREMENT
NULL  .          -999.25                          :NULL DATA VALUE
COMP  .          StatoilHydro                                                                                                                      :COMPANY
WELL  .          15/9-F-4                         :WELL
FLD   .          Volve                            :FIELD
LOC   .                                           :LOCATION
PROV  .                                           :PROVINCE
STAT  .                                           :STATE
CNTY  .                                           :COUNTY
CTRY  .                                           :COUNTRY
DATE  .                                           :DATE
UWI   .          15/9-F-4                         :UNIQUE WELL UWI
LIC   .                                           :LICENSE NUMBER
API   .                                                                                                                                            :API NUMBER
SRVC  .                                           :SERVICE COMPANY
~Parameter Information Block
#MNEM.UNIT       Value                            Description
#---------       ---------                        -------------
~Curve Information Block
#MNEM.UNIT       API Code            Curve    Description
#--------        --------------      -----    -------------------
DEPT  .M                             :0       Index
BCAV  .IN                            :1       Best Caliper, Average Diameter
BPHI  .V/V                           :2       Best Thermal Neutron Porosity, Average
BS    .IN                            :3       Bit Size                      
DRHB  .G/C3                          :4       Bulk Density Correction, Bottom
GRMA  .GAPI                          :5       Gamma Ray, Average            
P16H  .OHMM                          :6       ARC Phase Shift Resistivity 16 inch Spacing at 2 MHz, Environmentally Corrected_
P22H  .OHMM                          :7       ARC Phase Shift Resistivity 22 inch Spacing at 2 MHz, Environmentally Corrected_
P34H  .OHMM                          :8       ARC Phase Shift Resistivity 34 inch Spacing at 2 MHz, Environmentally Corrected_
P40H  .OHMM                          :9       ARC Phase Shift Resistivity 40 inch Spacing at 2 MHz, Environmentally Corrected_
PEB   .                              :10      Photoelectric Factor, Bottom  
ROBB  .G/C3                          :11      Bulk Density, Bottom          
ROP5_RM.M/HR                          :12      Rate of penetration averaged over last 5 ft(1_5 m), Recorded Mode
RT_ARC.OHMM                          :13      ARC True Formation Resistivity
SIFA  .CU                            :14      Sigma Formation, Average      
~Ascii Data Section
# ...
   3286.04840       8.65818       0.24748       8.50000       0.03828      33.77243      19.78800      17.52661      18.18351      15.93855       2.61270       2.20997      39.75990      17.52661      14.17388 
   3286.20080       8.61641       0.24026       8.50000       0.01906      36.80736      26.53199      18.58386      20.83607      20.18948       3.12950       2.28193      39.75638      18.58386      15.17647 
   3286.35320       8.60122       0.21597       8.50000       0.02158      39.42167      33.82807      18.40321      17.54516      16.51160       3.41634       2.38954      39.61320      18.40321      15.13752 
   3286.50560       8.56961       0.20044       8.50000      -0.00061      42.01363      13.30186       9.81056       8.91541       9.33874       3.70326       2.40298      39.46894       9.81056      16.03375 
   3286.65800       8.57861       0.19520       8.50000       0.02642      43.85511       7.97670       7.18635       6.66136       7.15542       3.52920       2.44104      39.46659       7.18635      16.41360 
   3286.81040       8.65793       0.19604       8.50000       0.03208      44.09551       4.03250       3.96032       3.57458       3.92531       3.98849       2.47489      38.29578       3.96032      17.20565 
   3286.96280       8.76297       0.16195       8.50000       0.05031      43.47562       4.23812       4.33486       4.18181       4.56511       4.33351       2.54234      37.83850       4.33489      17.28131 
   3287.11520       8.85861       0.13971       8.50000       0.04702      43.27429       4.69340       4.80270       4.23956       4.41467       4.56959       2.59953      37.07072       5.67377      17.91453 
   3287.26760       8.85025       0.12250       8.50000       0.03336      41.45749       5.63082       5.55385       5.08641       5.02575       4.37294       2.63429      35.62477       5.63844      17.44131 
   3287.42000       8.77885       0.10549       8.50000       0.01312      38.73348       6.05137       5.75833       5.61762       5.38643       4.00121       2.65849      24.27600       5.53666      17.10223 
   3287.57240       8.67737       0.10160       8.50000      -0.00072      36.93385       5.81157       5.50814       5.38939       5.15558       3.81323       2.64977      24.27579       5.27616      16.29802 
   3287.72480       8.60546       0.10562       8.50000      -0.00269      36.18682       5.31621       5.15197       5.16608       4.81442       3.82119       2.63866      16.27941       4.91636      15.65213 
   3287.87720       8.55191       0.10314       8.50000       0.00127      36.65570       4.68997       4.63345       4.66860       4.31849       3.86753       2.61630      11.08359       4.57812      15.88013 
   3288.02960       8.47463       0.11208       8.50000      -0.00393      37.34004       4.42408       4.51226       4.44745       4.28149       3.86262       2.57007       9.48477       4.33560      16.26300 
   3288.18200       8.41257       0.12445       8.50000       0.00223      41.16451       4.00840       4.23790       4.31749       4.27257       3.62292       2.51181       8.72397       4.18020      17.97231 
   3288.33440       8.41619       0.15843       8.50000       0.00997      45.44057       3.60709       3.89743       4.13677       4.32465       3.32251       2.46629       8.45362       4.01730      19.40107 
   3288.48680       8.60027       0.16343       8.50000       0.03587      49.37956       2.99119       3.56047       4.07846       4.44571       3.73386       2.50786       8.04589       3.70596      20.59676 
   3288.63920       8.66800       0.18289       8.50000       0.01248      52.60568       2.27367       2.76267       3.54345       4.68508       4.75549       2.54981       7.93990       1.49805      23.26616 
   3288.79160       8.71367       0.18808       8.50000      -0.00466      54.03392       1.85004       2.15586       2.81502       3.67514       5.12846       2.57140       7.84334       1.33597      23.91843 
   3288.94400       8.62556       0.20461       8.50000      -0.01401      53.07654       1.51509       1.77280       2.17031       2.50931       4.29607       2.51565       8.19745       1.77423      23.91225 
   3289.09640       8.52380       0.20795       8.50000       0.01030      51.86935       1.43136       1.61310       2.03568       2.13599       3.51586       2.48272       9.40039       1.64778      24.63787 
   3289.24880       8.61494       0.20223       8.50000       0.02537      50.39831       1.37874       1.46433       1.68580       1.62786       3.52537       2.49458      11.62799       1.53592      24.18970 
   3289.40120       8.67688       0.19242       8.50000       0.01105      48.37890       1.32665       1.34992       1.52162       1.51041       3.84900       2.51153      14.91527       1.45557      22.62896 
   3289.55360       8.66588       0.18860       8.50000      -0.00086      46.60374       1.21421       1.31320       1.95184       2.31791       4.09438       2.51016      16.82948       1.43094      22.91660 
   3289.70600       8.57252       0.17868       8.50000       0.00091      46.43086       1.16249       1.24543       1.54826       1.58361       4.15606       2.49007      20.09696       1.38740      23.27636 
   3289.85840       8.51535       0.18724       8.50000       0.01509      46.42006       1.15009       1.24165       1.35071       1.28281       4.00561       2.48049      24.35208       1.38432      22.61195 
   3290.01080       8.53903       0.19166       8.50000       0.02034      46.51451       1.23457       1.29427       1.29739       1.18775       3.76658       2.48133      25.28393       1.40586      23.08276 
   3290.16320       8.58865       0.19081       8.50000       0.02338      44.77712       1.37229       1.52467       1.59768       1.50794       3.91571       2.48675      27.87609       1.55121      23.04383 
   3290.31560       8.66545       0.17282       8.50000       0.03421      44.41721       1.78125       2.07831       2.54572       2.55462       4.57956       2.50235      28.72595       2.07831      22.82736 
   3290.46800       8.76450       0.15144       8.50000       0.05973      41.28969       2.52425       2.68154       3.15215       3.29822       5.18211       2.53993      29.40485       2.68154      21.28366 
   3290.62040       8.83829       0.11842       8.50000       0.06853      35.93037       5.01708       4.50777       4.68500       4.99189       5.25201       2.59154      29.18616       4.50777      18.87384 
   3290.77280       8.83080       0.10762       8.50000       0.04678      30.86485       8.52218       8.90111       8.80121       9.69979       4.58593       2.62136      28.87721       8.90111      17.32610 
   3290.92520       8.75680       0.08673       8.50000       0.01265      27.17689       8.98558      11.46509      12.92133      13.37664       4.13608       2.63607      26.58636      11.46509      15.98351 
   3291.07760       8.64565       0.07585       8.50000       0.00269      23.76328       7.41871      10.11686      13.76262      16.26179       4.07295       2.62761      17.64055      10.11686      14.78443 
   3291.23000       8.52015       0.08043       8.50000       0.00209      23.08579       6.60656       8.13981      10.02540      11.54010       3.96638       2.58798      17.64042       8.13981      13.98790 
   3291.38240       8.39525       0.08981       8.50000       0.00535      24.72855       7.61060       7.83291       8.70658       9.55736       3.57942       2.54062      13.03190       7.83291      13.40261 
   3291.53480       8.48542       0.07454       8.50000       0.04852      27.10395       7.18546       7.11201       8.91469       9.93450       2.84310       2.55087      11.03906       7.11201      14.21693 
   3291.68720       8.37828       0.10815       8.50000      -0.00249      29.62884       6.30432       6.59324       8.93374      10.22836       2.88410       2.37400       9.72781       6.59324      14.51597 
