~Version Information
VERS  .          2.0                              :CWLS Log Ascii Standard - Version 2.0
WRAP  .          NO                               :One line per depth step
~Well Information Block
#MNEM.UNIT       Data Type                        Information
#---------       ---------                        -------------------------------
STRT  .M         2741.37100                       :START DEPTH
STOP  .M         2992.67900                       :STOP DEPTH
STEP  .M          0.15240                         :INCREMENT
NULL  .          -999.25                          :NULL DATA VALUE
COMP  .          StatoilHydro                                                                                                                      :COMPANY
WELL  .          15/9-F-4                         :WELL
FLD   .          Volve                            :FIELD
LOC   .                                           :LOCATION
PROV  .                                           :PROVINCE
STAT  .                                           :STATE
CNTY  .                                           :COUNTY
CTRY  .                                           :COUNTRY
DATE  .                                           :DATE
UWI   .          15/9-F-4                         :UNIQUE WELL UWI
LIC   .                                           :LICENSE NUMBER
API   .                                                                                                                                            :API NUMBER
SRVC  .                                           :SERVICE COMPANY
~Parameter Information Block
#MNEM.UNIT       Value                            Description
#---------       ---------                        -------------
~Curve Information Block
#MNEM.UNIT       API Code            Curve    Description
#--------        --------------      -----    -------------------
DEPT  .M                             :0       Index
BCAV  .IN                            :1       Best Caliper, Average Diameter
BPHI  .V/V                           :2       Best Thermal Neutron Porosity, Average
BS_ARC.IN                            :3       Bit Size                      
DRHB  .G/C3                          :4       Bulk Density Correction, Bottom
GRMA  .GAPI                          :5       Gamma Ray, Average            
P16H  .OHMM                          :6       ARC Phase Shift Resistivity 16 inch Spacing at 2 MHz, Environmentally Corrected_
P22H  .OHMM                          :7       ARC Phase Shift Resistivity 22 inch Spacing at 2 MHz, Environmentally Corrected_
P34H  .OHMM                          :8       ARC Phase Shift Resistivity 34 inch Spacing at 2 MHz, Environmentally Corrected_
P40H  .OHMM                          :9       ARC Phase Shift Resistivity 40 inch Spacing at 2 MHz, Environmentally Corrected_
PEB   .                              :10      Photoelectric Factor, Bottom  
ROBB  .G/C3                          :11      Bulk Density, Bottom          
ROP5_RM.M/HR                          :12      Rate of penetration averaged over last 5 ft(1_5 m), Recorded Mode
SIFA  .CU                            :13      Sigma Formation, Average      
~Ascii Data Section
# ...
   2953.81660       8.54411       0.12424       8.50000       0.01216      12.45850       2.52260       2.48383       2.51026       2.49704       4.84377       2.53127      23.44650      13.46481 
   2953.96900       8.52524       0.12438       8.50000       0.00418      13.12255       2.68659       2.67716       2.74595       2.80599       4.70560       2.52030      23.44650      13.46603 
   2954.12140       8.51374       0.13086       8.50000       0.00158      12.35498       2.60996       2.67625       2.70244       2.66058       4.73583       2.50162      23.44646      13.79058 
   2954.27380       8.52911       0.13301       8.50000       0.00444      13.63787       2.55281       2.56642       2.55917       2.58285       4.77412       2.49636      21.18323      13.83701 
   2954.42620       8.54687       0.12790       8.50000       0.00532      14.57570       2.46392       2.50587       2.48974       2.49210       4.78331       2.50497      18.60377      14.34801 
   2954.57860       8.58194       0.12393       8.50000       0.01037      16.22696       2.52564       2.54103       2.52433       2.48766       4.83145       2.53782      18.28750      14.40836 
   2954.73100       8.54502       0.12356       8.50000       0.00084      16.44918       2.52192       2.50476       2.49002       2.37046       4.67550       2.54156      18.21273      14.35697 
   2954.88340       8.50556       0.11227       8.50000      -0.00140      18.31394       2.72070       2.74532       2.76677       2.76944       4.68315       2.53689      18.39123      14.60438 
   2955.03580       8.49612       0.11643       8.50000      -0.00055      19.56515       2.96280       2.92566       2.95241       2.97277       4.61302       2.53225      18.77764      14.55307 
   2955.18820       8.52126       0.12035       8.50000       0.00659      21.17821       2.92744       2.99458       3.02101       3.07633       4.72670       2.54643      19.20241      14.53225 
   2955.34060       8.56588       0.11629       8.50000       0.00658      22.00384       2.85061       2.98015       2.98556       2.99169       4.63672       2.56110      19.50716      14.98836 
   2955.49300       8.55080       0.10989       8.50000       0.00035      22.42121       2.65335       2.67999       2.67673       2.71134       4.58170       2.55239      17.27671      14.82478 
   2955.64540       8.53006       0.11413       8.50000      -0.00015      21.17005       2.81128       2.82180       2.83606       2.83571       4.52943       2.54520      17.58464      14.67744 
   2955.79780       8.50330       0.11820       8.50000       0.00115      19.26526       3.00024       2.99372       3.04330       3.14837       4.52200       2.53190      17.58465      14.39088 
   2955.95020       8.51482       0.11802       8.50000       0.00953      17.94578       3.02827       2.97751       2.96623       3.01967       4.54657       2.53023      17.75554      13.46455 
   2956.10260       8.53595       0.11710       8.50000       0.00641      18.22330       2.91821       2.94089       2.95912       2.97198       4.53328       2.52307      17.98863      13.89303 
   2956.25500       8.55887       0.11634       8.50000       0.00648      19.45087       2.84801       2.88823       2.95257       3.00670       4.54362       2.52977      18.34943      13.83867 
   2956.40740       8.53725       0.12071       8.50000      -0.00162      21.28506       2.76290       2.78308       2.79390       2.82771       4.48697       2.53014      18.41086      14.54117 
   2956.55980       8.51144       0.12520       8.50000      -0.00363      22.78329       2.60954       2.62446       2.55270       2.44082       4.40055       2.53209      18.34847      14.47824 
   2956.71220       8.49050       0.11806       8.50000      -0.00290      23.90394       2.75338       2.77260       2.83117       2.90195       4.29564       2.53143      17.98865      14.44166 
   2956.86460       8.49923       0.11945       8.50000       0.00059      25.43212       2.75726       2.76956       2.82309       2.86588       4.30180       2.53294      19.42473      14.33843 
   2957.01700       8.52555       0.11989       8.50000       0.00651      26.02798       2.66434       2.70405       2.70443       2.72606       4.40237       2.54000      20.66648      14.75467 
   2957.16940       8.52015       0.12219       8.50000       0.00820      26.66028       2.59959       2.70724       2.79024       2.86155       4.53106       2.53870      20.51054      15.07794 
   2957.32180       8.52382       0.12707       8.50000       0.00862      26.47273       2.42906       2.43872       2.37496       2.30008       4.52766       2.53893      20.62607      15.43864 
   2957.47420       8.50393       0.11352       8.50000       0.00677      25.57439       2.38480       2.33257       2.29491       2.27119       4.45448       2.53960      20.94325      14.47781 
   2957.62660       8.49879       0.11874       8.50000       0.00538      23.10217       2.87561       2.93379       2.98757       3.04202       4.44529       2.53415      21.18330      14.28398 
   2957.77900       8.50946       0.11984       8.50000       0.00719      21.68323       2.97336       2.97351       3.02181       3.00041       4.43001       2.53269      21.94701      14.29138 
   2957.93140       8.52883       0.11504       8.50000       0.00513      20.60320       3.02396       3.03253       3.04426       3.03407       4.51928       2.52789      22.12276      14.35876 
   2958.08380       8.53920       0.11279       8.50000       0.00460      20.04488       3.16307       3.15288       3.06213       3.03012       4.47165       2.53481      22.62531      14.56727 
   2958.23620       8.53151       0.11980       8.50000       0.00006      19.92377       3.28362       3.29853       3.24012       3.24791       4.53846       2.53587      22.81230      14.18759 
   2958.38860       8.54121       0.11548       8.50000       0.00265      20.36926       3.32302       3.34688       3.38018       3.35929       4.57026       2.54848      22.85977      13.92197 
   2958.54100       8.55731       0.11899       8.50000       0.00357      21.04758       3.38666       3.39038       3.39204       3.40646       4.69117       2.55257      22.95591      14.68614 
   2958.69340       8.55146       0.11555       8.50000       0.00206      21.74332       3.33630       3.35645       3.36416       3.36599       4.73541       2.55833      23.05206      14.49272 
   2958.84580       8.53454       0.11183       8.50000      -0.00084      22.27191       3.19570       3.23904       3.20349       3.18672       4.65290       2.55711      23.19851      14.57390 
   2958.99820       8.53137       0.11718       8.50000       0.00387      22.45954       3.18174       3.18441       3.19719       3.19428       4.68186       2.56300      23.24759      14.55221 
   2959.15060       8.54788       0.11374       8.50000       0.00325      22.48169       3.17880       3.14206       3.13930       3.10994       4.66073       2.56654      22.72925      14.27021 
   2959.30300       8.54115       0.12021       8.50000       0.00231      21.49292       3.14482       3.14396       3.18472       3.21459       4.76806       2.55900      22.54091      14.44128 
   2959.45540       8.51895       0.12157       8.50000      -0.00115      20.18662       3.06502       3.05169       3.05540       3.00142       4.73664       2.54669      22.62474      15.03700 
   2959.60780       8.50672       0.12291       8.50000       0.00139      19.00199       2.91114       2.92704       2.98470       2.93700       4.75260       2.53680      22.81230      14.88282 
   2959.76020       8.51296       0.12738       8.50000       0.00387      18.30226       2.75103       2.75838       2.75398       2.78383       4.74786       2.53700      22.85977      14.82675 
   2959.91260       8.51279       0.13726       8.50000       0.00049      17.44856       2.72246       2.70958       2.73952       2.78534       4.71559       2.53318      23.14942      14.59866 
