~Version Information
VERS  .          2.0                              :CWLS Log Ascii Standard - Version 2.0
WRAP  .          NO                               :One line per depth step
~Well Information Block
#MNEM.UNIT       Data Type                        Information
#---------       ---------                        -------------------------------
STRT  .M         2741.37100                       :START DEPTH
STOP  .M         2992.67900                       :STOP DEPTH
STEP  .M          0.15240                         :INCREMENT
NULL  .          -999.25                          :NULL DATA VALUE
COMP  .          StatoilHydro                                                                                                                      :COMPANY
WELL  .          15/9-F-4                         :WELL
FLD   .          Volve                            :FIELD
LOC   .                                           :LOCATION
PROV  .                                           :PROVINCE
STAT  .                                           :STATE
CNTY  .                                           :COUNTY
CTRY  .                                           :COUNTRY
DATE  .                                           :DATE
UWI   .          15/9-F-4                         :UNIQUE WELL UWI
LIC   .                                           :LICENSE NUMBER
API   .                                                                                                                                            :API NUMBER
SRVC  .                                           :SERVICE COMPANY
~Parameter Information Block
#MNEM.UNIT       Value                            Description
#---------       ---------                        -------------
~Curve Information Block
#MNEM.UNIT       API Code            Curve    Description
#--------        --------------      -----    -------------------
DEPT  .M                             :0       Index
BCAV  .IN                            :1       Best Caliper, Average Diameter
BPHI  .V/V                           :2       Best Thermal Neutron Porosity, Average
BS_ARC.IN                            :3       Bit Size                      
DRHB  .G/C3                          :4       Bulk Density Correction, Bottom
GRMA  .GAPI                          :5       Gamma Ray, Average            
P16H  .OHMM                          :6       ARC Phase Shift Resistivity 16 inch Spacing at 2 MHz, Environmentally Corrected_
P22H  .OHMM                          :7       ARC Phase Shift Resistivity 22 inch Spacing at 2 MHz, Environmentally Corrected_
P34H  .OHMM                          :8       ARC Phase Shift Resistivity 34 inch Spacing at 2 MHz, Environmentally Corrected_
P40H  .OHMM                          :9       ARC Phase Shift Resistivity 40 inch Spacing at 2 MHz, Environmentally Corrected_
PEB   .                              :10      Photoelectric Factor, Bottom  
ROBB  .G/C3                          :11      Bulk Density, Bottom          
ROP5_RM.M/HR                          :12      Rate of penetration averaged over last 5 ft(1_5 m), Recorded Mode
SIFA  .CU                            :13      Sigma Formation, Average      
~Ascii Data Section
# ...
   2791.35820       8.53163       0.09269       8.50000       0.01014       7.25305       4.28801       4.18774       3.89345       3.81342       5.23674       2.57667      14.99060      11.00951 
   2791.51060       8.52829       0.08681       8.50000       0.00528       7.45610       4.60786       4.47484       4.24741       4.27387       5.24432       2.57745      14.17682      10.86162 
   2791.66300       8.49981       0.08233       8.50000      -0.00524       8.15662       4.87578       4.73786       4.32740       4.39203       5.15078       2.56580      13.33608      11.01706 
   2791.81540       8.49502       0.08580       8.50000      -0.00357       8.44275       4.87400       4.79292       4.56113       4.67645       5.09570       2.55913      13.12521      11.45905 
   2791.96780       8.49704       0.09989       8.50000      -0.00325       9.40784       4.54674       4.45636       4.23472       4.42971       5.04572       2.54753      12.48691      11.73644 
   2792.12020       8.53011       0.09806       8.50000       0.00539      10.61888       3.84243       3.91616       3.83391       3.93990       4.95718       2.55427      12.27361      11.71017 
   2792.27260       8.54588       0.10238       8.50000       0.00182      11.22769       3.67630       3.71205       3.69984       3.79592       4.97671       2.54789      12.01881      12.28835 
   2792.42500       8.57920       0.09854       8.50000       0.00956      11.45892       3.28207       3.33667       3.26713       3.28338       5.07600       2.55448      11.95309      13.06102 
   2792.57740       8.60762       0.10929       8.50000       0.01095      11.67037       3.29840       3.27969       3.26985       3.27833       5.36002       2.55689      11.65045      12.88106 
   2792.72980       8.65307       0.11739       8.50000       0.02422      11.47785       3.35971       3.29378       3.26076       3.31143       5.65187       2.56840      11.50189      12.58171 
   2792.88220       8.66735       0.10992       8.50000       0.02050      10.77579       3.58851       3.56592       3.66667       3.72420       5.73597       2.55879      11.52610      12.01481 
   2793.03460       8.67183       0.10935       8.50000       0.02653      11.01919       3.66945       3.66965       3.60565       3.63340       5.81727       2.56039      11.62356      11.59316 
   2793.18700       8.62591       0.10473       8.50000       0.01894      11.98970       3.65001       3.67290       3.65324       3.62987       5.68162       2.55199      11.55080      12.04215 
   2793.33940       8.61025       0.10844       8.50000       0.01988      12.48787       3.74617       3.78624       3.71311       3.67471       5.47070       2.56751      11.47808      12.18228 
   2793.49180       8.56576       0.09281       8.50000       0.00571      11.37044       4.04936       4.07271       3.93081       3.86637       5.26318       2.57233       6.57057      11.97624 
   2793.64420       8.55134       0.07484       8.50000       0.00439      10.71396       4.37873       4.27709       4.14041       4.06148       5.18433       2.59025       6.57057      11.27076 
   2793.79660       8.53476       0.08742       8.50000      -0.00075       9.36589       5.87474       5.76339       5.50645       5.26699       5.35432       2.58213       5.44817      11.24408 
   2793.94900       8.54798       0.09190       8.50000       0.00473       7.49575       6.18894       6.07722       5.80533       5.58802       5.45929       2.58493       5.27361      10.95076 
   2794.10140       8.53199       0.07045       8.50000      -0.00076       6.46692       6.38782       6.26010       5.92667       5.85243       5.58241       2.57824       5.01032      10.42277 
   2794.25380       8.51500       0.07080       8.50000      -0.00052       6.94844       6.99062       6.74958       6.56307       6.59623       5.56248       2.58086       5.01950       9.96531 
   2794.40620       8.49931       0.08104       8.50000      -0.00369       8.05516       7.32669       7.13085       6.84989       6.86080       5.53072       2.56997       5.02409      10.49470 
   2794.55860       8.52050       0.07740       8.50000      -0.00052       9.63825       6.97790       6.92755       6.68250       6.83353       5.35022       2.57173       5.01495      10.83991 
   2794.71100       8.53796       0.07805       8.50000      -0.00064      11.78382       6.35238       6.42805       6.35190       6.48223       5.17564       2.57933       5.05816      11.51510 
   2794.86340       8.54033       0.08990       8.50000       0.00005      13.61099       5.28078       5.50738       5.63230       5.89550       5.01800       2.58382       5.08929      12.34197 
   2795.01580       8.52472       0.09190       8.50000      -0.00202      14.97066       4.38473       4.54113       4.69724       5.06451       4.99157       2.57130       7.46623      12.83941 
   2795.16820       8.53706       0.09858       8.50000      -0.00198      15.34317       4.20538       4.21602       4.29858       4.48928       5.02328       2.55940       9.33717      12.71874 
   2795.32060       8.53996       0.10653       8.50000      -0.00272      14.86058       4.08845       4.16764       4.24384       4.42638       5.06187       2.54607      10.75767      13.10313 
   2795.47300       8.53521       0.11114       8.50000      -0.00438      14.38275       3.65699       3.76006       3.87727       4.09762       5.08444       2.53383      11.15111      13.41916 
   2795.62540       8.51853       0.11161       8.50000      -0.00663      14.40940       3.33624       3.45719       3.69457       3.93184       4.97316       2.52195      13.92589      13.16502 
   2795.77780       8.50747       0.12384       8.50000      -0.00383      14.10209       3.03381       3.19273       3.56421       4.01006       4.90931       2.51777      14.03206      13.55563 
   2795.93020       8.52092       0.13160       8.50000       0.00567      14.31135       2.90850       3.07699       3.34639       3.51748       4.91348       2.51973      14.28779      13.03694 
   2796.08260       8.51173       0.13459       8.50000       0.00298      14.58352       2.77208       2.97677       3.26007       3.44168       5.01260       2.49975      14.99024      13.80143 
   2796.23500       8.51453       0.15059       8.50000       0.00356      14.44596       2.67315       2.82057       2.97443       3.03217       5.00401       2.48872      15.58654      13.92090 
   2796.38740       8.51152       0.15167       8.50000       0.00389      14.02332       2.54186       2.73312       3.01781       3.19117       4.89133       2.48237      16.52929      13.83033 
   2796.53980       8.53207       0.14692       8.50000       0.00937      13.84746       2.46878       2.55032       2.85640       2.95319       4.79060       2.48883      16.90860      14.22124 
   2796.69220       8.54003       0.14711       8.50000       0.01333      13.04394       2.52149       2.56909       2.73153       2.79790       4.92560       2.49515      17.25593      14.24136 
   2796.84460       8.53339       0.13383       8.50000       0.00994      12.61668       2.66667       2.65854       2.78630       2.81017       5.04760       2.49129      17.73051      13.45722 
   2796.99700       8.53283       0.13817       8.50000       0.00846      12.40176       2.81437       2.76071       2.86359       2.91444       5.19746       2.49594      18.10790      13.23586 
   2797.14940       8.54820       0.12950       8.50000       0.00140      12.25467       2.81640       2.78707       2.87849       2.93079       5.20742       2.50493      18.44438      12.69458 
   2797.30180       8.55546       0.11914       8.50000      -0.00074      12.45243       2.81790       2.80076       2.83448       2.90176       5.22696       2.52237      18.66116      12.83712 
   2797.45420       8.53800       0.12106       8.50000      -0.00289      12.97299       2.74213       2.76014       2.73680       2.76721       5.16986       2.52767      18.66104      13.30171 
