~Version Information
VERS  .          2.0                              :CWLS Log Ascii Standard - Version 2.0
WRAP  .          NO                               :One line per depth step
~Well Information Block
#MNEM.UNIT       Data Type                        Information
#---------       ---------                        -------------------------------
STRT  .M         2955.95000                       :START DEPTH
STOP  .M         3509.92500                       :STOP DEPTH
STEP  .M          0.15240                         :INCREMENT
NULL  .          -999.25                          :NULL DATA VALUE
COMP  .          StatoilHydro                                                                                                                      :COMPANY
WELL  .          15/9-F-4                         :WELL
FLD   .          Volve                            :FIELD
LOC   .                                           :LOCATION
PROV  .                                           :PROVINCE
STAT  .                                           :STATE
CNTY  .                                           :COUNTY
CTRY  .                                           :COUNTRY
DATE  .                                           :DATE
UWI   .          15/9-F-4                         :UNIQUE WELL UWI
LIC   .                                           :LICENSE NUMBER
API   .                                                                                                                                            :API NUMBER
SRVC  .                                           :SERVICE COMPANY
~Parameter Information Block
#MNEM.UNIT       Value                            Description
#---------       ---------                        -------------
~Curve Information Block
#MNEM.UNIT       API Code            Curve    Description
#--------        --------------      -----    -------------------
DEPT  .M                             :0       Index
BCAV  .IN                            :1       Best Caliper, Average Diameter
BPHI  .V/V                           :2       Best Thermal Neutron Porosity, Average
BS    .IN                            :3       Bit Size                      
DRHB  .G/C3                          :4       Bulk Density Correction, Bottom
GRMA  .GAPI                          :5       Gamma Ray, Average            
P16H  .OHMM                          :6       ARC Phase Shift Resistivity 16 inch Spacing at 2 MHz, Environmentally Corrected_
P22H  .OHMM                          :7       ARC Phase Shift Resistivity 22 inch Spacing at 2 MHz, Environmentally Corrected_
P34H  .OHMM                          :8       ARC Phase Shift Resistivity 34 inch Spacing at 2 MHz, Environmentally Corrected_
P40H  .OHMM                          :9       ARC Phase Shift Resistivity 40 inch Spacing at 2 MHz, Environmentally Corrected_
PEB   .                              :10      Photoelectric Factor, Bottom  
ROBB  .G/C3                          :11      Bulk Density, Bottom          
ROP5_RM.M/HR                          :12      Rate of penetration averaged over last 5 ft(1_5 m), Recorded Mode
RT_ARC.OHMM                          :13      ARC True Formation Resistivity
SIFA  .CU                            :14      Sigma Formation, Average      
~Ascii Data Section
# ...
   3430.82840       8.85702       0.17399       8.50000       0.05023      73.92367       3.91312       3.99110       4.02970       4.03168       3.20984       2.47977      29.18264       4.13548      24.52245 
   3430.98080       8.58101       0.17260       8.50000       0.03639      71.30602       3.83051       3.90477       4.05134       4.04067       3.23414       2.42578      29.27408       3.96473      23.23873 
   3431.13320       8.48811       0.14174       8.50000       0.02953      69.62199       3.67296       3.68201       3.81935       3.81853       2.83186       2.45634      29.34103       3.85603      22.60946 
   3431.28560       8.53730       0.13575       8.50000      -0.00321      68.00285       3.78340       3.72730       3.71079       3.66061       2.53767       2.51990      29.25910       3.79753      23.00931 
   3431.43800       8.58355       0.12153       8.50000       0.00055      67.61871       3.91548       3.82958       3.79831       3.69221       2.44113       2.58082      29.18099       3.77054      22.46438 
   3431.59040       8.54350       0.11773       8.50000      -0.00008      68.46773       4.01303       3.91304       3.90392       3.83179       2.47824       2.57477      28.73299       3.75425      23.04993 
   3431.74280       8.51815       0.12850       8.50000      -0.00309      69.78455       3.95887       3.87033       3.83023       3.76582       2.43005       2.56276      27.65372       3.72852      23.23489 
   3431.89520       8.51871       0.12792       8.50000      -0.00386      69.32938       3.86188       3.78138       3.79464       3.81151       2.43694       2.55613      27.02617       3.68256      22.77128 
   3432.04760       8.55770       0.13216       8.50000       0.00835      69.45065       3.76350       3.73147       3.74086       3.70570       2.62069       2.57468      25.87779       3.61376      22.84543 
   3432.20000       8.56272       0.13782       8.50000       0.01118      68.39015       3.62646       3.65385       3.62592       3.63816       2.79189       2.57534      25.16829       3.53007      21.98215 
   3432.35240       8.56828       0.12390       8.50000       0.01551      66.49160       3.41402       3.47735       3.51575       3.49064       2.95031       2.57748      25.05272       3.44832      21.40152 
   3432.50480       8.54769       0.13118       8.50000       0.01178      64.78616       3.28722       3.33125       3.42821       3.43893       2.98045       2.57402      24.85907       3.38908      20.54632 
   3432.65720       8.52417       0.12851       8.50000       0.00745      63.43006       3.21086       3.24796       3.34081       3.33304       3.06118       2.55768      24.65045       3.36711      21.15733 
   3432.80960       8.53377       0.13078       8.50000       0.00701      62.19168       3.19257       3.24097       3.38827       3.35514       2.98245       2.55254      24.60291       3.38777      20.18786 
   3432.96200       8.52983       0.12586       8.50000       0.00469      62.00769       3.27103       3.28673       3.41643       3.38700       2.83999       2.54139      24.60291       3.44794      20.23540 
   3433.11440       8.57257       0.12274       8.50000       0.01178      62.59188       3.40028       3.37718       3.41532       3.40228       2.72697       2.56498      24.60295       3.53829      21.19627 
   3433.26680       8.59222       0.11906       8.50000       0.01664      62.14319       3.56050       3.56263       3.64963       3.60879       2.76266       2.58247      25.82992       3.64085      20.83766 
   3433.41920       8.60195       0.12136       8.50000       0.01616      62.36872       3.76860       3.77017       3.77039       3.75310       2.73535       2.58531      26.37597       3.73324      20.46798 
   3433.57160       8.63137       0.11045       8.50000       0.01331      61.91336       3.76777       3.77104       3.80376       3.81194       2.67722       2.58386      27.43204       3.79755      20.97444 
   3433.72400       8.65081       0.10488       8.50000       0.00874      61.61394       3.80341       3.79734       3.83462       3.80368       2.56178       2.57915      28.42872       3.82849      20.81312 
   3433.87640       8.67316       0.10377       8.50000       0.00802      61.24842       3.81012       3.79023       3.88471       3.86440       2.48588       2.58634      28.57613       3.83180      19.98791 
   3434.02880       8.68856       0.09838       8.50000       0.01247      61.34840       3.79879       3.76549       3.80914       3.79251       2.54788       2.59184      27.70929       3.81666      19.73528 
   3434.18120       8.68302       0.09546       8.50000       0.01262      61.37111       3.78378       3.74492       3.75817       3.74897       2.57419       2.59000      25.75610       3.79164      20.32090 
   3434.33360       8.66272       0.09177       8.50000       0.00889      60.51658       3.75661       3.71732       3.75081       3.74955       2.58623       2.57965      22.92730       3.76407      20.75890 
   3434.48600       8.62273       0.09887       8.50000       0.00828      59.93657       3.74029       3.69052       3.72674       3.73488       2.55970       2.56888      21.68499       3.73914      20.91877 
   3434.63840       8.61310       0.09927       8.50000       0.00687      58.31136       3.69702       3.68863       3.66033       3.59192       2.52994       2.56620      18.21356       3.71918      20.66761 
   3434.79080       8.61430       0.09593       8.50000       0.00640      55.58356       3.66256       3.69158       3.68836       3.64988       2.51847       2.56653      17.19770       3.70080      20.03139 
   3434.94320       8.62788       0.10006       8.50000      -0.00255      53.09585       3.62375       3.66218       3.71464       3.77639       2.49524       2.55187      16.08948       3.67740      19.93078 
   3435.09560       8.66343       0.11171       8.50000       0.00686      51.73074       3.48679       3.54806       3.63544       3.66450       2.77224       2.53702      13.92501       3.64634      19.06530 
   3435.24800       8.69141       0.11505       8.50000       0.02193      48.85368       3.43209       3.52755       3.64337       3.69703       3.10359       2.51748      12.13797       3.61551      19.20171 
   3435.40040       8.70654       0.12146       8.50000       0.04109      46.29900       3.36563       3.40593       3.43558       3.34314       3.46648       2.51195      11.36194       3.60256      19.17797 
   3435.55280       8.68820       0.10702       8.50000       0.04952      45.36816       3.43377       3.40245       3.32775       3.26664       3.56227       2.52434      11.17357       3.62112      18.89323 
   3435.70520       8.64527       0.10015       8.50000       0.04652      44.59800       3.58476       3.61618       3.69912       3.71854       3.86393       2.56124      11.15139       3.67012      19.04758 
   3435.85760       8.65309       0.09710       8.50000       0.04486      44.01295       3.61121       3.64877       3.78515       3.79619       3.76309       2.60335      11.06182       3.73631      19.22325 
   3436.01000       8.61473       0.09145       8.50000       0.03692      45.57469       3.67521       3.63300       3.77212       3.79950       3.51406       2.61995      10.97274       3.80430      19.67685 
   3436.16240       8.59357       0.08249       8.50000       0.02626      50.36836       3.82742       3.80199       3.90742       3.89036       2.98442       2.61176       9.54153       3.86245      19.47016 
   3436.31480       8.53921       0.08937       8.50000       0.01315      54.50615       4.02074       3.96647       3.92333       3.94444       2.70097       2.59800       8.58606       3.90256      21.40469 
   3436.46720       8.52253       0.09932       8.50000       0.00649      58.91339       3.87365       3.86304       3.98483       3.97363       2.58409       2.59113       8.58606       3.91855      21.33221 
