~Version Information
VERS  .          2.0                              :CWLS Log Ascii Standard - Version 2.0
WRAP  .          NO                               :One line per depth step
~Well Information Block
#MNEM.UNIT       Data Type                        Information
#---------       ---------                        -------------------------------
STRT  .M         2741.37100                       :START DEPTH
STOP  .M         2992.67900                       :STOP DEPTH
STEP  .M          0.15240                         :INCREMENT
NULL  .          -999.25                          :NULL DATA VALUE
COMP  .          StatoilHydro                                                                                                                      :COMPANY
WELL  .          15/9-F-4                         :WELL
FLD   .          Volve                            :FIELD
LOC   .                                           :LOCATION
PROV  .                                           :PROVINCE
STAT  .                                           :STATE
CNTY  .                                           :COUNTY
CTRY  .                                           :COUNTRY
DATE  .                                           :DATE
UWI   .          15/9-F-4                         :UNIQUE WELL UWI
LIC   .                                           :LICENSE NUMBER
API   .                                                                                                                                            :API NUMBER
SRVC  .                                           :SERVICE COMPANY
~Parameter Information Block
#MNEM.UNIT       Value                            Description
#---------       ---------                        -------------
~Curve Information Block
#MNEM.UNIT       API Code            Curve    Description
#--------        --------------      -----    -------------------
DEPT  .M                             :0       Index
BCAV  .IN                            :1       Best Caliper, Average Diameter
BPHI  .V/V                           :2       Best Thermal Neutron Porosity, Average
BS_ARC.IN                            :3       Bit Size                      
DRHB  .G/C3                          :4       Bulk Density Correction, Bottom
GRMA  .GAPI                          :5       Gamma Ray, Average            
P16H  .OHMM                          :6       ARC Phase Shift Resistivity 16 inch Spacing at 2 MHz, Environmentally Corrected_
P22H  .OHMM                          :7       ARC Phase Shift Resistivity 22 inch Spacing at 2 MHz, Environmentally Corrected_
P34H  .OHMM                          :8       ARC Phase Shift Resistivity 34 inch Spacing at 2 MHz, Environmentally Corrected_
P40H  .OHMM                          :9       ARC Phase Shift Resistivity 40 inch Spacing at 2 MHz, Environmentally Corrected_
PEB   .                              :10      Photoelectric Factor, Bottom  
ROBB  .G/C3                          :11      Bulk Density, Bottom          
ROP5_RM.M/HR                          :12      Rate of penetration averaged over last 5 ft(1_5 m), Recorded Mode
SIFA  .CU                            :13      Sigma Formation, Average      
~Ascii Data Section
   2741.37100      15.25000       0.47889       8.50000      -1.53178      13.66484      29.38704       9.34461    5000.00000       0.32011     167.61160       1.68571    -304.57141      21.27599 
   2741.52340      15.25000       0.47889       8.50000      -1.53178      13.66484      29.38704       9.34461    5000.00000       0.32011     167.61160       1.68571    -304.57141      21.27599 
   2741.67580      15.25000       0.48297       8.50000      -1.53178      13.66484      29.38704       9.34461    5000.00000       0.32011     167.61160       1.68571    -304.57141      20.81708 
   2741.82820      15.25000    -999.25000       8.50000      -1.53178      13.66484      29.38704       9.34461    5000.00000       0.32011     167.61160       1.68571    -304.57141    -999.25000 
   2741.98060      15.25000       0.47030       8.50000      -1.53178      13.66484      29.38704       9.34461    5000.00000       0.32011     167.61160       1.68571    -304.57141      21.88830 
   2742.13300      15.25000       0.44538       8.50000      -1.53178      13.66484      29.38704       9.34461    5000.00000       0.32011     167.61160       1.68571    -304.57141      21.22479 
   2742.28540      15.25000       0.42116       8.50000      -1.53178      13.66484      34.06121      12.09617    5000.00000       0.31525     167.61160       1.68571    -304.57141      19.84586 
   2742.43780      15.25000       0.42018       8.50000      -1.53178      13.66484     138.60312      46.38666      13.07487       0.22251     167.61160       1.68571    -304.57141      20.30105 
   2742.59020      15.25000       0.42543       8.50000      -1.53178      13.66484    5000.00000    5000.00000       0.15520       0.10000     167.61160       1.68571    -304.57141      19.67321 
   2742.74260      15.25000       0.46063       8.50000      -1.53178      13.66484      74.96505    1819.62048    5000.00000       0.37724     167.61160       1.68571    -304.57141      20.06184 
   2742.89500      15.25000       0.45221       8.50000      -1.53178      13.66484       2.02632       5.97794    5000.00000    5000.00000     167.61160       1.68571    -304.57141      20.79069 
   2743.04740      15.25000       0.45048       8.50000      -1.53178      13.66484       1.69568       3.71863    5000.00000    5000.00000     167.61160       1.68571    -304.57141      20.40370 
   2743.19980      15.25000       0.43081       8.50000      -1.53178      13.66484    5000.00000    5000.00000       3.44946       0.19080     167.61160       1.68571    -304.57141      19.66259 
   2743.35220      15.25000       0.44069       8.50000      -1.53178      13.66484       4.68728      13.29690    5000.00000    5000.00000     167.61160       1.68571    -304.57141      19.58035 
   2743.50460      15.25000       0.44572       8.50000      -1.53178      13.66484      14.35508      85.00002    5000.00000       0.47071     167.61160       1.68571    -304.57141      20.23679 
   2743.65700      15.25000       0.46362       8.50000      -1.53178      13.66484      17.50155      34.82323    5000.00000       0.94684     167.61160       1.68571    -304.57141      19.27794 
   2743.80940      15.20120       0.39749       8.50000      -1.30428      13.66484    5000.00000    5000.00000       2.87693       0.24491      64.30799       1.94004    -304.57141      19.22443 
   2743.96180      15.20739       0.37517       8.50000      -1.07806      13.66484    5000.00000    5000.00000       2.28861       0.25480      50.82907       2.06599    -304.57141      19.85671 
   2744.11420      14.30262       0.35829       8.50000      -0.87518      13.66484    5000.00000    5000.00000      14.94027       0.49463      47.06157       2.21802    -304.57141      19.78967 
   2744.26660      14.27541       0.34310       8.50000      -0.84902      13.66484     125.27534    5000.00000      14.21689       0.22377      49.35748       2.21288    -304.57141      19.49858 
   2744.41900      13.81420       0.34943       8.50000      -0.81087      13.66484    5000.00000    5000.00000       0.18744       0.10000      48.12415       2.23610    -304.57141      18.77010 
   2744.57140      14.24800       0.37422       8.50000      -0.85804      13.66484    5000.00000    5000.00000       6.58924       0.32516      48.69121       2.17670    -304.57141      18.56736 
   2744.72380      14.29660       0.37437       8.50000      -0.84136      13.66484    5000.00000    5000.00000       2.27392       0.19817      48.11161       2.18065    -304.57141      19.37832 
   2744.87620      14.85728       0.36444       8.50000      -0.87026      14.33171    5000.00000    5000.00000       0.10000       0.10000      48.32027       2.14829    -304.57141      18.48673 
   2745.02860      14.87687       0.36514       8.50000      -0.86335      15.15772       9.03998      32.06822    5000.00000       2.74221      49.00349       2.17981    -304.57141      19.06351 
   2745.18100      14.77838       0.35138       8.50000      -0.88514      15.64320    5000.00000    5000.00000       6.75239       0.51356      53.85173       2.19605    -304.57141      19.68963 
   2745.33340      14.57416       0.36197       8.50000      -0.91396      15.36140    5000.00000    5000.00000    1214.22266       0.73527      57.47206       2.20279    -304.57141      18.82542 
   2745.48580      14.43969       0.34984       8.50000      -0.93160      14.15702     121.42407    5000.00000     180.70216       0.35468      57.75801       2.21898    -304.57141      17.81194 
   2745.63820      15.14631       0.36145       8.50000      -1.03075      12.74582     328.97385     792.73077    5000.00000       9.11635      55.76014       2.15481    -304.57141      17.40696 
   2745.79060      15.22089       0.35397       8.50000      -1.06369      12.06015    5000.00000    5000.00000       0.10000       0.10000      57.60254       2.15555    -304.57141      17.57456 
   2745.94300      15.25000       0.36286       8.50000      -1.08603      11.48552      13.24290       8.47234    5000.00000       0.67599      55.87307       2.12409    -304.57141      17.48037 
   2746.09540      14.96344       0.35798       8.50000      -1.01558      11.70096      20.42189      11.40949    5000.00000       0.26512      53.92577       2.19183    -304.57141      17.98586 
   2746.24780      15.12586       0.36141       8.50000      -1.02525      12.77634       9.67015       6.85331    5000.00000       6.09343      55.19787       2.16566    -304.57141      18.44964 
   2746.40020      14.96688       0.35815       8.50000      -1.01744      13.22790      32.26564      17.53995    5000.00000       0.26042      55.23249       2.19108    -304.57141      18.55728 
   2746.55260      14.64259       0.35269       8.50000      -1.01967      13.47800       9.50576       9.48800    5000.00000       0.28990      55.60711       2.20756    -304.57141      18.83928 
   2746.70500      14.53734       0.35112       8.50000      -1.02542      12.74847       6.56205       8.16193    5000.00000       0.57262      53.95860       2.19818    -304.57141      19.03789 
   2746.85740      14.45792       0.34790       8.50000      -1.01872      12.00131      33.87393      63.49793      26.15186       0.39038      52.53244       2.20692    -304.57141      19.44463 
   2747.00980      14.80640       0.35607       8.50000      -1.02089      11.34021      11.57997      14.11487    5000.00000    5000.00000      52.52362       2.16756    -304.57141      19.81026 
   2747.16220      14.20394       0.33874       8.50000      -0.95121      10.86500      15.09329      22.95538    5000.00000    5000.00000      49.43972       2.22494    -304.57141      18.98109 
   2747.31460      14.09676       0.35526       8.50000      -0.95056       9.91920    5000.00000    5000.00000    5000.00000    5000.00000      49.77040       2.20837    -304.57141      18.92387 
   2747.46700      14.82509       0.37165       8.50000      -1.00077      10.56889      28.19308      33.63951    5000.00000       3.99106      50.82812       2.15743    -304.57141      18.65580 
