~Version Information
VERS  .          2.0                              :CWLS Log Ascii Standard - Version 2.0
WRAP  .          NO                               :One line per depth step
~Well Information Block
#MNEM.UNIT       Data Type                        Information
#---------       ---------                        -------------------------------
STRT  .M         2741.37100                       :START DEPTH
STOP  .M         2992.67900                       :STOP DEPTH
STEP  .M          0.15240                         :INCREMENT
NULL  .          -999.25                          :NULL DATA VALUE
COMP  .          StatoilHydro                                                                                                                      :COMPANY
WELL  .          15/9-F-4                         :WELL
FLD   .          Volve                            :FIELD
LOC   .                                           :LOCATION
PROV  .                                           :PROVINCE
STAT  .                                           :STATE
CNTY  .                                           :COUNTY
CTRY  .                                           :COUNTRY
DATE  .                                           :DATE
UWI   .          15/9-F-4                         :UNIQUE WELL UWI
LIC   .                                           :LICENSE NUMBER
API   .                                                                                                                                            :API NUMBER
SRVC  .                                           :SERVICE COMPANY
~Parameter Information Block
#MNEM.UNIT       Value                            Description
#---------       ---------                        -------------
~Curve Information Block
#MNEM.UNIT       API Code            Curve    Description
#--------        --------------      -----    -------------------
DEPT  .M                             :0       Index
BCAV  .IN                            :1       Best Caliper, Average Diameter
BPHI  .V/V                           :2       Best Thermal Neutron Porosity, Average
BS_ARC.IN                            :3       Bit Size                      
DRHB  .G/C3                          :4       Bulk Density Correction, Bottom
GRMA  .GAPI                          :5       Gamma Ray, Average            
P16H  .OHMM                          :6       ARC Phase Shift Resistivity 16 inch Spacing at 2 MHz, Environmentally Corrected_
P22H  .OHMM                          :7       ARC Phase Shift Resistivity 22 inch Spacing at 2 MHz, Environmentally Corrected_
P34H  .OHMM                          :8       ARC Phase Shift Resistivity 34 inch Spacing at 2 MHz, Environmentally Corrected_
P40H  .OHMM                          :9       ARC Phase Shift Resistivity 40 inch Spacing at 2 MHz, Environmentally Corrected_
PEB   .                              :10      Photoelectric Factor, Bottom  
ROBB  .G/C3                          :11      Bulk Density, Bottom          
ROP5_RM.M/HR                          :12      Rate of penetration averaged over last 5 ft(1_5 m), Recorded Mode
SIFA  .CU                            :13      Sigma Formation, Average      
~Ascii Data Section
# ...
   2985.05860       8.53108       0.09839       8.50000       0.01602      12.64262       4.16368       4.13471       4.17091       4.08607       4.19937       2.54051      18.66083      13.40769 
   2985.21100       8.53108       0.09839       8.50000       0.01602      12.64262       4.16368       4.13471       4.17091       4.08607       4.19937       2.54051      18.85339      13.40769 
   2985.36340       8.53108       0.09839       8.50000       0.01602      12.64262       4.16368       4.13471       4.17091       4.08607       4.19937       2.54051      19.04997      13.40769 
   2985.51580       8.53108       0.09839       8.50000       0.01602      12.64262       4.16368       4.13471       4.17091       4.08607       4.19937       2.54051      19.31854      13.40769 
   2985.66820       8.53108       0.09839       8.50000       0.01602      12.64262       4.16368       4.13471       4.17091       4.08607       4.19937       2.54051      19.08365      13.40769 
   2985.82060       8.53108       0.09839       8.50000       0.01602      12.64262       4.16368       4.13471       4.17091       4.08607       4.19937       2.54051      19.01698      13.40769 
   2985.97300       8.53108       0.09839       8.50000       0.01602      12.64262       4.16368       4.13471       4.17091       4.08607       4.19937       2.54051      19.18426      13.40769 
   2986.12540       8.53108       0.09839       8.50000       0.01602      12.64262       4.16368       4.13471       4.17091       4.08607       4.19937       2.54051      19.31855      13.40769 
   2986.27780       8.53108       0.09839       8.50000       0.01602      12.64262       4.16368       4.13471       4.17091       4.08607       4.19937       2.54051      19.55947      13.40769 
   2986.43020       8.53108       0.09839       8.50000       0.01602      12.64262       4.16368       4.13471       4.17091       4.08607       4.19937       2.54051      19.59394      13.40769 
   2986.58260       8.53108       0.09839       8.50000       0.01602      12.64262       4.16368       4.13471       4.17091       4.08607       4.19937       2.54051      19.52500      13.40769 
   2986.73500       8.53108       0.09839       8.50000       0.01602      12.64262       4.16368       4.13471       4.17091       4.08607       4.19937       2.54051      19.62995      13.40769 
   2986.88740       8.53108       0.09839       8.50000       0.01602      12.64262       4.16368       4.13471       4.17091       4.08607       4.19937       2.54051      19.59462      13.40769 
   2987.03980       8.53108       0.09839       8.50000       0.01602      12.64262       4.16368       4.13471       4.17091       4.08607       4.19937       2.54051      19.52415      13.40769 
   2987.19220       8.53108       0.09839       8.50000       0.01602      12.64262       4.16368       4.13471       4.17091       4.08607       4.19937       2.54051      19.52415      13.40769 
   2987.34460       8.53108       0.09839       8.50000       0.01602      12.64262       4.16368       4.13471       4.17091       4.08607       4.19937       2.54051      19.70008      13.40769 
   2987.49700       8.53108       0.09839       8.50000       0.01602      12.64262       4.16368       4.13471       4.17091       4.08607       4.19937       2.54051      19.73591      13.40769 
   2987.64940       8.53108       0.09839       8.50000       0.01602      12.64262       4.16368       4.13471       4.17091       4.08607       4.19937       2.54051      19.80636      13.40769 
   2987.80180       8.53108       0.09839       8.50000       0.01602      12.64262       4.16368       4.13471       4.17091       4.08607       4.19937       2.54051      20.09712      13.40769 
   2987.95420       8.53108       0.09839       8.50000       0.01602      12.64262       4.16368       4.13471       4.17091       4.08607       4.19937       2.54051      20.17081      13.40769 
   2988.10660       8.53108       0.09839       8.50000       0.01602      12.64262       4.16368       4.13471       4.17091       4.08607       4.19937       2.54051      20.31944      13.40769 
   2988.25900       8.53108       0.09839       8.50000       0.01602      12.64262       4.16368       4.13471       4.17091       4.08607       4.19937       2.54051      20.16990      13.40769 
   2988.41140       8.53108       0.09839       8.50000       0.01602      12.64262       4.16368       4.13471       4.17091       4.08607       4.19937       2.54051      20.06014      13.40769 
   2988.56380       8.53108       0.09839       8.50000       0.01602      12.64262       4.16368       4.13471       4.17091       4.08607       4.19937       2.54051      20.09712      13.40769 
   2988.71620       8.53108       0.09839       8.50000       0.01602      12.64262       4.16368       4.13471       4.17091       4.08607       4.19937       2.54051      20.17080      13.40769 
   2988.86860       8.53108       0.09839       8.50000       0.01602      12.64262       4.16368       4.13471       4.17091       4.08607       4.19937       2.54051      20.17080      13.40769 
   2989.02100       8.53108       0.09839       8.50000       0.01602      12.64262       4.16368       4.13471       4.17091       4.08607       4.19937       2.54051      20.09592      13.40769 
   2989.17340       8.53108       0.09839       8.50000       0.01602      12.64262       4.16368       4.13471       4.17091       4.08607       4.19937       2.54051      18.94650      13.40769 
   2989.32580       8.53108       0.09839       8.50000       0.01602      12.64262       4.16368       4.13471       4.17091       4.08607       4.19937       2.54051      18.08555      13.40769 
   2989.47820       8.53108       0.09839       8.50000       0.01602      12.64262       4.16368       4.13471       4.17091       4.08607       4.19937       2.54051      17.69818      13.40769 
   2989.63060       8.53108       0.09839       8.50000       0.01602      12.64262       4.16368       4.13471       4.17091       4.08607       4.19937       2.54051      16.38482      13.40769 
   2989.78300       8.53108       0.09839       8.50000       0.01602      12.64262       4.16368       4.13471       4.17091       4.08607       4.19937       2.54051      15.90282      13.40769 
   2989.93540       8.53108       0.09839       8.50000       0.01602      12.64262       4.16368       4.13471       4.17091       4.08607       4.19937       2.54051      15.15741      13.40769 
   2990.08780       8.53108       0.09839       8.50000       0.01602      12.64262       4.16368       4.13471       4.17091       4.08607       4.19937       2.54051      14.99001      13.40769 
   2990.24020       8.53108       0.09839       8.50000       0.01602      12.64262       4.16368       4.13471       4.17091       4.08607       4.19937       2.54051      14.30407      13.40769 
   2990.39260       8.53108       0.09839       8.50000       0.01602      12.64262       4.16368       4.13471       4.17091       4.08607       4.19937       2.54051      13.82266      13.40769 
   2990.54500       8.53108       0.09839       8.50000       0.01602      12.64262       4.16368       4.13471       4.17091       4.08607       4.19937       2.54051      13.54692      13.40769 
   2990.69740       8.53108       0.09839       8.50000       0.01602      12.64262       4.16368       4.13471       4.17091       4.08607       4.19937       2.54051      13.78457      13.40769 
   2990.84980       8.53108       0.09839       8.50000       0.01602      12.64262       4.16368       4.13471       4.17091       4.08607       4.19937       2.54051      13.81941      13.40769 
   2991.00220       8.53108       0.09839       8.50000       0.01602      12.64262       4.16368       4.13471       4.17091       4.08607       4.19937       2.54051      13.85426      13.40769 
   2991.15460       8.53108       0.09839       8.50000       0.01602      12.64262       4.16368       4.13471       4.17091       4.08607       4.19937       2.54051      14.21308      13.40769 
