~Version Information
VERS  .          2.0                              :CWLS Log Ascii Standard - Version 2.0
WRAP  .          NO                               :One line per depth step
~Well Information Block
#MNEM.UNIT       Data Type                        Information
#---------       ---------                        -------------------------------
STRT  .M         2741.37100                       :START DEPTH
STOP  .M         2992.67900                       :STOP DEPTH
STEP  .M          0.15240                         :INCREMENT
NULL  .          -999.25                          :NULL DATA VALUE
COMP  .          StatoilHydro                                                                                                                      :COMPANY
WELL  .          15/9-F-4                         :WELL
FLD   .          Volve                            :FIELD
LOC   .                                           :LOCATION
PROV  .                                           :PROVINCE
STAT  .                                           :STATE
CNTY  .                                           :COUNTY
CTRY  .                                           :COUNTRY
DATE  .                                           :DATE
UWI   .          15/9-F-4                         :UNIQUE WELL UWI
LIC   .                                           :LICENSE NUMBER
API   .                                                                                                                                            :API NUMBER
SRVC  .                                           :SERVICE COMPANY
~Parameter Information Block
#MNEM.UNIT       Value                            Description
#---------       ---------                        -------------
~Curve Information Block
#MNEM.UNIT       API Code            Curve    Description
#--------        --------------      -----    -------------------
DEPT  .M                             :0       Index
BCAV  .IN                            :1       Best Caliper, Average Diameter
BPHI  .V/V                           :2       Best Thermal Neutron Porosity, Average
BS_ARC.IN                            :3       Bit Size                      
DRHB  .G/C3                          :4       Bulk Density Correction, Bottom
GRMA  .GAPI                          :5       Gamma Ray, Average            
P16H  .OHMM                          :6       ARC Phase Shift Resistivity 16 inch Spacing at 2 MHz, Environmentally Corrected_
P22H  .OHMM                          :7       ARC Phase Shift Resistivity 22 inch Spacing at 2 MHz, Environmentally Corrected_
P34H  .OHMM                          :8       ARC Phase Shift Resistivity 34 inch Spacing at 2 MHz, Environmentally Corrected_
P40H  .OHMM                          :9       ARC Phase Shift Resistivity 40 inch Spacing at 2 MHz, Environmentally Corrected_
PEB   .                              :10      Photoelectric Factor, Bottom  
ROBB  .G/C3                          :11      Bulk Density, Bottom          
ROP5_RM.M/HR                          :12      Rate of penetration averaged over last 5 ft(1_5 m), Recorded Mode
SIFA  .CU                            :13      Sigma Formation, Average      
~Ascii Data Section
# ...
   2841.34540       8.52432       0.09233       8.50000       0.00100      13.37530       4.07909       4.04247       4.01670       3.94089       5.01045       2.57229      25.11200      12.97241 
   2841.49780       8.52300       0.08124       8.50000       0.00206      12.13427       4.29125       4.16691       4.04292       4.02590       5.04641       2.58133      24.60420      12.88637 
   2841.65020       8.53358       0.08370       8.50000       0.00186      12.02725       4.40887       4.29674       4.23794       4.28456       5.08334       2.58829      24.38399      12.29922 
   2841.80260       8.52066       0.09135       8.50000       0.00396      12.23414       4.05529       4.02873       4.00557       4.12453       5.02618       2.59518      23.54896      12.66930 
   2841.95500       8.51383       0.09753       8.50000       0.00344      13.71391       3.73152       3.82746       3.91647       4.04325       5.07041       2.58239      23.15106      13.47333 
   2842.10740       8.51763       0.10566       8.50000       0.00491      15.48981       3.08188       3.16831       3.22492       3.36719       5.06892       2.57313      22.80422      14.35998 
   2842.25980       8.52011       0.10611       8.50000       0.00310      16.25810       2.80742       2.91924       2.95933       2.92980       5.01946       2.56533      22.52238      14.14355 
   2842.41220       8.51862       0.11328       8.50000      -0.00024      16.02768       2.62323       2.64672       2.63257       2.59658       4.94293       2.56423      22.48578      14.08561 
   2842.56460       8.51355       0.11879       8.50000      -0.00448      15.53999       2.90366       2.83719       2.85951       2.85830       4.94750       2.55605      21.63231      13.96416 
   2842.71700       8.48915       0.10951       8.50000      -0.00605      15.17153       2.89870       2.85232       2.82660       2.79803       5.04365       2.54426      21.30639      13.51161 
   2842.86940       8.48913       0.12473       8.50000      -0.00256      14.32527       2.99514       2.97798       3.11912       3.14350       5.13221       2.53147      21.34831      14.27734 
   2843.02180       8.47966       0.12659       8.50000      -0.00001      13.70275       2.67870       2.69495       2.67691       2.63576       5.08708       2.52147      21.85808      14.10240 
   2843.17420       8.49476       0.12173       8.50000      -0.00079      13.51333       2.60408       2.55573       2.47125       2.45474       5.04843       2.51561      22.03382      14.52281 
   2843.32660       8.49504       0.12024       8.50000      -0.00267      14.47366       2.63262       2.62137       2.59097       2.62936       5.03901       2.51502      21.43600      14.37264 
   2843.47900       8.48341       0.13906       8.50000      -0.00017      15.00796       2.64475       2.66234       2.60767       2.62262       5.08441       2.51511      21.77127      14.91198 
   2843.63140       8.48741       0.13864       8.50000       0.00249      16.01123       2.38973       2.42261       2.39029       2.39437       5.12886       2.51865      22.39392      15.46445 
   2843.78380       8.50035       0.12887       8.50000       0.00676      16.69246       2.30876       2.32685       2.26863       2.27708       5.09857       2.52430      22.53229      15.14388 
   2843.93620       8.49842       0.14168       8.50000       0.00151      16.66964       2.33688       2.32316       2.25140       2.24513       5.16530       2.51707      22.50815      14.99269 
   2844.08860       8.49534       0.13913       8.50000      -0.00037      15.67121       2.45387       2.41882       2.38602       2.40331       5.14331       2.51253      22.54036      14.92860 
   2844.24100       8.49963       0.14256       8.50000      -0.00063      14.84202       2.46679       2.46856       2.45272       2.47822       5.13640       2.51075      23.05205      14.30637 
   2844.39340       8.53238       0.13830       8.50000       0.00200      14.01413       2.40496       2.41509       2.40262       2.41585       5.06933       2.52041      22.95770      15.44601 
   2844.54580       8.55449       0.13362       8.50000       0.00757      13.71306       2.37698       2.37287       2.32899       2.36873       5.07838       2.52682      22.76598      14.82569 
   2844.69820       8.54890       0.13167       8.50000       0.00370      14.27326       2.42884       2.42165       2.37174       2.39297       5.11066       2.52027      23.62247      14.72568 
   2844.85060       8.54649       0.13872       8.50000       0.00356      14.86072       2.55233       2.53611       2.47636       2.47119       5.15352       2.51874      24.38400      14.48331 
   2845.00300       8.52603       0.13357       8.50000      -0.00032      14.61983       2.57694       2.55118       2.49500       2.47819       5.13201       2.51658      23.95767      14.38468 
   2845.15540       8.53534       0.13366       8.50000       0.00142      13.98667       2.58931       2.54344       2.44548       2.43411       5.10395       2.52527      23.70906      13.96109 
   2845.30780       8.53375       0.12882       8.50000       0.00468      13.78413       2.63079       2.58147       2.52329       2.50037       5.07560       2.53122      23.75005      14.24795 
   2845.46020       8.51677       0.13997       8.50000       0.00100      13.26673       2.56516       2.53622       2.50691       2.55030       5.13072       2.52271      24.03443      14.06825 
   2845.61260       8.50766       0.14335       8.50000       0.00399      12.94674       2.36868       2.38388       2.33895       2.40967       5.18156       2.50374      24.49296      14.70140 
   2845.76500       8.50238       0.16075       8.50000       0.00610      12.36570       2.07657       2.08165       2.02067       1.99138       5.34943       2.47618      23.75130      15.54091 
   2845.91740       8.55404       0.15712       8.50000       0.01804      12.24054       1.91575       1.93212       1.89596       1.90411       5.39102       2.47213      23.24760      15.28251 
   2846.06980       8.55458       0.16595       8.50000       0.01414      11.24230       1.81143       1.83339       1.81122       1.82381       5.74547       2.47069      23.54599      15.10543 
   2846.22220       8.57208       0.15790       8.50000       0.00834      10.20801       1.82360       1.82618       1.80617       1.79669       5.57719       2.47856      23.64758      14.45187 
   2846.37460       8.55107       0.15497       8.50000       0.00217       9.77811       1.91601       1.92387       1.92133       1.90327       5.49794       2.47408      24.17147      14.14744 
   2846.52700       8.55511       0.15569       8.50000       0.00553      10.04071       2.07056       2.06261       1.97816       1.93481       5.21693       2.48207      24.47156      14.40873 
   2846.67940       8.55651       0.14383       8.50000       0.00381       9.63636       2.28661       2.25867       2.20769       2.18074       5.20608       2.49391      24.64728      13.91217 
   2846.83180       8.54360       0.13082       8.50000      -0.00050      10.24061       2.62822       2.54212       2.46128       2.48522       5.12311       2.51070      24.88259      13.72116 
   2846.98420       8.54380       0.13198       8.50000      -0.00459      11.24253       2.95649       2.88493       2.85172       2.98306       4.94907       2.53255      25.22547      13.52339 
   2847.13660       8.51880       0.12650       8.50000      -0.00724      11.41525       3.07037       3.06002       2.99310       3.03496       4.89917       2.54280      25.61445      13.87407 
   2847.28900       8.50592       0.12635       8.50000      -0.00338      11.97318       2.97357       3.08146       3.00226       2.98168       4.98510       2.54952      25.75769      14.32912 
   2847.44140       8.47998       0.12484       8.50000      -0.00144      12.28667       2.85823       2.94545       2.87776       2.89319       5.04908       2.52134      25.87930      14.41553 
