~Version Information
VERS.             2.0 : CWLS log ASCII standard - Version 2.0
WRAP.             NO  : One line per depth step
#
~Well Information Block
#MNEM.UNIT                   Data Type:Information
#__________________________________________________________
 STRT .M           2450.13480  :START INDEX                  
  STOP.M           3113.3796 : STOP INDEX                    
 STEP .M              0.00000  :STEP                         
  NULL.              -999.25 : NULL VALUE                    
  COMP.              Statoil : COMPANY                       
  WELL.            15_9_F-12 : WELL                          
   FLD.                Volve : FIELD                         
   LOC.           Maersk Inspirer : LOCATION                      
  PROV.                      : PROVINCE                      
  CNTY.                      : COUNTY                        
  STAT.                      : STATE                         
  CTRY.                      : COUNTRY                       
  SRVC.              SLB D&M : SERVICE COMPANY               
  DATE.                      : LOG DATE                      
   UWI.                      : UNIQUE WELL ID                
   API.                      : API NUMBER                    
#
~Curve Information Block
#MNEM.UNIT                     : Curve Description
#---------                     --------------------
DEPT        .M                 : Bit Depth 2hz                                                   
TVDE        .M                 : SVY TVD_EXTR 2hz                                                
ARC_GR_RT   .GAPI              : ARC Gamma Ray, Real-Time                                        
ROP5        .M/HR              : 5ft ROP 2hz                                                     
SWOB        .KKGF              : Surface Weight on Bit 2hz                                       
RPM         .RPM               : SRF SRPM 2hz                                                    
TFLO        .LPM               : HSPM Total Pump Flow 2hz                                        
TRPM_RT     .RPM               : MWD TUR_RPM 2hz                                                 
SPPA        .BAR               : SRF PUMPRS 2hz                                                  
TQA         .KMN               : SRF STOR 2hz                                                    
SHKRSK_RT   .----              : MWD SHKRSK 2hz                                                  
SHK2_RT     .----              : ARC Shock Level, Real-Time                                      
SHK_ADN_RT  .----              : ADN Shock Level, Real-Time                                      
PDSHKRSK    .----              : PowerDrive Shock Risk 2hz                                       
ECD_ARC     .G/C3              : Equivalent Circulating Density                                  
ATMP        .DEGC              : ARC Annular Temperature                                         
APRS_ARC    .BAR               : ARC Annular Pressure                                            
#
~Parameter Information Block
#MNEM.UNIT                       Value:Description
#__________________________________________________________
#
~Other Information Block

#
~A    DEPT       TVDE  ARC_GR_RT       ROP5       SWOB        RPM       TFLO    TRPM_RT       SPPA        TQA  SHKRSK_RT    SHK2_RT SHK_ADN_RT   PDSHKRSK    ECD_ARC       ATMP   APRS_ARC
# ...
 2980.9441  2787.1153    19.0399     3.1168    11.0394   134.9458  3501.7132  2578.1250   228.4225    28.9540     0.0000     0.0000     0.0000     1.0000     1.4074    86.0000   384.2450
 2981.0964  2787.2100    14.7039     3.1065    11.0784   132.6827  3485.2011  2578.1250   228.5094    29.2863     0.0000     0.0000     0.0000     1.0000     1.4089    86.0000   384.6587
 2981.2488  2787.2987    16.8020     3.0804    11.1842   128.7731  3488.8467  2578.1250   228.6039    29.3258     0.0000     0.0000     0.0000     1.0000     1.4086    86.0000   384.5897
 2981.4011  2787.3874    17.9035     3.0745    11.2842   132.0340  3501.3283  2578.1250   228.7677    29.1384     0.0000     0.0000     0.0000     1.0000     1.4096    86.0000   384.8655
 2981.5537  2787.4761    16.8020     3.0847    11.7306   134.6294  3484.4091  2578.1250   228.8300    29.9787     0.0000     0.0000     0.0000     1.0000     1.4095    86.0000   384.8655
 2981.7061  2787.5705    17.9035     3.0814    11.5901   134.0912  3493.5725  2578.1250   228.7142    28.0973     0.0000     0.0000     0.0000     1.0000     1.4102    86.0000   385.0723
 2981.8584  2787.6592    16.8020     3.0691    11.1661   135.9174  3495.4203  2578.1250   228.5975    30.9976     0.0000     0.0000     0.0000     2.0000     1.4119    86.0000   385.5550
 2982.0107  2787.7479    19.0399     3.0944    11.8508   135.4642  3489.1110  2578.1250   228.4533    28.9870     0.0000     0.0000     0.0000     2.0000     1.4122    86.0000   385.6239
 2982.1631  2787.8363    14.7039     3.1168    12.0097   137.1132  3490.0012  2578.1250   228.2737    31.9108     0.0000     0.0000    -999.25     1.0000     1.4141    86.0000   386.1755
 2982.3157  2787.9309    16.8020     3.1400    11.7373   136.2358  3500.9931  2578.1250   228.0337    28.7519     0.0000     0.0000     0.0000     1.0000     1.4131    86.0000   385.8997
 2982.4680  2788.0193    22.6591     3.1620    12.1748   134.8931  3481.8826  2578.1250   227.7343    27.1883     0.0000     0.0000    -999.25     1.0000     1.4135    86.0000   386.0376
 2982.6204  2788.1083    20.2114     3.1757    12.3555   136.0771  3491.8399  2578.1250   227.4837    31.3329     0.0000     0.0000     0.0000     1.0000     1.4153    86.0000   386.5202
 2982.7727  2788.1970    20.2114     3.1959    11.8869   135.4508  3500.3868  2578.1250   227.3698    31.1681     0.0000     0.0000    -999.25     1.0000     1.4147    86.0000   386.3823
 2982.9253  2788.2914    32.3277     3.1253    11.6140   135.8889  3488.1443  2578.1250   227.1473    27.7927     0.0000     0.0000     0.0000     1.0000     1.4154    86.0000   386.5892
 2983.0776  2788.3801    27.9742     3.0715    11.2088   137.3634  3495.5888  2617.1875   226.9119    26.9742     0.0000     0.0000     0.0000     1.0000     1.4166    87.0000   386.9339
 2983.2300  2788.4688    25.2467     2.9624    11.4244   138.2075  3493.0062  2558.5938   226.5444    28.4903     0.0000     0.0000     0.0000     1.0000     1.4166    87.0000   386.9339
 2983.3823  2788.5572    32.3277     2.8836    11.0084   137.1501  3484.3393  2539.0625   226.2368    27.3258     0.0000     0.0000     0.0000     1.0000     1.4188    87.0000   387.5545
 2983.5349  2788.6459    29.3904     2.9418    10.8100   136.3104  3502.5750  2539.0625   226.2120    29.0415     0.0000    -999.25     0.0000     1.0000     1.4180    87.0000   387.3476
 2983.6873  2788.7403    33.8488     2.8990    10.7540   133.8498  3495.2852  2578.1250   226.0865    28.8614     0.0000     0.0000     0.0000     1.0000     1.4175    87.0000   387.2097
 2983.8396  2788.8292    29.3904     2.7858     9.7973   134.5717  3487.8710  2578.1250   225.9000    29.3976     0.0000     0.0000    -999.25     1.0000     1.4174    87.0000   387.2097
 2983.9919  2788.9177    29.3904     2.7095    10.5918   134.9079  3497.1490  2578.1250   225.8939    29.2910     0.0000     0.0000     0.0000     1.0000     1.4179    87.0000   387.3476
 2984.1443  2789.0064    35.4049     2.6201    10.3828   135.6177  3484.9980  2578.1250   225.9819    27.3015     0.0000     0.0000     0.0000     0.0000     1.4168    87.0000   387.0718
 2984.2969  2789.1010    41.9788     2.5649    10.0479   133.3035  3497.7934  2578.1250   226.0047    26.3199     0.0000     0.0000     0.0000     1.0000     1.4155    87.0000   386.7271
 2984.4492  2789.1894    36.9959     2.6254    10.1198   134.5376  3489.0764  2578.1250   226.1503    29.3157     0.0000     0.0000    -999.25     1.0000     1.4150    87.0000   386.5892
 2984.6016  2789.2781    33.8488     2.6922    10.2400   134.8827  3488.5457  2578.1250   226.2842    28.4762     0.0000     0.0000     0.0000    -999.25     1.4147    87.0000   386.5202
 2984.7539  2789.3668    35.4049     2.8125    10.5760   129.5195  3496.7119  2578.1250   226.4098    28.4888     0.0000     0.0000     0.0000     1.0000     1.4144    87.0000   386.4513
 2984.9065  2789.4615    41.9788     2.9632     9.8706   130.5850  3504.9564  2578.1250   226.7224    27.9579     0.0000     0.0000     0.0000     1.0000     1.4148    88.0000   386.5892
 2985.0588  2789.5499    35.4049     2.9071     9.4370   134.6596  3481.5014    -999.25   226.8990    30.4553     0.0000     0.0000    -999.25     1.0000     1.4140    88.0000   386.3823
 2985.2112  2789.6386    40.2829     3.0497    10.0205   116.3756  3487.5189  2578.1250   227.2325    31.6286    -999.25    -999.25     0.0000     0.0000     1.4140    88.0000   386.3823
 2985.3635  2789.7273    47.2764     3.3299     9.9742   124.3773  3505.2852    -999.25   227.3898    31.7898     0.0000     0.0000     0.0000    -999.25     1.4140    88.0000   386.3823
 2985.5161  2789.8216    35.4049     3.6012     9.3230   129.0048  3487.6714  2578.1250   227.7791    33.5512     0.0000     0.0000    -999.25     0.0000     1.4142    88.0000   386.4513
 2985.6685  2789.9103    38.6219     3.7918     9.5082   133.4675  3492.9775  2578.1250   227.6263    29.5853     0.0000     0.0000     0.0000     1.0000     1.4139    88.0000   386.3823
 2985.8208  2789.9990    38.6219     3.8544     9.2753   134.1270  3498.2257  2578.1250   227.8441    27.0975     0.0000     0.0000    -999.25     1.0000     1.4146    88.0000   386.5892
 2985.9731  2790.0877    47.2764     3.8955     9.0041   134.5413  3488.3869  2578.1250   227.9859    29.5140     0.0000     0.0000     0.0000     2.0000     1.4143    88.0000   386.5202
 2986.1255  2790.1821    47.2764     3.9008     9.1331   130.5610  3487.8038  2578.1250   227.9357    28.8838     0.0000    -999.25     0.0000     1.0000     1.4135    88.0000   386.3134
 2986.2781  2790.2708    35.4049     3.8504     9.3085   135.1769  3501.0307  2578.1250   227.8990    27.2654     0.0000     0.0000    -999.25     1.0000     1.4129    88.0000   386.1755
 2986.4304  2790.3595    43.7097     3.7392     9.5264   135.2669  3488.0838  2578.1250   227.9415    27.4177     0.0000    -999.25     0.0000     1.0000     1.4134    88.0000   386.3134
 2986.5828  2790.4482    41.9788     3.6828     9.5518   133.7851  3491.3450  2578.1250   227.7842    27.6066     0.0000     0.0000     0.0000     1.0000     1.4136    88.0000   386.3823
 2986.7351  2790.5426    38.6219     3.4604     9.6470   137.3427  3498.3969  2617.1875   227.6889    28.1053     0.0000     0.0000     0.0000     1.0000     1.4143    88.0000   386.5892
 2986.8877  2790.6313    36.9959     3.2657     9.3380   132.4915  3482.5219  2617.1875   227.5779    29.3372     0.0000     0.0000    -999.25     1.0000     1.4138    88.0000   386.4513
 2987.0400  2790.7200    38.6219     3.1186     8.9496   135.7056  3499.1854  2617.1875   227.3115    28.1459     0.0000     0.0000     0.0000     2.0000     1.4142    88.0000   386.5892
 2987.1924  2790.8087    36.9959     3.0045     8.9941   137.3334  3491.3172  2578.1250   227.0603    29.0429     0.0000     0.0000     0.0000     2.0000     1.4144    88.0000   386.6581
 2987.3447  2790.8974    33.8488     2.9276     8.9422   138.1477  3493.2545  2617.1875   226.6645    27.1895     0.0000     0.0000    -999.25     1.0000     1.4149    88.0000   386.7960
