~Version Information
VERS.                      2.0: CWLS Log ASCII Standard - VERSION 2.0
WRAP.                       NO: One line per depth step
~Well Information Block
STRT.M               3779.4000: START DEPTH
STOP.M               3680.8000: STOP DEPTH
STEP.M                 -0.0500: STEP
NULL.                -999.2500: NULL VALUE
COMP.                  STATOIL: COMPANY
WELL.               15/9-F-1-C: WELL
FLD.                     VOLVE: FIELD
LOC.                          : LOCATION
SRVC.          Halliburton Logging Services: SERVICE COMPANY
DATE.          Thu Dec 04 05-18-20 2014: LOG DATE
UWI.                          : UNIQUE WELL ID
CTRY.                   NORWAY: COUNTRY
SECT.                         : SECTION
TOWN.                         : TOWNSHIP
RANG.                         : RANGE
API.                          : API#
OS.                   --NONE--: OTHER SERVICES
PDAT.FT                  M.S.L: PERMANENT DATUM
EEL.FT                   54.9M: ELEVATION
LMF.FT                   R.K.B: LOG MEASURED FROM
DMF.FT                   R.K.B: DRILLING MEASURED FROM
EKB.FT                   54.9M: KB
EDF.FT                   54.9M: DF
EGL.FT                    -91M: GL
DATE1.         03-DEC-14 @ 05:47: DATE1
RUN1.                    1 & 2: RUN NUMBER
TDD1.FT                  4094M: DEPTH DRILLER
TDL1.FT                  3782M: DEPTH LOGGER
BLI1.FT                  3772M: BOTTOM LOGGED INTERVAL
TLI1.FT                  3572M: TOP LOG INTERVAL
CDD1.IN_FT                    : CASING DRILLER
CDL1.FT                       : CASING LOGGER
BS1.IN                    8.5": BIT SIZE
DFT1.                SEA WATER: TYPE FLUID IN HOLE
DFDV1.GM/C3_CP          1.03SG: DENSITY/VISCOSITY
DFPL1.C3                      : PH/FLUID LOSS
MSS1.                         : SOURCE OF SAMPLE
RMT1.OHHM_DEGF                : RM@MEASURED TEMP
RMFT1.OHMM_DEGF                : RMF@MEASURED TEMP
RMCT1.OHMM_DEGF                : RMC@MEASURED TEMP
RMFS1.                        : SOURCE OF RMF/RMC
RMBT1.OHMM_DEGF                : RM@BHT
TCS1.                         : TIME CIRCULATION STOPPED
TLOB1.                36 HOURS: TIME LOGGER ON BOTTOM
BHT1.DEGF                 FULL: MAXIMUM RECORDED TEMPERATURE
LUN1.                 12030699: EQUIPMENT NUMBER
LUL1.                   NORWAY: LOCATION
ENGI1.              C.JAMIESON: RECORDED BY
WITN1.                A.ALBAWI: WITNESSED BY
~Curve Information Block
DEPT.M             0 000 00 00: Depth
LSPD.M/MIN                   0: Line Speed
LTEN.LB                      0: Surface Line Tension
MINMK.                       0: Minute Mark Ticks
HVOLTA.V                     0: Head Voltage Apparent
CCL.                         0: Casing Collar Locator
~Parameter Information Block
SRFTEMP.DEGC           10.0000: Surface Temperature
MudWgt.LB/GAL           8.5000: Mud Weight
CASETHCK.IN             0.4530: Casing Thickness
BITSIZE.IN              8.5000: Borehole I.D.
~Other Information
TOOL STRING DEPLOYED BY ALTUS INTERVENTION WIRELINE UNIT ON 7/16" CABLE
CABLE HEAD BUILT BY ALTUS
LOG CORRELATED TO SHLUMBERGER 4.5" HSD OX POWER JET PULS DATED 09.APRIL.2014
CORRELATION LOG IS SHALLOWER BY 1.4M, DEPTH SHIFTED 1.4M DOWN AS PER
CLIENTS REQUEST.
4.655" HSC GUN 10 AND 350 DEGREE PHASING, 39 GR MILLENIUM, 4 SHOTS PER FOOT.
ATTEMPT WAS MADE TO RUN 4 GUNS IN ONE STRING BUT AT 3600M PICK UP WEIGHT 
WAS TOO HIGH TO CONTINUE.  CLIENT D4ECIDED TO SPLIT UP ONTO TWO RUNS.
RUN #1 CCL TO TOP SHOT 3.25 M, CCL STOP DEPT: 3729.75 M
PERFORATION INTERVAL 3733M - 3742.6M
RUN #2 CCL TO TOP SHOT 3.25 M, CCL STOP DEPT: 3711.75 M
PERFORATION INTERVAL 3715M - 3724.6M

~A  Depth       LSPD        LTEN       MINMK       HVOLTA       CCL     
# ...
  3762.6000      9.3939   7099.9775      0.0000      3.4851      0.0217
  3762.5500      9.3939   7102.1211      0.0000      3.4950     -0.4224
  3762.5000      9.3939   7102.1211      0.0000      3.4950      0.3241
  3762.4500      9.4458   7093.6201      0.0000      3.4851      0.0391
  3762.4000      9.4458   7089.4419      0.0000      3.4950     -0.4025
  3762.3500      9.4458   7089.4419      0.0000      3.4950     -0.1013
  3762.3000      9.4458   7092.7925      0.0000      3.4851     -0.0037
  3762.2500      9.4458   7100.9922      0.0000      3.4851     -0.1068
  3762.2000      9.4458   7100.9922      0.0000      3.4851      0.0208
  3762.1500      9.4458   7117.4966      0.0000      3.4851     -0.1062
  3762.1000      9.4458   7132.8203      0.0000      3.4546      0.1599
  3762.0500      9.4458   7132.8203      0.0000      3.4546     -0.1199
  3762.0000      9.4092   7136.3066      0.0000      3.4851     -0.0177
  3761.9500      9.4092   7141.1040      0.0000      3.5057      0.1062
  3761.9000      9.4092   7141.1040      0.0000      3.5057      0.3946
  3761.8500      9.4092   7157.1831      0.0000      3.4950     -0.0510
  3761.8000      9.3756   7175.4551      0.0000      3.4950     -0.0333
  3761.7500      9.3756   7175.4551      0.0000      3.4950     -0.0339
  3761.7000      9.3756   7196.0806      0.0000      3.5156      0.0031
  3761.6500      9.3756   7222.1304      0.0000      3.4950      0.0085
  3761.6000      9.3756   7222.1304      0.0000      3.4950     -0.0195
  3761.5500      9.3756   7237.5273      0.0000      3.4950     -0.0168
  3761.5000      9.3756   7237.5273      0.0000      3.4950     -0.0012
  3761.4500      9.3756   7242.0142      0.0000      3.4950     -0.0113
  3761.4000      9.3756   7262.1704      0.0000      3.5156      0.0702
  3761.3500      9.4092   7262.1704      0.0000      3.5156     -0.1227
  3761.3000      9.4092   7295.5625      0.0000      3.5156     -0.3030
  3761.2500      9.4092   7313.2510      0.0000      3.4851     -0.0293
  3761.2000      9.4458   7313.2510      0.0000      3.4851      0.0214
  3761.1500      9.4458   7312.2656      0.0000      3.4447     -0.1443
  3761.1000      9.4458   7303.4678      0.0000      3.4950     -0.0293
  3761.0500      9.4458   7303.4678      0.0000      3.4950     -0.1733
  3761.0000      9.4458   7284.2690      0.0000      3.4645      0.5493
  3760.9500      9.4458   7260.2598      0.0000      3.5156     -1.4728
  3760.9000      9.3939   7260.2598      0.0000      3.5156     -0.0287
  3760.8500      9.3939   7247.5146      0.0000      3.4851     -0.0601
  3760.8000      9.3939   7248.1929      0.0000      3.4950      0.1917
  3760.7500      9.3939   7248.1929      0.0000      3.4950     -0.0143
  3760.7000      9.4458   7260.3135      0.0000      3.4851     -0.0015
  3760.6500      9.4458   7285.2598      0.0000      3.4546      0.0110
  3760.6000      9.4458   7285.2598      0.0000      3.4546     -0.0439
  3760.5500      9.3756   7309.6113      0.0000      3.3936     -0.0217
  3760.5000      9.3756   7315.4937      0.0000      3.4950     -0.0253
  3760.4500      9.3756   7315.4937      0.0000      3.4950     -0.1993
  3760.4000      9.3939   7298.1416      0.0000      3.4851      0.1028
  3760.3500      9.3939   7259.2920      0.0000      3.4950      0.5569
  3760.3000      9.3939   7259.2920      0.0000      3.4950     -0.5057
  3760.2500      9.4458   7214.4604      0.0000      3.4950     -0.0766
  3760.2000      9.4458   7192.0791      0.0000      3.5149     -0.1617
  3760.1500      9.4458   7192.0791      0.0000      3.5149     -0.2530
  3760.1000      9.3939   7196.4688      0.0000      3.4546      0.1553
  3760.0500      9.3939   7205.5073      0.0000      3.5255      0.1617
  3760.0000      9.3939   7205.5073      0.0000      3.5255     -0.1462
  3759.9500      9.4275   7212.4351      0.0000      3.4546      0.0491
  3759.9000      9.4275   7212.4351      0.0000      3.4546      0.0281
  3759.8500      9.4275   7220.4751      0.0000      3.4645     -0.3201
  3759.8000      9.4275   7220.8135      0.0000      3.4851     -0.1428
  3759.7500      9.4275   7220.8135      0.0000      3.4851      0.1770
  3759.7000      9.4275   7220.8335      0.0000      3.4546     -0.0778
  3759.6500      9.4275   7239.6245      0.0000      3.4950      0.2484
  3759.6000      9.4275   7239.6245      0.0000      3.4950     -0.2625
  3759.5500      9.4275   7265.6328      0.0000      3.4851      0.1593
  3759.5000      9.4275   7280.9302      0.0000      3.4851     -0.2194
  3759.4500      9.4092   7280.9302      0.0000      3.4851      0.0668
  3759.4000      9.4092   7296.9292      0.0000      3.4851     -0.0357
  3759.3500      9.4092   7317.3901      1.0000      3.4546     -0.9180
  3759.3000      9.3756   7317.3901      1.0000      3.4546      0.3632
  3759.2500      9.3756   7321.9019      0.0000      3.4950      0.3073
  3759.2000      9.3756   7313.3818      0.0000      3.4851      0.0287
  3759.1500      9.3756   7313.3818      0.0000      3.4851      0.0879
  3759.1000      9.3756   7313.9536      0.0000      3.4645     -0.6451
  3759.0500      9.3756   7318.3169      0.0000      3.4851      0.4178
  3759.0000      9.3756   7318.3169      0.0000      3.4851      0.7617
  3758.9500      9.3756   7315.4805      0.0000      3.5156     -0.1608
  3758.9000      9.3756   7315.6089      0.0000      3.4851      0.1331
  3758.8500      9.3939   7315.6089      0.0000      3.4851      0.0143
  3758.8000      9.3939   7320.5142      0.0000      3.4645      0.0287
  3758.7500      9.3939   7318.3066      0.0000      3.4546     -0.5719
  3758.7000      9.4275   7318.3066      0.0000      3.4546      0.2368
  3758.6500      9.4275   7304.5293      0.0000      3.5156      0.0275
  3758.6000      9.4275   7278.0845      0.0000      3.4851     -0.1965
  3758.5500      9.4275   7278.0845      0.0000      3.4851     -0.0067
  3758.5000      9.4275   7240.5591      0.0000      3.4645     -0.1398
  3758.4500      9.4275   7200.2144      0.0000      3.4851     -0.1779
  3758.4000      9.4275   7200.2144      0.0000      3.4851     -0.5060
  3758.3500      9.4275   7155.0581      0.0000      3.5156     -0.0146
  3758.3000      9.4275   7155.0581      0.0000      3.5156     -0.0351
  3758.2500      9.4275   7100.1226      0.0000      3.4950      0.2216
  3758.2000      9.4092   7050.1841      0.0000      3.4851      0.7901
  3758.1500      9.4092   7050.1841      0.0000      3.4851     -0.8594
  3758.1000      9.4092   7016.4600      0.0000      3.4851     -0.3296
  3758.0500      9.3939   6994.0991      0.0000      3.4546      0.0684
  3758.0000      9.3939   6994.0991      0.0000      3.4546     -0.0284
  3757.9500      9.3939   6993.9023      0.0000      3.5156     -0.0095
  3757.9000      9.3939   7030.3677      0.0000      3.4851     -0.0143
  3757.8500      9.3939   7030.3677      0.0000      3.4851     -0.0116
  3757.8000      9.3939   7083.9966      0.0000      3.4950     -0.0137
  3757.7500      9.4275   7128.5063      0.0000      3.4950     -0.0095
  3757.7000      9.4275   7128.5063      0.0000      3.4950     -0.0040
  3757.6500      9.4275   7165.9048      0.0000      3.4851     -0.0076
  3757.6000      9.4275   7200.3389      0.0000      3.4851     -0.0143
  3757.5500      9.3939   7200.3389      0.0000      3.4851     -0.0095
  3757.5000      9.3939   7226.8115      0.0000      3.4851      0.0021
  3757.4500      9.3939   7251.9678      0.0000      3.4851      0.0415
  3757.4000      9.4458   7251.9678      0.0000      3.4851     -0.1028
  3757.3500      9.4458   7273.9883      0.0000      3.4950     -0.1303
  3757.3000      9.4458   7274.2720      0.0000      3.5156      0.9225
  3757.2500      9.4458   7274.2720      0.0000      3.5156     -0.8148
  3757.2000      9.4458   7255.2163      0.0000      3.5156      0.0330
  3757.1500      9.4458   7233.4678      0.0000      3.4950     -2.1909
  3757.1000      9.4092   7233.4678      0.0000      3.4950     -0.0958
  3757.0500      9.4092   7208.3257      0.0000      3.4851     -0.6891
