~Version Information
VERS.                      2.0: CWLS Log ASCII Standard - VERSION 2.0
WRAP.                       NO: One line per depth step
~Well Information Block
STRT.M               3782.3500: START DEPTH
STOP.M               3681.1500: STOP DEPTH
STEP.M                 -0.0500: STEP
NULL.                -999.2500: NULL VALUE
COMP.                  STATOIL: COMPANY
WELL.               15/9-F-1-C: WELL
FLD.                     VOLVE: FIELD
LOC.                          : LOCATION
SRVC.          Halliburton Logging Services: SERVICE COMPANY
DATE.          Thu Dec 04 04-49-02 2014: LOG DATE
UWI.                          : UNIQUE WELL ID
CTRY.                   NORWAY: COUNTRY
SECT.                         : SECTION
TOWN.                         : TOWNSHIP
RANG.                         : RANGE
API.                          : API#
OS.                   --NONE--: OTHER SERVICES
PDAT.FT                  M.S.L: PERMANENT DATUM
EEL.FT                   54.9M: ELEVATION
LMF.FT                   R.K.B: LOG MEASURED FROM
DMF.FT                   R.K.B: DRILLING MEASURED FROM
EKB.FT                   54.9M: KB
EDF.FT                   54.9M: DF
EGL.FT                    -91M: GL
DATE1.         03-DEC-14 @ 05:47: DATE1
RUN1.                    1 & 2: RUN NUMBER
TDD1.FT                  4094M: DEPTH DRILLER
TDL1.FT                  3782M: DEPTH LOGGER
BLI1.FT                  3772M: BOTTOM LOGGED INTERVAL
TLI1.FT                  3572M: TOP LOG INTERVAL
CDD1.IN_FT                    : CASING DRILLER
CDL1.FT                       : CASING LOGGER
BS1.IN                    8.5": BIT SIZE
DFT1.                SEA WATER: TYPE FLUID IN HOLE
DFDV1.GM/C3_CP          1.03SG: DENSITY/VISCOSITY
DFPL1.C3                      : PH/FLUID LOSS
MSS1.                         : SOURCE OF SAMPLE
RMT1.OHHM_DEGF                : RM@MEASURED TEMP
RMFT1.OHMM_DEGF                : RMF@MEASURED TEMP
RMCT1.OHMM_DEGF                : RMC@MEASURED TEMP
RMFS1.                        : SOURCE OF RMF/RMC
RMBT1.OHMM_DEGF                : RM@BHT
TCS1.                         : TIME CIRCULATION STOPPED
TLOB1.                36 HOURS: TIME LOGGER ON BOTTOM
BHT1.DEGF                 FULL: MAXIMUM RECORDED TEMPERATURE
LUN1.                 12030699: EQUIPMENT NUMBER
LUL1.                   NORWAY: LOCATION
ENGI1.              C.JAMIESON: RECORDED BY
WITN1.                A.ALBAWI: WITNESSED BY
~Curve Information Block
DEPT.M             0 000 00 00: Depth
LSPD.M/MIN                   0: Line Speed
LTEN.LB                      0: Surface Line Tension
MINMK.                       0: Minute Mark Ticks
HVOLTA.V                     0: Head Voltage Apparent
CCL.                         0: Casing Collar Locator
~Parameter Information Block
SRFTEMP.DEGC           12.0000: Surface Temperature
MudWgt.LB/GAL           8.5600: Mud Weight
CASETHCK.IN             0.4530: Casing Thickness
BITSIZE.IN             12.2500: Borehole I.D.
~Other Information
TOOL STRING DEPLOYED BY ALTUS INTERVENTION WIRELINE UNIT ON 7/16" CABLE
CABLE HEAD BUILT BY ALTUS
LOG CORRELATED TO SHLUMBERGER 4.5" HSD OX POWER JET PULS DATED 09.APRIL.2014
CORRELATION LOG IS SHALLOWER BY 1.4M, DEPTH SHIFTED 1.4M DOWN AS PER
CLIENTS REQUEST.
4.655" HSC GUN 10 AND 350 DEGREE PHASING, 39 GR MILLENIUM, 4 SHOTS PER FOOT.
ATTEMPT WAS MADE TO RUN 4 GUNS IN ONE STRING BUT AT 3600M PICK UP WEIGHT 
WAS TOO HIGH TO CONTINUE.  CLIENT D4ECIDED TO SPLIT UP ONTO TWO RUNS.
RUN #1 CCL TO TOP SHOT 3.25 M, CCL STOP DEPT: 3729.75 M
PERFORATION INTERVAL 3733M - 3742.6M
RUN #2 CCL TO TOP SHOT 3.25 M, CCL STOP DEPT: 3711.75 M
PERFORATION INTERVAL 3715M - 3724.6M

~A  Depth       LSPD        LTEN       MINMK       HVOLTA       CCL     
# ...
  3748.7500      9.3574   6914.4385      0.0000      3.4851     -0.1428
  3748.7000      9.4092   6914.4385      0.0000      3.4851     -0.5615
  3748.6500      9.4092   6873.4927      0.0000      3.4546      0.1291
  3748.6000      9.4092   6827.6646      0.0000      3.4851      0.1379
  3748.5500      9.4458   6827.6646      0.0000      3.4851     -0.6210
  3748.5000      9.4458   6791.5767      0.0000      3.4851      0.4642
  3748.4500      9.4458   6784.8003      0.0000      3.4950      0.0793
  3748.4000      9.4092   6784.8003      0.0000      3.4950     -0.0943
  3748.3500      9.4092   6794.8301      0.0000      3.4950      0.0323
  3748.3000      9.4092   6801.7803      0.0000      3.5156     -0.0220
  3748.2500      9.4823   6801.7803      0.0000      3.5156     -0.0067
  3748.2000      9.4823   6816.5723      0.0000      3.4851     -0.0278
  3748.1500      9.4823   6844.8813      0.0000      3.4851     -0.0211
  3748.1000      9.3939   6844.8813      0.0000      3.4851     -0.0037
  3748.0500      9.3939   6867.0366      0.0000      3.5149     -0.0409
  3748.0000      9.3939   6879.0303      0.0000      3.4851     -0.0006
  3747.9500      9.3939   6879.0303      0.0000      3.4851      0.0391
  3747.9000      9.3939   6893.4165      0.0000      3.4447      0.0967
  3747.8500      9.3939   6908.9839      0.0000      3.4752      0.7013
  3747.8000      9.3939   6908.9839      0.0000      3.4752      0.1587
  3747.7500      9.3939   6920.4697      0.0000      3.4851      0.4044
  3747.7000      9.3939   6927.3989      0.0000      3.4546      0.0836
  3747.6500      9.3939   6927.3989      0.0000      3.4546     -0.0735
  3747.6000      9.3574   6928.0723      0.0000      3.4645     -0.0211
  3747.5500      9.3574   6935.2368      0.0000      3.5156     -0.0421
  3747.5000      9.3574   6935.2368      0.0000      3.5156     -0.0165
  3747.4500      9.3939   6964.3926      0.0000      3.4546     -0.0043
  3747.4000      9.3939   6999.6748      0.0000      3.4851     -0.0128
  3747.3500      9.3939   6999.6748      0.0000      3.4851     -0.0079
  3747.3000      9.3939   7022.2285      0.0000      3.4447     -0.0125
  3747.2500      9.3939   7022.2285      0.0000      3.4447     -0.0037
  3747.2000      9.3939   7044.4980      0.0000      3.4546     -0.0131
  3747.1500      9.3756   7071.9819      0.0000      3.4752     -0.0089
  3747.1000      9.3756   7071.9819      0.0000      3.4752     -0.0153
  3747.0500      9.3756   7083.8965      0.0000      3.4851     -0.0140
  3747.0000      9.3574   7073.3589      0.0000      3.4950      0.1276
  3746.9500      9.3574   7073.3589      0.0000      3.4950      0.2243
  3746.9000      9.3574   7044.5293      0.0000      3.5255     -0.2167
  3746.8500      9.3574   6983.1543      0.0000      3.4851     -0.5777
  3746.8000      9.3574   6983.1543      0.0000      3.4851      0.0699
  3746.7500      9.3574   6891.0605      0.0000      3.4546      0.0449
  3746.7000      9.3574   6799.9810      0.0000      3.4546     -1.8857
  3746.6500      9.3574   6799.9810      0.0000      3.4546      1.8536
  3746.6000      9.3574   6716.1650      0.0000      3.5866     -1.2640
  3746.5500      9.3574   6623.9731      0.0000      3.4142      0.5368
  3746.5000      9.3939   6623.9731      0.0000      3.4142      0.1251
  3746.4500      9.3939   6537.5288      0.0000      3.5149      0.0766
  3746.4000      9.3939   6485.4063      0.0000      3.5156      0.1971
  3746.3500      9.4458   6485.4063      0.0000      3.5156      0.2808
  3746.3000      9.4458   6474.2246      1.0000      3.5568     -0.0519
  3746.2500      9.4458   6497.5522      0.0000      3.5057     -0.1086
  3746.2000      9.5006   6497.5522      0.0000      3.5057     -0.0143
  3746.1500      9.5006   6542.6768      0.0000      3.4744     -0.0159
  3746.1000      9.5006   6589.0771      0.0000      3.4546     -0.0067
  3746.0500      9.4640   6589.0771      0.0000      3.4546     -0.0150
  3746.0000      9.4640   6632.9946      0.0000      3.4851     -0.0568
  3745.9500      9.4640   6685.5625      0.0000      3.4752     -0.0159
  3745.9000      9.4458   6685.5625      0.0000      3.4752     -0.0070
  3745.8500      9.4458   6740.6772      0.0000      3.4950     -0.0095
  3745.8000      9.4458   6787.3149      0.0000      3.5156     -0.0092
  3745.7500      9.4092   6787.3149      0.0000      3.5156     -0.0146
  3745.7000      9.4092   6827.3994      0.0000      3.4950     -0.0098
  3745.6500      9.4092   6827.3994      0.0000      3.4950     -0.0128
  3745.6000      9.3574   6857.5103      0.0000      3.5255     -0.0101
  3745.5500      9.3574   6874.3560      0.0000      3.5255     -0.0256
  3745.5000      9.3574   6874.3560      0.0000      3.5255     -0.0397
  3745.4500      9.3574   6887.5151      0.0000      3.5461     -0.0781
  3745.4000      9.3574   6893.8193      0.0000      3.4851      0.0189
  3745.3500      9.3574   6893.8193      0.0000      3.4851     -0.0287
  3745.3000      9.3574   6878.4570      0.0000      3.4546     -0.1944
  3745.2500      9.3574   6852.8711      0.0000      3.4752      0.0079
  3745.2000      9.3574   6852.8711      0.0000      3.4752      2.6077
  3745.1500      9.3574   6836.3950      0.0000      3.4851     -1.0855
  3745.1000      9.3756   6819.4575      0.0000      3.4851     -0.1239
  3745.0500      9.3756   6819.4575      0.0000      3.4851     -0.0308
  3745.0000      9.3756   6794.7188      0.0000      3.5248      0.2240
  3744.9500      9.4275   6771.5825      0.0000      3.5057      0.0983
  3744.9000      9.4275   6771.5825      0.0000      3.5057      0.2396
  3744.8500      9.4275   6741.8193      0.0000      3.4142      0.0546
  3744.8000      9.4640   6697.5103      0.0000      3.4950     -0.5383
  3744.7500      9.4640   6697.5103      0.0000      3.4950     -0.0937
  3744.7000      9.4640   6659.6362      0.0000      3.5553     -0.0131
  3744.6500      9.4458   6640.2793      0.0000      3.4546      0.1343
  3744.6000      9.4458   6640.2793      0.0000      3.4546     -0.1160
  3744.5500      9.4458   6628.0552      0.0000      3.4950     -0.0278
  3744.5000      9.4458   6627.0601      0.0000      3.4653      0.0500
  3744.4500      9.4458   6627.0601      0.0000      3.4653      0.0229
  3744.4000      9.4458   6646.6553      0.0000      3.5049      0.0620
  3744.3500      9.4092   6669.2988      0.0000      3.4851     -0.1221
  3744.3000      9.4092   6669.2988      0.0000      3.4851      0.0098
  3744.2500      9.4092   6679.5923      0.0000      3.4645     -0.0085
  3744.2000      9.3574   6683.1782      0.0000      3.5057     -0.0098
  3744.1500      9.3574   6683.1782      0.0000      3.5057     -0.0192
  3744.1000      9.3574   6681.2227      0.0000      3.5156      0.0284
  3744.0500      9.3574   6681.2227      0.0000      3.5156     -0.2646
  3744.0000      9.3939   6673.0742      0.0000      3.4950      0.1321
  3743.9500      9.3939   6667.5864      0.0000      3.4546     -0.0574
  3743.9000      9.3939   6667.5864      0.0000      3.4546      0.0473
  3743.8500      9.3574   6662.8628      0.0000      3.4851     -0.1752
  3743.8000      9.3574   6649.0176      0.0000      3.4851      0.3006
  3743.7500      9.3574   6649.0176      0.0000      3.4851      0.0305
  3743.7000      9.4092   6632.5264      0.0000      3.4950      0.1428
  3743.6500      9.4092   6624.3735      0.0000      3.3836      0.0128
  3743.6000      9.4092   6624.3735      0.0000      3.3836      0.0089
  3743.5500      9.4458   6628.2734      0.0000      3.5355     -0.0031
  3743.5000      9.4458   6650.1348      0.0000      3.5255      0.0803
  3743.4500      9.4458   6650.1348      0.0000      3.5255      0.0021
  3743.4000      9.4092   6685.4658      0.0000      3.4645     -0.0519
  3743.3500      9.4092   6719.3325      0.0000      3.4950     -0.0113
  3743.3000      9.4092   6719.3325      0.0000      3.4950     -0.0101
  3743.2500      9.4092   6754.4233      0.0000      3.4950     -0.0095
  3743.2000      9.4092   6801.2607      0.0000      3.4851     -0.0150
