~Version Information
VERS.                      2.0: CWLS Log ASCII Standard - VERSION 2.0
WRAP.                       NO: One line per depth step
~Well Information Block
STRT.M               3779.9000: START DEPTH
STOP.M               3659.5000: STOP DEPTH
STEP.M                 -0.0500: STEP
NULL.                -999.2500: NULL VALUE
COMP.                  STATOIL: COMPANY
WELL.               15/9-F-1-C: WELL
FLD.                     VOLVE: FIELD
LOC.                          : LOCATION
SRVC.          Halliburton Logging Services: SERVICE COMPANY
DATE.          Wed Dec 03 07-18-31 2014: LOG DATE
UWI.                          : UNIQUE WELL ID
CTRY.                   NORWAY: COUNTRY
SECT.                         : SECTION
TOWN.                         : TOWNSHIP
RANG.                         : RANGE
API.                          : API#
OS.                   --NONE--: OTHER SERVICES
PDAT.FT                  M.S.L: PERMANENT DATUM
EEL.FT                   54.9M: ELEVATION
LMF.FT                   R.K.B: LOG MEASURED FROM
DMF.FT                   R.K.B: DRILLING MEASURED FROM
EKB.FT                   54.9M: KB
EDF.FT                   54.9M: DF
EGL.FT                    -91M: GL
DATE1.         03-DEC-14 @ 05:47: DATE1
RUN1.                    1 & 2: RUN NUMBER
TDD1.FT                  4094M: DEPTH DRILLER
TDL1.FT                  3782M: DEPTH LOGGER
BLI1.FT                  3772M: BOTTOM LOGGED INTERVAL
TLI1.FT                  3572M: TOP LOG INTERVAL
CDD1.IN_FT                    : CASING DRILLER
CDL1.FT                       : CASING LOGGER
BS1.IN                    8.5": BIT SIZE
DFT1.                SEA WATER: TYPE FLUID IN HOLE
DFDV1.GM/C3_CP          1.03SG: DENSITY/VISCOSITY
DFPL1.C3                      : PH/FLUID LOSS
MSS1.                         : SOURCE OF SAMPLE
RMT1.OHHM_DEGF                : RM@MEASURED TEMP
RMFT1.OHMM_DEGF                : RMF@MEASURED TEMP
RMCT1.OHMM_DEGF                : RMC@MEASURED TEMP
RMFS1.                        : SOURCE OF RMF/RMC
RMBT1.OHMM_DEGF                : RM@BHT
TCS1.                         : TIME CIRCULATION STOPPED
TLOB1.                36 HOURS: TIME LOGGER ON BOTTOM
BHT1.DEGF                 FULL: MAXIMUM RECORDED TEMPERATURE
LUN1.                 12030699: EQUIPMENT NUMBER
LUL1.                   NORWAY: LOCATION
ENGI1.              C.JAMIESON: RECORDED BY
WITN1.                A.ALBAWI: WITNESSED BY
~Curve Information Block
DEPT.M             0 000 00 00: Depth
LSPD.M/MIN                   0: Line Speed
LTEN.LB                      0: Surface Line Tension
MINMK.                       0: Minute Mark Ticks
HVOLTA.V                     0: Head Voltage Apparent
CCL.                         0: Casing Collar Locator
~Parameter Information Block
SRFTEMP.DEGC           12.0000: Surface Temperature
MudWgt.LB/GAL           8.5600: Mud Weight
CASETHCK.IN             0.4530: Casing Thickness
BITSIZE.IN             12.2500: Borehole I.D.
~Other Information
TOOL STRING DEPLOYED BY ALTUS INTERVENTION WIRELINE UNIT ON 7/16" CABLE
CABLE HEAD BUILT BY ALTUS
LOG CORRELATED TO SHLUMBERGER 4.5" HSD OX POWER JET PULS DATED 09.APRIL.2014
CORRELATION LOG IS SHALLOWER BY 1.4M, DEPTH SHIFTED 1.4M DOWN AS PER
CLIENTS REQUEST.
4.655" HSC GUN 10 AND 350 DEGREE PHASING, 39 GR MILLENIUM, 4 SHOTS PER FOOT.
ATTEMPT WAS MADE TO RUN 4 GUNS IN ONE STRING BUT AT 3600M PICK UP WEIGHT 
WAS TOO HIGH TO CONTINUE.  CLIENT D4ECIDED TO SPLIT UP ONTO TWO RUNS.
RUN #1 CCL TO TOP SHOT 3.25 M, CCL STOP DEPT: 3729.75 M
PERFORATION INTERVAL 3733M - 3742.6M
RUN #2 CCL TO TOP SHOT 3.25 M, CCL STOP DEPT: 3711.75 M
PERFORATION INTERVAL 3715M - 3724.6M

~A  Depth       LSPD        LTEN       MINMK       HVOLTA       CCL     
# ...
  3763.1000      9.7506   6710.4497      0.0000      3.4859     -0.0354
  3763.0500      9.7506   6701.8867      0.0000      3.4554     -0.0116
  3763.0000      9.7323   6690.0078      0.0000      3.4653     -0.0046
  3762.9500      9.7323   6690.0078      0.0000      3.4653      0.0223
  3762.9000      9.7323   6662.8433      0.0000      3.5164      0.0006
  3762.8500      9.7506   6629.2490      0.0000      3.5263      0.0455
  3762.8000      9.7506   6629.2490      0.0000      3.5263     -0.0723
  3762.7500      9.7506   6602.7632      0.0000      3.4958      0.0180
  3762.7000      9.7506   6584.5845      0.0000      3.4958     -0.0217
  3762.6500      9.7506   6584.5845      0.0000      3.4958     -0.0253
  3762.6000      9.7506   6585.0347      0.0000      3.4859     -0.0046
  3762.5500      9.7506   6608.0342      0.0000      3.4554     -0.0003
  3762.5000      9.7506   6608.0342      0.0000      3.4554     -0.0177
  3762.4500      9.7506   6632.7759      0.0000      3.4554     -0.0146
  3762.4000      9.7506   6652.5483      0.0000      3.4454     -0.0043
  3762.3500      9.7506   6652.5483      0.0000      3.4454     -0.0165
  3762.3000      9.7506   6681.2563      0.0000      3.4760     -0.0146
  3762.2500      9.7506   6711.2681      0.0000      3.4859     -0.0021
  3762.2000      9.7506   6711.2681      0.0000      3.4859     -0.0110
  3762.1500      9.7506   6729.0859      0.0000      3.5263      0.0067
  3762.1000      9.7506   6747.3398      0.0000      3.4958     -0.0119
  3762.0500      9.7506   6747.3398      0.0000      3.4958     -0.0040
  3762.0000      9.7688   6766.8188      0.0000      3.4454      0.0064
  3761.9500      9.7688   6765.6128      0.0000      3.5263     -0.0226
  3761.9000      9.7688   6765.6128      0.0000      3.5263      0.1715
  3761.8500      9.7506   6744.7710      0.0000      3.4859     -0.2362
  3761.8000      9.7506   6717.1494      0.0000      3.4859     -0.0830
  3761.7500      9.7506   6717.1494      0.0000      3.4859      0.0125
  3761.7000      9.7506   6678.6982      0.0000      3.4859      0.1886
  3761.6500      9.7506   6636.7310      0.0000      3.4958     -0.1251
  3761.6000      9.7506   6636.7310      0.0000      3.4958     -0.3329
  3761.5500      9.7506   6611.0303      0.0000      3.4859      0.1254
  3761.5000      9.7506   6611.0303      0.0000      3.4859      0.3546
  3761.4500      9.7506   6595.3784      0.0000      3.4760      0.3540
  3761.4000      9.7688   6574.4736      0.0000      3.4554      0.1715
  3761.3500      9.7688   6574.4736      0.0000      3.4554     -0.0742
  3761.3000      9.7688   6555.1460      0.0000      3.4554     -0.0870
  3761.2500      9.7688   6542.6489      0.0000      3.5164      0.0864
  3761.2000      9.7506   6542.6489      0.0000      3.5164     -0.0491
  3761.1500      9.7506   6535.9824      0.0000      3.4760     -0.0427
  3761.1000      9.7506   6549.1182      0.0000      3.4554     -0.0076
  3761.0500      9.7841   6549.1182      0.0000      3.4554     -0.0305
  3761.0000      9.7841   6585.9404      0.0000      3.4859     -0.0061
  3760.9500      9.7841   6625.3550      0.0000      3.5469     -0.0027
  3760.9000      9.7688   6625.3550      0.0000      3.5469     -0.0046
  3760.8500      9.7688   6656.6211      0.0000      3.5263     -0.0092
  3760.8000      9.7688   6685.4414      0.0000      3.4653     -0.0021
  3760.7500      9.7688   6685.4414      0.0000      3.4653     -0.0061
  3760.7000      9.7688   6712.7417      0.0000      3.4554     -0.0098
  3760.6500      9.7688   6743.0234      0.0000      3.4859      0.0089
  3760.6000      9.7688   6743.0234      0.0000      3.4859     -0.0183
  3760.5500      9.7506   6779.0273      0.0000      3.4958     -0.0214
  3760.5000      9.7506   6801.8936      0.0000      3.5057     -0.0073
  3760.4500      9.7506   6801.8936      0.0000      3.5057     -0.0128
  3760.4000      9.7506   6800.1177      0.0000      3.5362     -0.0336
  3760.3500      9.7506   6784.0532      0.0000      3.4454      0.1334
  3760.3000      9.7506   6784.0532      0.0000      3.4454      0.2655
  3760.2500      9.7140   6748.6841      0.0000      3.4859      0.2866
  3760.2000      9.7140   6683.5718      0.0000      3.4958     -0.3674
  3760.1500      9.7140   6683.5718      0.0000      3.4958      0.0494
  3760.1000      9.7140   6610.0962      0.0000      3.4859     -0.4346
  3760.0500      9.7323   6548.7480      0.0000      3.4454     -0.0177
  3760.0000      9.7323   6548.7480      0.0000      3.4454      0.2579
  3759.9500      9.7323   6490.4668      0.0000      3.4554      0.6177
  3759.9000      9.7506   6490.4668      0.0000      3.4554     -0.0085
  3759.8500      9.7506   6440.3750      0.0000      3.4958     -0.0372
  3759.8000      9.7506   6426.5273      0.0000      3.5057      0.0134
  3759.7500      9.7506   6426.5273      0.0000      3.5057      0.0018
  3759.7000      9.7506   6450.8013      0.0000      3.4958      0.0031
  3759.6500      9.7506   6489.3970      0.0000      3.4554     -0.0040
  3759.6000      9.8207   6489.3970      0.0000      3.4554     -0.0604
  3759.5500      9.8207   6524.9937      0.0000      3.4653     -0.0186
  3759.5000      9.8207   6547.2305      0.0000      3.4859     -0.0116
  3759.4500      9.8207   6547.2305      0.0000      3.4859     -0.0092
  3759.4000      9.7841   6556.2783      0.0000      3.4859      0.0043
  3759.3500      9.7841   6564.4336      0.0000      3.4554     -0.0003
  3759.3000      9.7841   6564.4336      0.0000      3.4554     -0.0208
  3759.2500      9.7688   6572.4165      0.0000      3.4958     -0.0281
  3759.2000      9.7688   6575.5874      0.0000      3.4859      0.0446
  3759.1500      9.7688   6575.5874      0.0000      3.4859      0.0052
  3759.1000      9.7688   6588.0127      0.0000      3.4554      0.0485
  3759.0500      9.7688   6610.8545      0.0000      3.4958     -0.0201
  3759.0000      9.7688   6610.8545      0.0000      3.4958     -0.0317
  3758.9500      9.7323   6612.7139      0.0000      3.4958     -0.1959
  3758.9000      9.7323   6585.3271      0.0000      3.4859      0.3156
  3758.8500      9.7323   6585.3271      0.0000      3.4859     -0.0876
  3758.8000      9.7323   6554.4102      0.0000      3.4859      0.1157
  3758.7500      9.7323   6525.4209      0.0000      3.4958     -0.0223
  3758.7000      9.7323   6525.4209      0.0000      3.4958     -0.1059
  3758.6500      9.7323   6492.3071      0.0000      3.4859      0.2106
  3758.6000      9.7506   6472.7754      0.0000      3.4859     -0.0266
  3758.5500      9.7506   6472.7754      0.0000      3.4859     -0.0659
  3758.5000      9.7506   6480.9648      0.0000      3.4958     -0.0122
  3758.4500      9.7506   6507.0786      0.0000      3.4958     -0.0116
  3758.4000      9.7506   6507.0786      0.0000      3.4958      0.0095
  3758.3500      9.7506   6542.0806      0.0000      3.4859     -0.0110
  3758.3000      9.7841   6542.0806      0.0000      3.4859     -0.0290
  3758.2500      9.7841   6577.0884      0.0000      3.4859     -0.0146
  3758.2000      9.7841   6597.1479      0.0000      3.4958     -0.0031
  3758.1500      9.7841   6597.1479      0.0000      3.4958     -0.0247
  3758.1000      9.7841   6605.8599      0.0000      3.4554      0.0082
  3758.0500      9.7841   6609.3740      0.0000      3.4859      0.0775
  3758.0000      9.7841   6609.3740      0.0000      3.4859     -0.1190
  3757.9500      9.7841   6593.2979      0.0000      3.4859      0.0378
  3757.9000      9.7841   6560.7979      0.0000      3.4653     -0.1074
  3757.8500      9.7841   6560.7979      0.0000      3.4653     -0.1968
  3757.8000      9.7841   6533.7705      0.0000      3.4859     -0.0089
  3757.7500      9.7841   6506.9624      0.0000      3.4859     -0.0833
  3757.7000      9.7841   6506.9624      0.0000      3.4859     -0.3964
  3757.6500      9.7841   6468.1875      0.0000      3.4958      0.2899
  3757.6000      9.7841   6434.4395      0.0000      3.4958     -0.1404
  3757.5500      9.7841   6434.4395      0.0000      3.4958     -0.5014
