~Version Information
VERS.                      2.0: CWLS Log ASCII Standard - VERSION 2.0
WRAP.                       NO: One line per depth step
~Well Information Block
STRT.M               3779.9000: START DEPTH
STOP.M               3659.5000: STOP DEPTH
STEP.M                 -0.0500: STEP
NULL.                -999.2500: NULL VALUE
COMP.                  STATOIL: COMPANY
WELL.               15/9-F-1-C: WELL
FLD.                     VOLVE: FIELD
LOC.                          : LOCATION
SRVC.          Halliburton Logging Services: SERVICE COMPANY
DATE.          Wed Dec 03 07-18-31 2014: LOG DATE
UWI.                          : UNIQUE WELL ID
CTRY.                   NORWAY: COUNTRY
SECT.                         : SECTION
TOWN.                         : TOWNSHIP
RANG.                         : RANGE
API.                          : API#
OS.                   --NONE--: OTHER SERVICES
PDAT.FT                  M.S.L: PERMANENT DATUM
EEL.FT                   54.9M: ELEVATION
LMF.FT                   R.K.B: LOG MEASURED FROM
DMF.FT                   R.K.B: DRILLING MEASURED FROM
EKB.FT                   54.9M: KB
EDF.FT                   54.9M: DF
EGL.FT                    -91M: GL
DATE1.         03-DEC-14 @ 05:47: DATE1
RUN1.                    1 & 2: RUN NUMBER
TDD1.FT                  4094M: DEPTH DRILLER
TDL1.FT                  3782M: DEPTH LOGGER
BLI1.FT                  3772M: BOTTOM LOGGED INTERVAL
TLI1.FT                  3572M: TOP LOG INTERVAL
CDD1.IN_FT                    : CASING DRILLER
CDL1.FT                       : CASING LOGGER
BS1.IN                    8.5": BIT SIZE
DFT1.                SEA WATER: TYPE FLUID IN HOLE
DFDV1.GM/C3_CP          1.03SG: DENSITY/VISCOSITY
DFPL1.C3                      : PH/FLUID LOSS
MSS1.                         : SOURCE OF SAMPLE
RMT1.OHHM_DEGF                : RM@MEASURED TEMP
RMFT1.OHMM_DEGF                : RMF@MEASURED TEMP
RMCT1.OHMM_DEGF                : RMC@MEASURED TEMP
RMFS1.                        : SOURCE OF RMF/RMC
RMBT1.OHMM_DEGF                : RM@BHT
TCS1.                         : TIME CIRCULATION STOPPED
TLOB1.                36 HOURS: TIME LOGGER ON BOTTOM
BHT1.DEGF                 FULL: MAXIMUM RECORDED TEMPERATURE
LUN1.                 12030699: EQUIPMENT NUMBER
LUL1.                   NORWAY: LOCATION
ENGI1.              C.JAMIESON: RECORDED BY
WITN1.                A.ALBAWI: WITNESSED BY
~Curve Information Block
DEPT.M             0 000 00 00: Depth
LSPD.M/MIN                   0: Line Speed
LTEN.LB                      0: Surface Line Tension
MINMK.                       0: Minute Mark Ticks
HVOLTA.V                     0: Head Voltage Apparent
CCL.                         0: Casing Collar Locator
~Parameter Information Block
SRFTEMP.DEGC           12.0000: Surface Temperature
MudWgt.LB/GAL           8.5600: Mud Weight
CASETHCK.IN             0.4530: Casing Thickness
BITSIZE.IN             12.2500: Borehole I.D.
~Other Information
TOOL STRING DEPLOYED BY ALTUS INTERVENTION WIRELINE UNIT ON 7/16" CABLE
CABLE HEAD BUILT BY ALTUS
LOG CORRELATED TO SHLUMBERGER 4.5" HSD OX POWER JET PULS DATED 09.APRIL.2014
CORRELATION LOG IS SHALLOWER BY 1.4M, DEPTH SHIFTED 1.4M DOWN AS PER
CLIENTS REQUEST.
4.655" HSC GUN 10 AND 350 DEGREE PHASING, 39 GR MILLENIUM, 4 SHOTS PER FOOT.
ATTEMPT WAS MADE TO RUN 4 GUNS IN ONE STRING BUT AT 3600M PICK UP WEIGHT 
WAS TOO HIGH TO CONTINUE.  CLIENT D4ECIDED TO SPLIT UP ONTO TWO RUNS.
RUN #1 CCL TO TOP SHOT 3.25 M, CCL STOP DEPT: 3729.75 M
PERFORATION INTERVAL 3733M - 3742.6M
RUN #2 CCL TO TOP SHOT 3.25 M, CCL STOP DEPT: 3711.75 M
PERFORATION INTERVAL 3715M - 3724.6M

~A  Depth       LSPD        LTEN       MINMK       HVOLTA       CCL     
# ...
  3735.1000      9.7688   6571.4048      1.0000      3.4752     -0.1208
  3735.0500      9.7688   6517.4980      0.0000      3.5263      0.3629
  3735.0000      9.7688   6517.4980      0.0000      3.5263      0.1599
  3734.9500      9.7688   6462.0913      0.0000      3.5057      0.0888
  3734.9000      9.7688   6432.5327      0.0000      3.5164     -0.3006
  3734.8500      9.8024   6432.5327      0.0000      3.5164     -0.1477
  3734.8000      9.8024   6436.2026      0.0000      3.4859     -0.1666
  3734.7500      9.8024   6451.7368      0.0000      3.4859      0.0101
  3734.7000      9.8024   6451.7368      0.0000      3.4859      0.0058
  3734.6500      9.7841   6473.0425      0.0000      3.4454      0.0089
  3734.6000      9.7841   6473.0425      0.0000      3.4454     -0.0110
  3734.5500      9.7841   6509.4766      0.0000      3.4958     -0.0171
  3734.5000      9.7688   6546.9038      0.0000      3.4752      0.0015
  3734.4500      9.7688   6546.9038      0.0000      3.4752     -0.0067
  3734.4000      9.7688   6570.2466      0.0000      3.5461     -0.0064
  3734.3500      9.7688   6595.7373      0.0000      3.4859     -0.0064
  3734.3000      9.7688   6595.7373      0.0000      3.4859     -0.0140
  3734.2500      9.7688   6631.3247      0.0000      3.4958     -0.0095
  3734.2000      9.6957   6658.2036      0.0000      3.4859     -0.0116
  3734.1500      9.6957   6658.2036      0.0000      3.4859     -0.0058
  3734.1000      9.6957   6677.4468      0.0000      3.4554      0.0171
  3734.0500      9.7140   6704.7598      0.0000      3.5065     -0.0174
  3734.0000      9.7140   6704.7598      0.0000      3.5065     -0.0461
  3733.9500      9.7140   6729.0190      0.0000      3.4149     -0.0348
  3733.9000      9.7140   6736.0601      0.0000      3.5362     -0.0650
  3733.8500      9.7323   6736.0601      0.0000      3.5362     -0.0287
  3733.8000      9.7323   6734.4395      0.0000      3.5263     -0.0284
  3733.7500      9.7323   6727.2646      0.0000      3.4760      0.0000
  3733.7000      9.7140   6727.2646      0.0000      3.4760     -0.1077
  3733.6500      9.7140   6703.9961      0.0000      3.4653      0.4303
  3733.6000      9.7140   6662.3110      0.0000      3.4653     -0.3558
  3733.5500      9.7841   6662.3110      0.0000      3.4653     -0.0644
  3733.5000      9.7841   6607.6494      0.0000      3.4859      0.0858
  3733.4500      9.7841   6550.7559      0.0000      3.5057     -0.7355
  3733.4000      9.7841   6550.7559      0.0000      3.5057     -0.0757
  3733.3500      9.8389   6506.6631      0.0000      3.4859     -0.2664
  3733.3000      9.8389   6473.6416      0.0000      3.5263      0.0226
  3733.2500      9.8389   6473.6416      0.0000      3.5263      0.0037
  3733.2000      9.8024   6445.7031      0.0000      3.4554     -0.1120
  3733.1500      9.8024   6444.2358      0.0000      3.5263     -0.0360
  3733.1000      9.8024   6444.2358      0.0000      3.5263     -0.0250
  3733.0500      9.8024   6484.5034      0.0000      3.4454     -0.0119
  3733.0000      9.8024   6484.5034      0.0000      3.4454      0.0211
  3732.9500      9.8024   6542.9209      0.0000      3.4859      0.0137
  3732.9000      9.7841   6599.2939      0.0000      3.5164     -0.0220
  3732.8500      9.7841   6599.2939      0.0000      3.5164     -0.0003
  3732.8000      9.7841   6656.8862      0.0000      3.4859     -0.0134
  3732.7500      9.7841   6706.0479      0.0000      3.5164      0.0079
  3732.7000      9.7140   6706.0479      0.0000      3.5164     -0.0214
  3732.6500      9.7140   6732.7505      0.0000      3.4958      0.0031
  3732.6000      9.7140   6748.6348      0.0000      3.4859     -0.0046
  3732.5500      9.7140   6748.6348      0.0000      3.4859     -0.0101
  3732.5000      9.7140   6763.6533      0.0000      3.4554     -0.0217
  3732.4500      9.7140   6774.5342      0.0000      3.4554     -0.0211
  3732.4000      9.7506   6774.5342      0.0000      3.4554     -0.0067
  3732.3500      9.7506   6791.9141      0.0000      3.4958     -0.0287
  3732.3000      9.7506   6819.5908      0.0000      3.4958     -0.0018
  3732.2500      9.7140   6819.5908      0.0000      3.4958     -0.0171
  3732.2000      9.7140   6835.5625      0.0000      3.4958      0.0049
  3732.1500      9.7140   6838.6895      0.0000      3.4653     -0.0757
  3732.1000      9.7140   6838.6895      0.0000      3.4653     -0.0223
  3732.0500      9.7688   6855.9521      0.0000      3.4859      0.0076
  3732.0000      9.7688   6885.2310      0.0000      3.4454      0.0073
  3731.9500      9.7688   6885.2310      0.0000      3.4454      0.0073
  3731.9000      9.7323   6895.2441      0.0000      3.4958     -0.0699
  3731.8500      9.7323   6866.4248      0.0000      3.5362      0.1248
  3731.8000      9.7323   6866.4248      0.0000      3.5362     -0.4364
  3731.7500      9.7140   6792.2383      0.0000      3.4859     -1.3281
  3731.7000      9.7140   6683.8486      0.0000      3.4859     -0.4691
  3731.6500      9.7140   6683.8486      0.0000      3.4859     -1.3809
  3731.6000      9.7140   6571.9536      0.0000      3.4554     -0.8600
  3731.5500      9.7841   6471.9155      0.0000      3.4653      0.8136
  3731.5000      9.7841   6471.9155      0.0000      3.4653      0.3601
  3731.4500      9.7841   6382.9868      0.0000      3.4859     -0.4959
  3731.4000      9.7841   6382.9868      0.0000      3.4859     -0.5820
  3731.3500      9.7841   6321.4463      0.0000      3.4554      0.2344
  3731.3000      9.7841   6301.2808      0.0000      3.4653     -0.1196
  3731.2500      9.8024   6301.2808      0.0000      3.4653      0.0845
  3731.2000      9.8024   6305.0034      0.0000      3.4859     -0.1654
  3731.1500      9.8024   6319.9658      0.0000      3.4653     -0.0037
  3731.1000      9.8572   6319.9658      0.0000      3.4653     -0.0003
  3731.0500      9.8572   6354.5566      0.0000      3.4653     -0.0061
  3731.0000      9.8572   6398.8691      0.0000      3.4653     -0.0125
  3730.9500      9.8572   6398.8691      0.0000      3.4653      0.0000
  3730.9000      9.8389   6435.1699      0.0000      3.4958     -0.0058
  3730.8500      9.8389   6471.3350      0.0000      3.4760     -0.0070
  3730.8000      9.8389   6471.3350      0.0000      3.4760     -0.0110
  3730.7500      9.7841   6515.1489      0.0000      3.4653     -0.0125
  3730.7000      9.7841   6558.5591      0.0000      3.4653     -0.0067
  3730.6500      9.7841   6558.5591      0.0000      3.4653     -0.0055
  3730.6000      9.8207   6600.8555      0.0000      3.4958     -0.0183
  3730.5500      9.8207   6639.4341      0.0000      3.5057     -0.0092
  3730.5000      9.8207   6639.4341      0.0000      3.5057     -0.0153
  3730.4500      9.7140   6656.5391      0.0000      3.4958     -0.0159
  3730.4000      9.7140   6646.9297      0.0000      3.4958      0.0488
  3730.3500      9.7140   6646.9297      0.0000      3.4958      0.0131
  3730.3000      9.7140   6616.8149      0.0000      3.4454     -0.1047
  3730.2500      9.7140   6556.9043      0.0000      3.4248     -0.2740
  3730.2000      9.7140   6556.9043      0.0000      3.4248     -2.6312
  3730.1500      9.1592   6469.4927      0.0000      3.5568     -1.0059
  3730.1000      9.1592   6388.8726      0.0000      3.4859      0.1630
  3730.0500      8.2144   6388.8726      0.0000      3.4859      0.5869
  3730.0000      8.2144   6339.1313      0.0000      3.4958     -0.0754
  3729.9500      7.2847   6318.4639      0.0000      3.4958      0.0232
  3729.9000      7.2847   6318.4639      0.0000      3.4958     -0.0180
  3729.8500      6.0899   6327.1758      1.0000      3.5164     -0.0092
  3729.8000      0.1951   6327.1758      1.0000      3.5164     -2.0119
  3729.7500      0.8382   6363.0903      1.0000      3.4958     -2.0137
  3729.7000      1.4813   6408.5317      1.0000      3.4859     -2.0143
  3729.6500      2.5176   6408.5317      1.0000      3.4859     -2.0101
  3729.6000      2.5695   6456.1304      1.0000      3.4653     -2.0137
  3729.5500      2.5695   6507.8145      1.0000      3.5164     -2.0125
