~Version Information
VERS.                      2.0: CWLS Log ASCII Standard - VERSION 2.0
WRAP.                       NO: One line per depth step
~Well Information Block
STRT.M               3782.3500: START DEPTH
STOP.M               3681.1500: STOP DEPTH
STEP.M                 -0.0500: STEP
NULL.                -999.2500: NULL VALUE
COMP.                  STATOIL: COMPANY
WELL.               15/9-F-1-C: WELL
FLD.                     VOLVE: FIELD
LOC.                          : LOCATION
SRVC.          Halliburton Logging Services: SERVICE COMPANY
DATE.          Thu Dec 04 04-49-02 2014: LOG DATE
UWI.                          : UNIQUE WELL ID
CTRY.                   NORWAY: COUNTRY
SECT.                         : SECTION
TOWN.                         : TOWNSHIP
RANG.                         : RANGE
API.                          : API#
OS.                   --NONE--: OTHER SERVICES
PDAT.FT                  M.S.L: PERMANENT DATUM
EEL.FT                   54.9M: ELEVATION
LMF.FT                   R.K.B: LOG MEASURED FROM
DMF.FT                   R.K.B: DRILLING MEASURED FROM
EKB.FT                   54.9M: KB
EDF.FT                   54.9M: DF
EGL.FT                    -91M: GL
DATE1.         03-DEC-14 @ 05:47: DATE1
RUN1.                    1 & 2: RUN NUMBER
TDD1.FT                  4094M: DEPTH DRILLER
TDL1.FT                  3782M: DEPTH LOGGER
BLI1.FT                  3772M: BOTTOM LOGGED INTERVAL
TLI1.FT                  3572M: TOP LOG INTERVAL
CDD1.IN_FT                    : CASING DRILLER
CDL1.FT                       : CASING LOGGER
BS1.IN                    8.5": BIT SIZE
DFT1.                SEA WATER: TYPE FLUID IN HOLE
DFDV1.GM/C3_CP          1.03SG: DENSITY/VISCOSITY
DFPL1.C3                      : PH/FLUID LOSS
MSS1.                         : SOURCE OF SAMPLE
RMT1.OHHM_DEGF                : RM@MEASURED TEMP
RMFT1.OHMM_DEGF                : RMF@MEASURED TEMP
RMCT1.OHMM_DEGF                : RMC@MEASURED TEMP
RMFS1.                        : SOURCE OF RMF/RMC
RMBT1.OHMM_DEGF                : RM@BHT
TCS1.                         : TIME CIRCULATION STOPPED
TLOB1.                36 HOURS: TIME LOGGER ON BOTTOM
BHT1.DEGF                 FULL: MAXIMUM RECORDED TEMPERATURE
LUN1.                 12030699: EQUIPMENT NUMBER
LUL1.                   NORWAY: LOCATION
ENGI1.              C.JAMIESON: RECORDED BY
WITN1.                A.ALBAWI: WITNESSED BY
~Curve Information Block
DEPT.M             0 000 00 00: Depth
LSPD.M/MIN                   0: Line Speed
LTEN.LB                      0: Surface Line Tension
MINMK.                       0: Minute Mark Ticks
HVOLTA.V                     0: Head Voltage Apparent
CCL.                         0: Casing Collar Locator
~Parameter Information Block
SRFTEMP.DEGC           12.0000: Surface Temperature
MudWgt.LB/GAL           8.5600: Mud Weight
CASETHCK.IN             0.4530: Casing Thickness
BITSIZE.IN             12.2500: Borehole I.D.
~Other Information
TOOL STRING DEPLOYED BY ALTUS INTERVENTION WIRELINE UNIT ON 7/16" CABLE
CABLE HEAD BUILT BY ALTUS
LOG CORRELATED TO SHLUMBERGER 4.5" HSD OX POWER JET PULS DATED 09.APRIL.2014
CORRELATION LOG IS SHALLOWER BY 1.4M, DEPTH SHIFTED 1.4M DOWN AS PER
CLIENTS REQUEST.
4.655" HSC GUN 10 AND 350 DEGREE PHASING, 39 GR MILLENIUM, 4 SHOTS PER FOOT.
ATTEMPT WAS MADE TO RUN 4 GUNS IN ONE STRING BUT AT 3600M PICK UP WEIGHT 
WAS TOO HIGH TO CONTINUE.  CLIENT D4ECIDED TO SPLIT UP ONTO TWO RUNS.
RUN #1 CCL TO TOP SHOT 3.25 M, CCL STOP DEPT: 3729.75 M
PERFORATION INTERVAL 3733M - 3742.6M
RUN #2 CCL TO TOP SHOT 3.25 M, CCL STOP DEPT: 3711.75 M
PERFORATION INTERVAL 3715M - 3724.6M

~A  Depth       LSPD        LTEN       MINMK       HVOLTA       CCL     
# ...
  3687.1500      9.4640   6473.4780      0.0000      3.5156      0.3842
  3687.1000      9.4640   6433.0864      0.0000      3.4851      0.0684
  3687.0500      9.4640   6420.5059      0.0000      3.4950     -0.0110
  3687.0000      9.5006   6420.5059      0.0000      3.4950     -0.0391
  3686.9500      9.5006   6438.2744      0.0000      3.4851     -0.0015
  3686.9000      9.5006   6438.2744      0.0000      3.4851     -0.0073
  3686.8500      9.4823   6480.1128      0.0000      3.4851     -0.0183
  3686.8000      9.4823   6520.5269      0.0000      3.5255     -0.0070
  3686.7500      9.4823   6520.5269      0.0000      3.5255     -0.0085
  3686.7000      9.4275   6553.7764      0.0000      3.5156     -0.0110
  3686.6500      9.4275   6593.8340      0.0000      3.4851     -0.0134
  3686.6000      9.4275   6593.8340      0.0000      3.4851     -0.0037
  3686.5500      9.3756   6640.2637      0.0000      3.4950     -0.0128
  3686.5000      9.3756   6688.0635      0.0000      3.4851     -0.0052
  3686.4500      9.3756   6688.0635      0.0000      3.4851     -0.0082
  3686.4000      9.3391   6738.4395      0.0000      3.4851     -0.0140
  3686.3500      9.3391   6781.1772      0.0000      3.4851     -0.0101
  3686.3000      9.3391   6781.1772      0.0000      3.4851     -0.0491
  3686.2500      9.3574   6808.2319      0.0000      3.4851     -0.0403
  3686.2000      9.3574   6827.3359      0.0000      3.4645     -0.0073
  3686.1500      9.3574   6827.3359      0.0000      3.4645     -0.0613
  3686.1000      9.3574   6839.4448      0.0000      3.4950      0.0348
  3686.0500      9.4092   6841.3809      0.0000      3.4752     -0.0439
  3686.0000      9.4092   6841.3809      0.0000      3.4752     -0.0623
  3685.9500      9.4092   6844.2969      0.0000      3.4851      0.0189
  3685.9000      9.3939   6853.1035      0.0000      3.4546      0.0034
  3685.8500      9.3939   6853.1035      0.0000      3.4546     -0.0183
  3685.8000      9.3939   6855.7241      0.0000      3.4851     -0.0336
  3685.7500      9.4275   6852.1606      0.0000      3.4950     -0.0082
  3685.7000      9.4275   6852.1606      0.0000      3.4950     -0.0299
  3685.6500      9.4275   6850.9443      0.0000      3.4950     -0.0076
  3685.6000      9.4092   6846.5068      0.0000      3.4744     -0.0198
  3685.5500      9.4092   6846.5068      0.0000      3.4744      0.0000
  3685.5000      9.4092   6839.3691      0.0000      3.5561     -0.0253
  3685.4500      9.3756   6839.9829      0.0000      3.5057      0.0055
  3685.4000      9.3756   6839.9829      0.0000      3.5057     -0.0131
  3685.3500      9.3756   6837.9404      0.0000      3.4645     -0.0204
  3685.3000      9.3574   6837.9404      0.0000      3.4645     -0.0098
  3685.2500      9.3574   6817.2930      0.0000      3.4851     -0.0488
  3685.2000      9.3574   6785.7612      0.0000      3.4950     -0.0613
  3685.1500      9.3574   6785.7612      0.0000      3.4950     -0.0168
  3685.1000      9.3574   6748.4331      0.0000      3.4851     -0.0720
  3685.0500      9.3574   6695.0244      0.0000      3.4950      0.0528
  3685.0000      9.3756   6695.0244      0.0000      3.4950      0.7584
  3684.9500      9.3756   6637.3765      0.0000      3.4752     -0.2429
  3684.9000      9.3756   6604.3120      0.0000      3.4752      0.1465
  3684.8500      9.3756   6604.3120      0.0000      3.4752      0.0159
  3684.8000      9.4092   6599.7065      0.0000      3.5156     -0.0443
  3684.7500      9.4092   6615.2778      0.0000      3.4851     -0.0372
  3684.7000      9.4092   6615.2778      0.0000      3.4851     -0.0363
  3684.6500      9.4640   6652.6318      0.0000      3.4851     -0.0055
  3684.6000      9.4640   6704.5752      0.0000      3.5255     -0.0015
  3684.5500      9.4640   6704.5752      0.0000      3.5255     -0.0150
  3684.5000      9.4823   6758.5591      0.0000      3.4851     -0.0186
  3684.4500      9.4823   6815.9370      0.0000      3.4546     -0.0034
  3684.4000      9.4823   6815.9370      0.0000      3.4546     -0.0146
  3684.3500      9.4275   6875.2656      0.0000      3.4447     -0.0153
  3684.3000      9.4275   6927.4624      0.0000      3.4950     -0.0085
  3684.2500      9.4275   6927.4624      0.0000      3.4950     -0.0089
  3684.2000      9.4092   6976.6816      0.0000      3.5156     -0.0110
  3684.1500      9.4092   7023.2642      0.0000      3.4950     -0.0131
  3684.1000      9.4092   7023.2642      0.0000      3.4950     -0.0250
  3684.0500      9.3574   7050.4746      0.0000      3.4142     -0.0134
  3684.0000      9.3574   7056.9375      0.0000      3.4447     -0.0177
  3683.9500      9.3574   7056.9375      0.0000      3.4447     -0.0217
  3683.9000      9.3208   7050.3916      0.0000      3.4851     -0.0439
  3683.8500      9.3208   7017.4141      0.0000      3.4546      0.0867
  3683.8000      9.3208   7017.4141      0.0000      3.4546      0.2930
  3683.7500      9.3208   6953.0000      0.0000      3.4546     -0.0604
  3683.7000      9.3574   6953.0000      0.0000      3.4546     -0.2148
  3683.6500      9.3574   6881.4473      0.0000      3.5255     -0.1743
  3683.6000      9.3574   6818.2656      0.0000      3.4851     -0.2176
  3683.5500      9.3574   6818.2656      0.0000      3.4851      1.6577
  3683.5000      9.3574   6761.9043      0.0000      3.4851      1.5524
  3683.4500      9.3574   6722.5068      0.0000      3.4950     -1.1499
  3683.4000      9.4092   6722.5068      0.0000      3.4950      0.2798
  3683.3500      9.4092   6710.7036      0.0000      3.4851      0.0412
  3683.3000      9.4092   6721.5215      0.0000      3.4851     -0.0021
  3683.2500      9.4275   6721.5215      0.0000      3.4851     -0.0128
  3683.2000      9.4275   6752.5254      0.0000      3.4851     -0.0089
  3683.1500      9.4275   6797.8662      0.0000      3.4546     -0.0122
  3683.1000      9.4092   6797.8662      0.0000      3.4546     -0.0049
  3683.0500      9.4092   6836.2700      0.0000      3.4851     -0.0061
  3683.0000      9.4092   6862.9092      0.0000      3.4851     -0.0150
  3682.9500      9.3939   6862.9092      0.0000      3.4851     -0.0143
  3682.9000      9.3939   6894.3936      0.0000      3.4950     -0.0058
  3682.8500      9.3939   6930.3013      0.0000      3.4851     -0.0165
  3682.8000      9.3574   6930.3013      0.0000      3.4851     -0.0067
  3682.7500      9.3574   6960.9839      0.0000      3.5156     -0.0079
  3682.7000      9.3574   6993.6826      0.0000      3.4851     -0.0150
  3682.6500      9.3208   6993.6826      0.0000      3.4851     -0.0095
  3682.6000      9.3208   7028.1885      0.0000      3.4546     -0.0064
  3682.5500      9.3208   7050.6865      0.0000      3.4851     -0.0110
  3682.5000      9.3208   7050.6865      0.0000      3.4851     -0.0067
  3682.4500      9.3208   7065.3276      0.0000      3.5156     -0.0104
  3682.4000      9.3208   7080.8115      0.0000      3.4950     -0.0131
  3682.3500      9.3208   7080.8115      0.0000      3.4950      0.0977
  3682.3000      9.3208   7083.2656      0.0000      3.4447     -0.0720
  3682.2500      9.3208   7057.8179      0.0000      3.4950     -0.2869
  3682.2000      9.3208   7057.8179      0.0000      3.4950     -0.1987
  3682.1500      9.3574   7004.3765      0.0000      3.4447      0.5133
  3682.1000      9.3574   7004.3765      0.0000      3.4447      0.1019
  3682.0500      9.3574   6926.9531      0.0000      3.5355      0.7428
  3682.0000      9.4275   6841.7017      0.0000      3.4546      0.2853
  3681.9500      9.4275   6841.7017      0.0000      3.4546      0.1877
  3681.9000      9.4275   6771.6406      0.0000      3.4851      0.4282
  3681.8500      9.4092   6716.1089      0.0000      3.4950     -0.1038
  3681.8000      9.4092   6716.1089      0.0000      3.4950     -0.1050
  3681.7500      9.4092   6670.3115      0.0000      3.4851      0.1355
  3681.7000      9.4823   6655.1636      0.0000      3.4546     -0.0153
  3681.6500      9.4823   6655.1636      0.0000      3.4546      0.0626
  3681.6000      9.4823   6679.1089      0.0000      3.4752      0.0015
