~Version Information
VERS.             2.0 : CWLS log ASCII standard - Version 2.0
WRAP.             NO  : One line per depth step
#
~Well Information Block
#MNEM.UNIT                   Data Type:Information
#__________________________________________________________
 STRT .M           2450.13480  :START INDEX                  
  STOP.M           3113.3796 : STOP INDEX                    
 STEP .M              0.00000  :STEP                         
  NULL.              -999.25 : NULL VALUE                    
  COMP.              Statoil : COMPANY                       
  WELL.            15_9_F-12 : WELL                          
   FLD.                Volve : FIELD                         
   LOC.           Maersk Inspirer : LOCATION                      
  PROV.                      : PROVINCE                      
  CNTY.                      : COUNTY                        
  STAT.                      : STATE                         
  CTRY.                      : COUNTRY                       
  SRVC.              SLB D&M : SERVICE COMPANY               
  DATE.                      : LOG DATE                      
   UWI.                      : UNIQUE WELL ID                
   API.                      : API NUMBER                    
#
~Curve Information Block
#MNEM.UNIT                     : Curve Description
#---------                     --------------------
DEPT        .M                 : Bit Depth 2hz                                                   
TVDE        .M                 : SVY TVD_EXTR 2hz                                                
ARC_GR_RT   .GAPI              : ARC Gamma Ray, Real-Time                                        
ROP5        .M/HR              : 5ft ROP 2hz                                                     
SWOB        .KKGF              : Surface Weight on Bit 2hz                                       
RPM         .RPM               : SRF SRPM 2hz                                                    
TFLO        .LPM               : HSPM Total Pump Flow 2hz                                        
TRPM_RT     .RPM               : MWD TUR_RPM 2hz                                                 
SPPA        .BAR               : SRF PUMPRS 2hz                                                  
TQA         .KMN               : SRF STOR 2hz                                                    
SHKRSK_RT   .----              : MWD SHKRSK 2hz                                                  
SHK2_RT     .----              : ARC Shock Level, Real-Time                                      
SHK_ADN_RT  .----              : ADN Shock Level, Real-Time                                      
PDSHKRSK    .----              : PowerDrive Shock Risk 2hz                                       
ECD_ARC     .G/C3              : Equivalent Circulating Density                                  
ATMP        .DEGC              : ARC Annular Temperature                                         
APRS_ARC    .BAR               : ARC Annular Pressure                                            
#
~Parameter Information Block
#MNEM.UNIT                       Value:Description
#__________________________________________________________
#
~Other Information Block

#
~A    DEPT       TVDE  ARC_GR_RT       ROP5       SWOB        RPM       TFLO    TRPM_RT       SPPA        TQA  SHKRSK_RT    SHK2_RT SHK_ADN_RT   PDSHKRSK    ECD_ARC       ATMP   APRS_ARC
# ...
 2686.0500  2584.1429    69.3935    19.7609     2.8248   139.8333  3256.7499    -999.25   192.7233    27.9742    -999.25    -999.25     0.0000    -999.25     1.3746    77.0000   347.7027
 2686.2024  2584.2772    62.9420    23.2425     3.6364   139.3939  3256.7499    -999.25   192.7630    25.4530    -999.25    -999.25    -999.25    -999.25     1.3759    77.0000   348.0475
 2686.3547  2584.4111    65.0575    26.7031     5.7331   139.6250  3256.7499    -999.25   192.6609    27.9975    -999.25    -999.25     0.0000    -999.25     1.3750    77.0000   347.8406
 2686.5071  2584.5540    60.8614    24.4472     6.3935   139.4900  3256.7499  2382.8125   192.4619    29.6764     0.0000    -999.25    -999.25     0.0000     1.3747    77.0000   347.7717
 2686.6597  2584.6883    60.8614    25.2632     3.8208   138.4615  3256.7499    -999.25   192.1429    26.0509    -999.25     0.0000    -999.25    -999.25     1.3754    77.0000   347.9785
 2686.8120  2584.8222    52.8887    26.0108     3.7772   139.0000  3256.7499    -999.25   192.3587    31.4445    -999.25    -999.25     0.0000    -999.25     1.3756    77.0000   348.0475
 2686.9644  2584.9564    40.2829    26.3514     4.0860   139.0323  3256.7499    -999.25   192.5643    26.8045    -999.25    -999.25    -999.25    -999.25     1.3750    77.0000   347.9096
 2687.1167  2585.0996    27.9742    26.9338     5.2634   139.9375  3256.7499    -999.25   192.7241    29.7745    -999.25    -999.25     0.0000    -999.25     1.3747    77.0000   347.8406
 2687.2693  2585.2336    29.3904    27.1323     5.0098   138.7647  3256.7499    -999.25   192.7306    27.9826    -999.25    -999.25    -999.25    -999.25     1.3749    77.0000   347.9096
 2687.4216  2585.3675    32.3277    27.4854     4.6573   138.9032  3256.7499    -999.25   192.8149    29.6105    -999.25    -999.25    -999.25    -999.25     1.3745    77.0000   347.8406
 2687.5740  2585.5018    32.3277    27.8128     4.8893   139.0000  3256.7499    -999.25   192.9105    31.6058    -999.25    -999.25     0.0000    -999.25     1.3744    77.0000   347.8406
 2687.7263  2585.6446    43.7097    27.9670     2.5625   138.8437  3256.7499    -999.25   192.8172    28.8842    -999.25    -999.25    -999.25     0.0000     1.3747    77.0000   347.9096
 2687.8789  2585.7789    40.2829    28.0254     1.6715   138.4516  3256.7499    -999.25   192.6768    26.6640    -999.25    -999.25    -999.25    -999.25     1.3743    77.0000   347.8406
 2688.0313  2585.9128    43.7097    34.0246     1.7828   138.9032  3256.7499    -999.25   192.6392    27.6211     0.0000    -999.25     0.0000    -999.25     1.3742    77.0000   347.8406
 2688.1836  2586.0471    49.1122    34.8153     2.1161   138.7420  3256.7499    -999.25   192.6298    27.4389    -999.25    -999.25     0.0000    -999.25     1.3747    77.0000   347.9785
 2688.3359  2586.1902    40.2829    34.8097     3.8748   138.5807  3256.7499    -999.25   192.5082    25.8764    -999.25     0.0000    -999.25    -999.25     1.3752    77.0000   348.1164
 2688.4883  2586.3239    38.6219    34.8084     4.6555   139.0000  3256.7499    -999.25   192.5192    30.1548    -999.25    -999.25     0.0000    -999.25     1.3746    77.0000   347.9785
 2688.6409  2586.4581    45.4756    34.9040     3.1412   139.0000  3256.7499    -999.25   192.6410    29.0921    -999.25    -999.25    -999.25    -999.25     1.3737    77.0000   347.7717
 2688.7932  2586.5921    45.4756    35.1481     4.9290   140.0000  3256.7499    -999.25   192.8343    32.2478    -999.25    -999.25    -999.25    -999.25     1.3747    77.0000   348.0475
 2688.9456  2586.7352    45.4756    35.1556     4.0308   139.3871  3256.7499    -999.25   192.9279    30.3017    -999.25    -999.25     0.0000    -999.25     1.3741    77.0000   347.9096
 2689.0979  2586.8695    38.6219    35.0468     5.9204   139.0000  3256.7499    -999.25   192.9628    31.5727    -999.25    -999.25    -999.25    -999.25     1.3751    77.0000   348.1854
 2689.2505  2587.0034    40.2829    33.8977     6.0421   139.0000  3256.7499    -999.25   192.9743    28.6957    -999.25    -999.25     0.0000     0.0000     1.3742    77.0000   347.9785
 2689.4028  2587.1374    36.9959    32.7153     4.4471   139.2791  3256.7499  2382.8125   192.9705    29.7591    -999.25    -999.25    -999.25    -999.25     1.3747    77.0000   348.1164
 2689.5552  2587.2805    43.7097    31.5796     5.2998   139.0000  3256.7499    -999.25   192.8365    32.1207     0.0000    -999.25     0.0000    -999.25     1.3746    77.0000   348.1164
 2689.7075  2587.4145    43.7097    30.2431     6.7599   139.5957  3256.7499    -999.25   192.7525    31.0725    -999.25     0.0000    -999.25    -999.25     1.3746    77.0000   348.1164
 2689.8601  2587.5487    43.7097    28.8648     5.9330   139.5510  3256.7499    -999.25   192.7759    32.7528    -999.25    -999.25     0.0000    -999.25     1.3748    77.0000   348.1854
 2690.0125  2587.6827    33.8488    27.4959     6.7804   139.0400  3256.7499    -999.25   192.9886    29.7499    -999.25    -999.25    -999.25    -999.25     1.3736    77.0000   347.9096
 2690.1648  2587.8166    43.7097    26.3589     6.6401   139.0000  3256.7499    -999.25   193.1433    29.3435    -999.25    -999.25     0.0000    -999.25     1.3736    77.0000   347.9096
 2690.3171  2587.9601    29.3904    25.3890     5.9000   140.4043  3256.7499    -999.25   193.1658    32.5947    -999.25    -999.25    -999.25    -999.25     1.3738    77.0000   347.9785
 2690.4695  2586.2572    29.3904     8.7236    -0.9769    54.5065  1166.6021  2382.8125    68.7516     6.7363     0.0000     0.0000     0.0000     0.0000     1.3742    77.0000   348.1164
 2690.6221  2586.3861    33.8488     8.7328     2.7258   139.5484  3256.7499    -999.25   194.6084    27.7987    -999.25    -999.25    -999.25     2.0000     1.3739    77.0000   348.0475
 2690.7744  2586.5147    20.2114     8.8032     4.7390   137.1563  2428.0233  2382.8125   194.4967    28.7282    -999.25    -999.25     0.0000    -999.25     1.3744    77.0000   348.1854
 2690.9268  2586.6519    26.5930     8.8858     5.3456   139.6774  2896.5562    -999.25   194.3335    32.0101     0.0000    -999.25    -999.25    -999.25     1.3743    77.0000   348.1854
 2691.0791  2586.7811    26.5930     8.9699     5.6463   127.5313  2951.4296    -999.25   194.1453    28.1631    -999.25    -999.25     0.0000    -999.25     1.3740    77.0000   348.1164
 2691.2317  2586.9094    32.3277     9.0813     5.9002   140.0968  2866.5401    -999.25   194.0747    35.9058    -999.25     0.0000    -999.25    -999.25     1.3731    78.0000   347.9096
 2691.3840  2587.0383    32.3277     9.2094     5.7217   131.0625  3227.6718    -999.25   194.1248    30.3550    -999.25    -999.25     0.0000    -999.25     1.3733    78.0000   347.9785
 2691.5364  2587.1758    21.4178     9.3541     5.9646   139.0000  3256.7499    -999.25   194.2962    35.8025    -999.25    -999.25    -999.25    -999.25     1.3743    78.0000   348.2543
 2691.6887  2587.3044    23.9354     9.4819     5.8522   132.8125  2835.1166    -999.25   194.4024    32.2673    -999.25    -999.25    -999.25    -999.25     1.3734    78.0000   348.0475
 2691.8413  2587.4332    20.2114     9.6013     5.8162   139.2424  3143.9617    -999.25   194.4242    36.0747    -999.25    -999.25     0.0000    -999.25     1.3736    78.0000   348.1164
 2691.9937  2587.5621    23.9354    34.3235     5.6163   138.0000  3228.5529    -999.25   194.3878    35.6808    -999.25    -999.25    -999.25    -999.25     1.3730    78.0000   347.9785
 2692.1460  2587.6993    21.4178    34.2741     5.8375   135.8437  3256.7499    -999.25   194.3959    33.6945    -999.25    -999.25    -999.25    -999.25     1.3735    78.0000   348.1164
 2692.2983  2587.8279    25.2467    34.2219     6.2328   128.8750  3227.6715  2343.7500   194.3746    30.2665    -999.25    -999.25     0.0000     0.0000     1.3732    78.0000   348.0475
 2692.4507  2587.9568    20.2114    34.1350     6.4086   132.8125  3096.8202    -999.25   194.3587    31.6141     0.0000    -999.25    -999.25    -999.25     1.3728    78.0000   347.9785
