~Version Information
VERS.                      2.0: CWLS Log ASCII Standard - VERSION 2.0
WRAP.                       NO: One line per depth step
~Well Information Block
STRT.M               3779.9000: START DEPTH
STOP.M               3659.5000: STOP DEPTH
STEP.M                 -0.0500: STEP
NULL.                -999.2500: NULL VALUE
COMP.                  STATOIL: COMPANY
WELL.               15/9-F-1-C: WELL
FLD.                     VOLVE: FIELD
LOC.                          : LOCATION
SRVC.          Halliburton Logging Services: SERVICE COMPANY
DATE.          Wed Dec 03 07-18-31 2014: LOG DATE
UWI.                          : UNIQUE WELL ID
CTRY.                   NORWAY: COUNTRY
SECT.                         : SECTION
TOWN.                         : TOWNSHIP
RANG.                         : RANGE
API.                          : API#
OS.                   --NONE--: OTHER SERVICES
PDAT.FT                  M.S.L: PERMANENT DATUM
EEL.FT                   54.9M: ELEVATION
LMF.FT                   R.K.B: LOG MEASURED FROM
DMF.FT                   R.K.B: DRILLING MEASURED FROM
EKB.FT                   54.9M: KB
EDF.FT                   54.9M: DF
EGL.FT                    -91M: GL
DATE1.         03-DEC-14 @ 05:47: DATE1
RUN1.                    1 & 2: RUN NUMBER
TDD1.FT                  4094M: DEPTH DRILLER
TDL1.FT                  3782M: DEPTH LOGGER
BLI1.FT                  3772M: BOTTOM LOGGED INTERVAL
TLI1.FT                  3572M: TOP LOG INTERVAL
CDD1.IN_FT                    : CASING DRILLER
CDL1.FT                       : CASING LOGGER
BS1.IN                    8.5": BIT SIZE
DFT1.                SEA WATER: TYPE FLUID IN HOLE
DFDV1.GM/C3_CP          1.03SG: DENSITY/VISCOSITY
DFPL1.C3                      : PH/FLUID LOSS
MSS1.                         : SOURCE OF SAMPLE
RMT1.OHHM_DEGF                : RM@MEASURED TEMP
RMFT1.OHMM_DEGF                : RMF@MEASURED TEMP
RMCT1.OHMM_DEGF                : RMC@MEASURED TEMP
RMFS1.                        : SOURCE OF RMF/RMC
RMBT1.OHMM_DEGF                : RM@BHT
TCS1.                         : TIME CIRCULATION STOPPED
TLOB1.                36 HOURS: TIME LOGGER ON BOTTOM
BHT1.DEGF                 FULL: MAXIMUM RECORDED TEMPERATURE
LUN1.                 12030699: EQUIPMENT NUMBER
LUL1.                   NORWAY: LOCATION
ENGI1.              C.JAMIESON: RECORDED BY
WITN1.                A.ALBAWI: WITNESSED BY
~Curve Information Block
DEPT.M             0 000 00 00: Depth
LSPD.M/MIN                   0: Line Speed
LTEN.LB                      0: Surface Line Tension
MINMK.                       0: Minute Mark Ticks
HVOLTA.V                     0: Head Voltage Apparent
CCL.                         0: Casing Collar Locator
~Parameter Information Block
SRFTEMP.DEGC           12.0000: Surface Temperature
MudWgt.LB/GAL           8.5600: Mud Weight
CASETHCK.IN             0.4530: Casing Thickness
BITSIZE.IN             12.2500: Borehole I.D.
~Other Information
TOOL STRING DEPLOYED BY ALTUS INTERVENTION WIRELINE UNIT ON 7/16" CABLE
CABLE HEAD BUILT BY ALTUS
LOG CORRELATED TO SHLUMBERGER 4.5" HSD OX POWER JET PULS DATED 09.APRIL.2014
CORRELATION LOG IS SHALLOWER BY 1.4M, DEPTH SHIFTED 1.4M DOWN AS PER
CLIENTS REQUEST.
4.655" HSC GUN 10 AND 350 DEGREE PHASING, 39 GR MILLENIUM, 4 SHOTS PER FOOT.
ATTEMPT WAS MADE TO RUN 4 GUNS IN ONE STRING BUT AT 3600M PICK UP WEIGHT 
WAS TOO HIGH TO CONTINUE.  CLIENT D4ECIDED TO SPLIT UP ONTO TWO RUNS.
RUN #1 CCL TO TOP SHOT 3.25 M, CCL STOP DEPT: 3729.75 M
PERFORATION INTERVAL 3733M - 3742.6M
RUN #2 CCL TO TOP SHOT 3.25 M, CCL STOP DEPT: 3711.75 M
PERFORATION INTERVAL 3715M - 3724.6M

~A  Depth       LSPD        LTEN       MINMK       HVOLTA       CCL     
# ...
  3718.3000      9.3391   6712.3228      0.0000      3.4859     -2.0076
  3718.2500      9.3208   6751.7451      0.0000      3.5263     -2.0095
  3718.2000      9.3208   6791.5171      0.0000      3.4554     -2.0140
  3718.1500      9.3208   6791.5171      0.0000      3.4554     -2.0140
  3718.1000      9.3939   6827.2461      0.0000      3.4958     -2.0113
  3718.0500      9.3939   6860.1992      1.0000      3.4554     -2.0162
  3718.0000      9.3939   6860.1992      1.0000      3.4554     -2.0089
  3717.9500      9.3574   6874.4668      0.0000      3.5164     -1.9530
  3717.9000      9.3574   6858.7964      0.0000      3.4859     -2.0214
  3717.8500      9.3574   6858.7964      0.0000      3.4859     -1.7189
  3717.8000      9.3574   6819.9258      0.0000      3.4149      2.5169
  3717.7500      9.3574   6762.7368      0.0000      3.4554     -0.9249
  3717.7000      9.3574   6762.7368      0.0000      3.4554     -2.1672
  3717.6500      9.3574   6696.3193      0.0000      3.5164     -1.8578
  3717.6000      9.3574   6637.2417      0.0000      3.4554     -2.0400
  3717.5500      9.3574   6637.2417      0.0000      3.4554     -2.2121
  3717.5000      9.3391   6587.1499      0.0000      3.5667     -1.8160
  3717.4500      9.3391   6546.4858      0.0000      3.4454     -1.9429
  3717.4000      9.3391   6546.4858      0.0000      3.4454     -1.9866
  3717.3500      9.3391   6535.9839      0.0000      3.4859     -2.0177
  3717.3000      9.4275   6560.5454      0.0000      3.4554     -2.0555
  3717.2500      9.4275   6560.5454      0.0000      3.4554     -1.9591
  3717.2000      9.4275   6593.5645      0.0000      3.5164     -2.0171
  3717.1500      9.4275   6623.1211      0.0000      3.4348     -1.9966
  3717.1000      9.4275   6623.1211      0.0000      3.4348     -2.0238
  3717.0500      9.4275   6656.1401      0.0000      3.4760     -2.0122
  3717.0000      9.3574   6656.1401      0.0000      3.4760     -2.0058
  3716.9500      9.3574   6689.2334      0.0000      3.4859     -2.0082
  3716.9000      9.3574   6722.7451      0.0000      3.4859     -2.0070
  3716.8500      9.4092   6722.7451      0.0000      3.4859     -2.0101
  3716.8000      9.4092   6761.5371      0.0000      3.4760     -2.0073
  3716.7500      9.4092   6789.6885      0.0000      3.5362     -2.0241
  3716.7000      9.3208   6789.6885      0.0000      3.5362     -2.0098
  3716.6500      9.3208   6790.3911      0.0000      3.4454     -1.9670
  3716.6000      9.3208   6767.6157      0.0000      3.5164     -1.9142
  3716.5500      9.3391   6767.6157      0.0000      3.5164     -1.8581
  3716.5000      9.3391   6720.6992      0.0000      3.4554     -2.2451
  3716.4500      9.3391   6646.0874      0.0000      3.4859     -1.9216
  3716.4000      9.4458   6646.0874      0.0000      3.4859     -1.9240
  3716.3500      9.4458   6563.6221      0.0000      3.5263     -2.3168
  3716.3000      9.4458   6490.5840      0.0000      3.5362     -2.2258
  3716.2500      9.3756   6490.5840      0.0000      3.5362     -2.4578
  3716.2000      9.3756   6424.9932      0.0000      3.4859     -1.4989
  3716.1500      9.3756   6380.2905      0.0000      3.5263     -1.9976
  3716.1000      9.3756   6380.2905      0.0000      3.5263     -2.0458
  3716.0500      9.4275   6375.5923      0.0000      3.4859     -1.9954
  3716.0000      9.4275   6399.1055      0.0000      3.5263     -1.9979
  3715.9500      9.4275   6399.1055      0.0000      3.5263     -2.0183
  3715.9000      9.4092   6433.4590      0.0000      3.4554     -2.0079
  3715.8500      9.4092   6480.6470      0.0000      3.5263     -1.9976
  3715.8000      9.4092   6480.6470      0.0000      3.5263     -2.0092
  3715.7500      9.3208   6532.1309      0.0000      3.5370     -2.0162
  3715.7000      9.3208   6566.6040      0.0000      3.5263     -2.0012
  3715.6500      9.3208   6566.6040      0.0000      3.5263     -2.0153
  3715.6000      9.3939   6585.1646      0.0000      3.5263     -2.0119
  3715.5500      9.3939   6585.1646      0.0000      3.5263     -2.0061
  3715.5000      9.3939   6602.0688      0.0000      3.4859     -2.0052
  3715.4500      9.3391   6623.9883      0.0000      3.5164     -2.0101
  3715.4000      9.3391   6623.9883      0.0000      3.5164     -2.0128
  3715.3500      9.3391   6659.9072      0.0000      3.4859     -2.0195
  3715.3000      9.3574   6710.1582      0.0000      3.4859     -2.0092
  3715.2500      9.3574   6710.1582      0.0000      3.4859     -2.0134
  3715.2000      9.3574   6757.9551      0.0000      3.4859     -2.0073
  3715.1500      9.3939   6799.4316      0.0000      3.4454     -2.0061
  3715.1000      9.3939   6799.4316      0.0000      3.4454     -1.9994
  3715.0500      9.3939   6841.3018      0.0000      3.5065     -2.0098
  3715.0000      9.3208   6867.4751      0.0000      3.5057     -2.0101
  3714.9500      9.3208   6867.4751      0.0000      3.5057     -2.0159
  3714.9000      9.3208   6862.2773      0.0000      3.5164     -2.0385
  3714.8500      9.3208   6836.2319      0.0000      3.4859     -2.2884
  3714.8000      9.3391   6836.2319      0.0000      3.4859     -1.7916
  3714.7500      9.3391   6787.1221      0.0000      3.4454     -1.4736
  3714.7000      9.3391   6700.7295      0.0000      3.4554     -1.4598
  3714.6500      9.3391   6700.7295      0.0000      3.4554     -0.8943
  3714.6000      9.3391   6598.9634      0.0000      3.5469     -2.0577
  3714.5500      9.3391   6514.7236      0.0000      3.4859     -1.7641
  3714.5000      9.3574   6514.7236      0.0000      3.4859     -2.4947
  3714.4500      9.3574   6449.3154      0.0000      3.4958     -1.4702
  3714.4000      9.3574   6404.0542      0.0000      3.4859     -1.9548
  3714.3500      9.4275   6404.0542      0.0000      3.4859     -1.9155
  3714.3000      9.4275   6395.4028      0.0000      3.4760     -1.9323
  3714.2500      9.4275   6417.8955      0.0000      3.4760     -2.0839
  3714.2000      9.3574   6417.8955      0.0000      3.4760     -1.9698
  3714.1500      9.3574   6452.0537      0.0000      3.5362     -1.9820
  3714.1000      9.3574   6492.3032      0.0000      3.4859     -2.0400
  3714.0500      9.3939   6492.3032      0.0000      3.4859     -1.9899
  3714.0000      9.3939   6528.6938      0.0000      3.5164     -2.0241
  3713.9500      9.3939   6528.6938      0.0000      3.5164     -2.0195
  3713.9000      9.4092   6552.1528      0.0000      3.5057     -2.0073
  3713.8500      9.4092   6577.7490      0.0000      3.4859     -2.0226
  3713.8000      9.4092   6577.7490      0.0000      3.4859     -1.9899
  3713.7500      9.3391   6614.6211      0.0000      3.4454     -2.0067
  3713.7000      9.3391   6650.1943      0.0000      3.4859     -2.0156
  3713.6500      9.3391   6650.1943      0.0000      3.4859     -2.0119
  3713.6000      9.3391   6679.3257      0.0000      3.4554     -1.9896
  3713.5500      9.4092   6702.7275      0.0000      3.5263     -2.0204
  3713.5000      9.4092   6702.7275      0.0000      3.5263     -1.9823
  3713.4500      9.4092   6713.1606      0.0000      3.4149     -1.9881
  3713.4000      9.3756   6714.8110      0.0000      3.4958     -1.9841
  3713.3500      9.3756   6714.8110      0.0000      3.4958     -1.9481
  3713.3000      9.3756   6718.8467      0.0000      3.4859     -1.6567
  3713.2500      9.3208   6714.5776      0.0000      3.4752     -1.9997
  3713.2000      9.3208   6714.5776      0.0000      3.4752     -2.0360
  3713.1500      9.3208   6690.3657      0.0000      3.5164     -2.1010
  3713.1000      9.3939   6658.4229      0.0000      3.4248     -2.1297
  3713.0500      9.3939   6658.4229      0.0000      3.4248     -1.9274
  3713.0000      9.3939   6628.8237      0.0000      3.4554     -2.1181
  3712.9500      9.3574   6603.1494      0.0000      3.5263     -1.9033
  3712.9000      9.3574   6603.1494      0.0000      3.5263     -2.0201
  3712.8500      9.3574   6589.8921      0.0000      3.4554     -2.0522
  3712.8000      9.3756   6582.8237      0.0000      3.4554     -1.7916
  3712.7500      9.3756   6582.8237      0.0000      3.4554     -2.1712
