~Version Information
VERS.                      2.0: CWLS Log ASCII Standard - VERSION 2.0
WRAP.                       NO: One line per depth step
~Well Information Block
STRT.M               3135.0500: START DEPTH
STOP.M               3039.9000: STOP DEPTH
STEP.M                 -0.0500: STEP
NULL.                -999.2500: NULL VALUE
COMP.                  Statoil: COMPANY
WELL.                15/9-F-12: WELL
FLD.                     Volve: FIELD
LOC.                          : LOCATION
SRVC.          Halliburton Logging Services: SERVICE COMPANY
DATE.          Wed Nov 26 21-01-09 2014: LOG DATE
UWI.                          : UNIQUE WELL ID
SECT.                         : SECTION
TOWN.                         : TOWNSHIP
RANG.                         : RANGE
API.                          : API#
OS.                           : OTHER SERVICES
PDAT.FT                       : PERMANENT DATUM
EEL.FT                        : ELEVATION
LMF.FT                        : LOG MEASURED FROM
DMF.FT                        : DRILLING MEASURED FROM
EKB.FT                        : KB
EDF.FT                        : DF
EGL.FT                        : GL
DATE1.                        : DATE1
RUN1.                         : RUN NUMBER
TDD1.FT                       : DEPTH DRILLER
TDL1.FT                       : DEPTH LOGGER
BLI1.FT                       : BOTTOM LOGGED INTERVAL
TLI1.FT                       : TOP LOG INTERVAL
CDD1.IN_FT                    : CASING DRILLER
CDL1.FT                       : CASING LOGGER
BS1.IN                        : BIT SIZE
DFT1.                         : TYPE FLUID IN HOLE
DFDV1.GM/C3_CP                : DENSITY/VISCOSITY
DFPL1.C3                      : PH/FLUID LOSS
MSS1.                         : SOURCE OF SAMPLE
RMT1.OHHM_DEGF                : RM@MEASURED TEMP
RMFT1.OHMM_DEGF                : RMF@MEASURED TEMP
RMCT1.OHMM_DEGF                : RMC@MEASURED TEMP
RMFS1.                        : SOURCE OF RMF/RMC
RMBT1.OHMM_DEGF                : RM@BHT
TCS1.                         : TIME CIRCULATION STOPPED
TLOB1.                        : TIME LOGGER ON BOTTOM
BHT1.DEGF                     : MAXIMUM RECORDED TEMPERATURE
LUN1.                         : EQUIPMENT NUMBER
LUL1.                         : LOCATION
ENGI1.                        : RECORDED BY
WITN1.                        : WITNESSED BY
~Curve Information Block
DEPT.M             0 000 00 00: Depth
LSPD.M/MIN                   0: Line Speed
LTEN.LB                      0: Surface Line Tension
MINMK.                       0: Minute Mark Ticks
HVOLTA.V                     0: Head Voltage Apparent
CCL.                         0: Casing Collar Locator
~Parameter Information Block
SRFTEMP.DEGC           10.0000: Surface Temperature
MudWgt.LB/GAL           8.5000: Mud Weight
CASETHCK.IN             6.1840: Casing Thickness
BITSIZE.IN              8.5000: Borehole I.D.
~A  Depth       LSPD        LTEN       MINMK       HVOLTA       CCL     
# ...
  3056.6500      9.3574   4174.1592      0.0000      3.5675     -2.0037
  3056.6000      9.3574   4174.3291      0.0000      3.5774     -2.0635
  3056.5500      9.3939   4171.2427      0.0000      3.5774     -1.9460
  3056.5000      9.3939   4171.2427      0.0000      3.5774     -2.0406
  3056.4500      9.3939   4168.2451      0.0000      3.5469     -2.0156
  3056.4000      9.3391   4169.8667      0.0000      3.5980     -2.0098
  3056.3500      9.3391   4169.8667      0.0000      3.5980     -2.0076
  3056.3000      9.3391   4173.1387      0.0000      3.5675     -2.0067
  3056.2500      9.3208   4179.4004      0.0000      3.5469     -2.0201
  3056.2000      9.3208   4179.4004      0.0000      3.5469     -1.9994
  3056.1500      9.3208   4187.1382      0.0000      3.5675     -2.0146
  3056.1000      9.3208   4183.4316      0.0000      3.5774     -2.0186
  3056.0500      9.3574   4183.4316      0.0000      3.5774     -1.9887
  3056.0000      9.3574   4168.1890      0.0000      3.5675     -2.0204
  3055.9500      9.3574   4157.0645      0.0000      3.5271     -2.0150
  3055.9000      9.3208   4157.0645      0.0000      3.5271     -2.0067
  3055.8500      9.3208   4152.7178      0.0000      3.5164     -2.0116
  3055.8000      9.3208   4150.9785      0.0000      3.5065     -2.0162
  3055.7500      9.3756   4150.9785      0.0000      3.5065     -2.0003
  3055.7000      9.3756   4157.0215      0.0000      3.5469     -2.0043
  3055.6500      9.3756   4168.1426      0.0000      3.5774     -2.0214
  3055.6000      9.3574   4168.1426      0.0000      3.5774     -2.0055
  3055.5500      9.3574   4177.0986      0.0000      3.5675     -2.0156
  3055.5000      9.3574   4188.2329      0.0000      3.5469     -2.0015
  3055.4500      9.3756   4188.2329      0.0000      3.5469     -2.0113
  3055.4000      9.3756   4198.4443      0.0000      3.5370     -2.0128
  3055.3500      9.3756   4197.6416      0.0000      3.5774     -2.0137
  3055.3000      9.3939   4197.6416      0.0000      3.5774     -2.0137
  3055.2500      9.3939   4193.8647      0.0000      3.5774     -2.0226
  3055.2000      9.3939   4195.9331      0.0000      3.5675     -2.0107
  3055.1500      9.3391   4195.9331      0.0000      3.5675     -1.9982
  3055.1000      9.3391   4196.9468      0.0000      3.5774     -2.0040
  3055.0500      9.3391   4196.9468      0.0000      3.5774     -2.0113
  3055.0000      9.3574   4197.8223      0.0000      3.5370     -2.0162
  3054.9500      9.3574   4203.6182      0.0000      3.5774     -2.0027
  3054.9000      9.3574   4203.6182      0.0000      3.5774     -2.0092
  3054.8500      9.3574   4205.6323      0.0000      3.5370     -2.0058
  3054.8000      9.3574   4202.1255      0.0000      3.5370     -2.0067
  3054.7500      9.3574   4202.1255      0.0000      3.5370     -2.0223
  3054.7000      9.3574   4200.4551      0.0000      3.5469     -2.0110
  3054.6500      9.3208   4195.9185      0.0000      3.5774     -1.9991
  3054.6000      9.3208   4195.9185      0.0000      3.5774     -2.0107
  3054.5500      9.3208   4186.2720      0.0000      3.5774     -2.0153
  3054.5000      9.3756   4179.3306      0.0000      3.5774     -2.0049
  3054.4500      9.3756   4179.3306      0.0000      3.5774     -2.0153
  3054.4000      9.3756   4173.5703      0.0000      3.5370     -2.0180
  3054.3500      9.3574   4163.9395      0.0000      3.5370     -1.9982
  3054.3000      9.3574   4163.9395      0.0000      3.5370     -2.0305
  3054.2500      9.3574   4155.3560      0.0000      3.5370     -2.0064
  3054.2000      9.3574   4149.9810      0.0000      3.5675     -2.0076
  3054.1500      9.3574   4149.9810      0.0000      3.5675     -2.0317
  3054.1000      9.3574   4143.0806      0.0000      3.5469     -2.0040
  3054.0500      9.4458   4137.6733      0.0000      3.5675     -1.9881
  3054.0000      9.4458   4137.6733      0.0000      3.5675     -2.0098
  3053.9500      9.4458   4139.8335      0.0000      3.5675     -2.0232
  3053.9000      9.3756   4146.5391      0.0000      3.5675     -1.9948
  3053.8500      9.3756   4146.5391      0.0000      3.5675     -2.0143
  3053.8000      9.3756   4154.0635      0.0000      3.5774     -1.9939
  3053.7500      9.4092   4163.6572      0.0000      3.5370     -2.0171
  3053.7000      9.4092   4163.6572      0.0000      3.5370     -2.0156
  3053.6500      9.4092   4173.4048      0.0000      3.5675     -2.0073
  3053.6000      9.3939   4178.8125      0.0000      3.5370     -2.0146
  3053.5500      9.3939   4178.8125      0.0000      3.5370     -2.0021
  3053.5000      9.3939   4181.0850      0.0000      3.5774     -2.0085
  3053.4500      9.3939   4181.0850      0.0000      3.5774     -2.0128
  3053.4000      9.3025   4180.9370      0.0000      3.5675     -2.0171
  3053.3500      9.3025   4171.9370      0.0000      3.5774     -2.0128
  3053.3000      9.3025   4171.9370      0.0000      3.5774     -2.0134
  3053.2500      9.3756   4156.5225      0.0000      3.5675     -2.0113
  3053.2000      9.3756   4148.0522      0.0000      3.5675     -2.0134
  3053.1500      9.3756   4148.0522      0.0000      3.5675     -2.0104
  3053.1000      9.3208   4148.5400      0.0000      3.5370     -2.0110
  3053.0500      9.3208   4153.9453      0.0000      3.5675     -2.0031
  3053.0000      9.3208   4153.9453      0.0000      3.5675     -2.0128
  3052.9500      9.3208   4168.1484      0.0000      3.6079     -2.0201
  3052.9000      9.3208   4186.1294      0.0000      3.5774     -2.0000
  3052.8500      9.3208   4186.1294      0.0000      3.5774     -2.0116
  3052.8000      9.3574   4195.7119      0.0000      3.5675     -1.9957
  3052.7500      9.3574   4202.8032      0.0000      3.5774     -2.0232
  3052.7000      9.3574   4202.8032      0.0000      3.5774     -2.0110
  3052.6500      9.3025   4214.9326      0.0000      3.5774     -2.0177
  3052.6000      9.3025   4220.6475      0.0000      3.5675     -2.0201
  3052.5500      9.3025   4220.6475      0.0000      3.5675     -2.0162
  3052.5000      9.3756   4215.2964      0.0000      3.5469     -2.0253
  3052.4500      9.3756   4206.3584      0.0000      3.6079     -1.9976
  3052.4000      9.3756   4206.3584      0.0000      3.6079     -2.0076
  3052.3500      9.3756   4192.9473      0.0000      3.5675     -2.0101
  3052.3000      9.3756   4179.5278      0.0000      3.5774     -2.0073
  3052.2500      9.3756   4179.5278      0.0000      3.5774     -1.9994
  3052.2000      9.3756   4181.8237      0.0000      3.5675     -2.0220
  3052.1500      9.3756   4201.5942      0.0000      3.5370     -2.0146
  3052.1000      9.3756   4201.5942      0.0000      3.5370     -2.0073
  3052.0500      9.3756   4228.9907      0.0000      3.5675     -2.0244
  3052.0000      9.4275   4255.9365      0.0000      3.5675     -2.0189
  3051.9500      9.4275   4255.9365      0.0000      3.5675     -2.0156
  3051.9000      9.4275   4266.6694      0.0000      3.5576     -2.0012
  3051.8500      9.3391   4266.6694      0.0000      3.5576     -2.0116
  3051.8000      9.3391   4250.9355      0.0000      3.5774     -2.0223
  3051.7500      9.3391   4223.4941      0.0000      3.5675     -2.0189
  3051.7000      9.3208   4223.4941      0.0000      3.5675     -2.0192
  3051.6500      9.3208   4199.4692      0.0000      3.5980     -2.0015
  3051.6000      9.3208   4181.1362      0.0000      3.5675     -2.0244
  3051.5500      9.3756   4181.1362      0.0000      3.5675     -2.0174
  3051.5000      9.3756   4175.6079      0.0000      3.5675     -2.0003
  3051.4500      9.3756   4185.9326      0.0000      3.5774     -2.0021
  3051.4000      9.2690   4185.9326      0.0000      3.5774     -2.0076
  3051.3500      9.2690   4202.4355      0.0000      3.5370     -2.0278
  3051.3000      9.2690   4221.9526      0.0000      3.5675     -2.0076
  3051.2500      9.3574   4221.9526      0.0000      3.5675     -2.0122
  3051.2000      9.3574   4243.5977      0.0000      3.5774     -1.9994
  3051.1500      9.3574   4255.2188      0.0000      3.5774     -2.0076
  3051.1000      9.3756   4255.2188      0.0000      3.5774     -2.0003
