~Version Information
VERS.                      2.0: CWLS Log ASCII Standard - VERSION 2.0
WRAP.                       NO: One line per depth step
~Well Information Block
STRT.M               3169.8000: START DEPTH
STOP.M               3077.9500: STOP DEPTH
STEP.M                 -0.0500: STEP
NULL.                -999.2500: NULL VALUE
COMP.                  Statoil: COMPANY
WELL.                15/9-F-12: WELL
FLD.                     Volve: FIELD
LOC.                          : LOCATION
SRVC.          Halliburton Logging Services: SERVICE COMPANY
DATE.          Wed Nov 26 07-41-16 2014: LOG DATE
UWI.                          : UNIQUE WELL ID
SECT.                         : SECTION
TOWN.                         : TOWNSHIP
RANG.                         : RANGE
API.                          : API#
OS.                           : OTHER SERVICES
PDAT.FT                       : PERMANENT DATUM
EEL.FT                        : ELEVATION
LMF.FT                        : LOG MEASURED FROM
DMF.FT                        : DRILLING MEASURED FROM
EKB.FT                        : KB
EDF.FT                        : DF
EGL.FT                        : GL
DATE1.                        : DATE1
RUN1.                         : RUN NUMBER
TDD1.FT                       : DEPTH DRILLER
TDL1.FT                       : DEPTH LOGGER
BLI1.FT                       : BOTTOM LOGGED INTERVAL
TLI1.FT                       : TOP LOG INTERVAL
CDD1.IN_FT                    : CASING DRILLER
CDL1.FT                       : CASING LOGGER
BS1.IN                        : BIT SIZE
DFT1.                         : TYPE FLUID IN HOLE
DFDV1.GM/C3_CP                : DENSITY/VISCOSITY
DFPL1.C3                      : PH/FLUID LOSS
MSS1.                         : SOURCE OF SAMPLE
RMT1.OHHM_DEGF                : RM@MEASURED TEMP
RMFT1.OHMM_DEGF                : RMF@MEASURED TEMP
RMCT1.OHMM_DEGF                : RMC@MEASURED TEMP
RMFS1.                        : SOURCE OF RMF/RMC
RMBT1.OHMM_DEGF                : RM@BHT
TCS1.                         : TIME CIRCULATION STOPPED
TLOB1.                        : TIME LOGGER ON BOTTOM
BHT1.DEGF                     : MAXIMUM RECORDED TEMPERATURE
LUN1.                         : EQUIPMENT NUMBER
LUL1.                         : LOCATION
ENGI1.                        : RECORDED BY
WITN1.                        : WITNESSED BY
~Curve Information Block
DEPT.M             0 000 00 00: Depth
LSPD.M/MIN                   0: Line Speed
LTEN.LB                      0: Surface Line Tension
MINMK.                       0: Minute Mark Ticks
GR.GAPI                      0: Gamma Ray
CCL.                         0: Casing Collar Locator
ACCX.                        0: X Axis Accelerometer
ACCY.                        0: Y Axis Accelerometer
ACCZ.                        0: Z Axis Accelerometer
RB.DEG                       0: Relative Bearing
DEVI.DEG                     0: Deviation
TOTG.GEE                     0: Total G
RBRef.DEG                    0: RB Reference
IntTemp.DEGF                 0: Internal Electronics Temperature
~Parameter Information Block
~A  Depth       LSPD        LTEN       MINMK         GR         CCL         ACCX        ACCY        ACCZ         RB         DEVI        TOTG       RBRef      IntTemp   
# ...
  3136.2000      9.6256   4685.4946      0.0000     28.6342    365.0000  -1137.4000   2667.2000   2067.3000    113.0953      0.0253   3561.0903   -113.0953    224.4917
  3136.1500      9.6256   4711.5430      0.0000     27.8823    373.0000  -1139.8000   2698.2000   2056.2000    112.9006      0.0251   3578.7407   -112.9006    224.4882
  3136.1000      9.6256   4701.1382      0.0000     27.0678    392.0000  -1134.4000   2700.7000   2055.3000    112.7843      0.0252   3578.3938   -112.7843    224.4889
  3136.0500      9.6774   4675.0669      0.0000     26.3786    354.0000  -1124.5000   2704.5000   2063.3999    112.5770      0.0251   3582.7979   -112.5770    224.4889
  3136.0000      9.6774   4697.4561      0.0000     26.8798    392.0000  -1123.8000   2706.8999   2130.6001    112.5463      0.0248   3623.4915   -112.5463    224.4931
  3135.9500      9.6774   4715.4355      0.0000     27.6317    368.0000  -1118.7000   2706.3999   2140.3000    112.4579      0.0248   3627.2544   -112.4579    224.5058
  3135.9000      9.6439   4676.5347      0.0000     28.3209    370.0000  -1124.0000   2703.7000   2138.2000    112.5740      0.0248   3625.6404   -112.5740    224.5269
  3135.8500      9.6439   4602.5371      0.0000     29.3861    349.0000  -1128.4000   2702.6001   2141.8999    112.6617      0.0248   3628.3701   -112.6617    224.5536
  3135.8000      9.6439   4551.1108      0.0000     30.8272    361.0000  -1133.3000   2708.0000   2139.6001    112.7094      0.0248   3632.5640   -112.7094    224.5712
  3135.7500      9.6439   4538.9722      0.0000     32.6443    365.0000  -1138.8000   2705.0000   2134.3000    112.8310      0.0248   3628.9292   -112.8310    224.5901
  3135.7000      9.6591   4537.7593      0.0000     33.8348    366.0000  -1134.5000   2703.8000   2135.3999    112.7627      0.0248   3627.3347   -112.7627    224.5944
  3135.6500      9.6591   4511.3623      0.0000     35.2759    373.0000  -1132.4000   2706.2000   2137.3999    112.7067      0.0248   3629.6455   -112.7067    224.5796
  3135.6000      9.6591   4482.2310      0.0000     36.0904    383.0000  -1133.5000   2718.8999   2165.5000    112.6311      0.0246   3656.0400   -112.6311    224.5634
  3135.5500      9.6957   4474.1836      0.0000     36.0904    395.0000  -1137.8000   2737.0000   2201.8999    112.5732      0.0244   3692.4412   -112.5732    224.5557
  3135.5000      9.6957   4511.0352      0.0000     34.8373    359.0000  -1140.2000   2696.7000   2216.5000    112.9193      0.0245   3672.2090   -112.9193    224.5487
  3135.4500      9.6957   4563.3794      0.0000     35.6518    382.0000  -1112.8000   2708.1001   2233.2000    112.3385      0.0244   3682.2971   -112.3385    224.5536
  3135.4000      9.6439   4587.6875      0.0000     37.6568    353.0000  -1116.9000   2704.6001   2237.2000    112.4388      0.0244   3683.3940   -112.4388    224.5670
  3135.3500      9.6439   4573.5356      0.0000     39.4112    347.0000  -1138.5000   2732.6001   2250.3000    112.6184      0.0242   3718.4856   -112.6184    224.5817
  3135.3000      9.6439   4565.9761      0.0000     41.7922    377.0000  -1203.1000   2696.8000   2240.6001    114.0427      0.0243   3706.8137   -114.0427    224.5944
  3135.2500      9.6439   4605.3398      0.0000     44.2985    398.0000  -1252.1000   2663.1001   2184.5000    115.1813      0.0246   3664.9553   -115.1813    224.5986
  3135.2000      9.6439   4639.0308      0.0000     45.4889    373.0000  -1335.7000   2665.0000   2132.0000    116.6201      0.0246   3664.9343   -116.6201    224.5965
  3135.1500      9.6439   4667.4165      0.0000     45.4263    357.0000  -1343.6000   2683.8000   2106.8999    116.5941      0.0245   3667.0249   -116.5941    224.5937
  3135.1000      9.6439   4660.9829      0.0000     44.3611    371.0000  -1409.8000   2637.2000   2072.5000    118.1282      0.0247   3638.3535   -118.1282    224.5909
  3135.0500      9.6439   4667.3760      0.0000     43.4839    351.0000  -1438.7000   2604.1001   2070.1001    118.9195      0.0248   3624.4324   -118.9195    224.5887
  3135.0000      9.6439   4707.5361      0.0000     41.0403    349.0000  -1434.0000   2596.6001   2051.0000    118.9101      0.0250   3606.2847   -118.9101    224.5909
  3134.9500      9.5890   4774.6748      0.0000     38.5967    365.0000  -1426.0000   2604.7000   2051.8000    118.6995      0.0249   3609.4072   -118.6995    224.5937
  3134.9000      9.5890   4787.1040      0.0000     38.2207    372.0000  -1368.0000   2594.3000   2087.2000    117.8031      0.0250   3599.7529   -117.8031    224.5965
  3134.8500      9.5890   4765.3936      0.0000     39.4112    386.0000  -1366.0000   2579.2000   2105.3000    117.9067      0.0250   3598.6826   -117.9067    224.5993
  3134.8000      9.5890   4715.5195      0.0000     42.5441    379.0000  -1370.2000   2577.0000   2129.1001    117.9997      0.0249   3612.6782   -117.9997    224.5993
  3134.7500      9.6439   4660.9219      0.0000     47.8699    357.0000  -1376.0000   2582.6001   2124.6001    118.0485      0.0249   3616.2307   -118.0485    224.5937
  3134.7000      9.6439   4630.5698      0.0000     51.0028    364.0000  -1378.4000   2592.3999   2137.8000    117.9999      0.0248   3631.9021   -117.9999    224.5951
  3134.6500      9.6439   4579.4019      0.0000     53.0078    363.0000  -1376.5000   2591.8000   2134.6001    117.9727      0.0248   3628.8699   -117.9727    224.5972
  3134.6000      9.6439   4507.9683      0.0000     52.9451    356.0000  -1370.8000   2589.8999   2149.7000    117.8917      0.0248   3634.2654   -117.8917    224.5958
  3134.5500      9.6439   4459.7241      0.0000     50.4388    361.0000  -1355.2000   2596.8000   2172.0000    117.5588      0.0247   3646.5767   -117.5588    224.6063
  3134.5000      9.6439   4465.9453      0.0000     47.3060    372.0000  -1353.9000   2605.2000   2174.8000    117.4605      0.0246   3653.7471   -117.4605    224.6148
  3134.4500      9.6439   4504.2212      0.0000     44.7371    371.0000  -1344.4000   2611.3999   2186.3000    117.2403      0.0246   3661.5200   -117.2403    224.6162
  3134.4000      9.6439   4538.2563      0.0000     41.1656    375.0000  -1335.2000   2613.8000   2203.8999    117.0592      0.0245   3670.4065   -117.0592    224.6105
  3134.3500      9.6439   4543.7075      0.0000     39.2859    375.0000  -1329.8000   2610.7000   2213.0000    116.9927      0.0245   3671.7151   -116.9927    224.6063
  3134.3000      9.6439   4553.5166      0.0000     36.0904    357.0000  -1363.7000   2637.1001   2224.3000    117.3444      0.0243   3709.6475   -117.3444    224.5979
  3134.2500      9.6774   4601.9326      0.0000     33.4588    378.0000  -1384.1000   2627.2000   2198.3000    117.7818      0.0244   3694.6497   -117.7818    224.5810
  3134.2000      9.6774   4661.9678      0.0000     32.6443    372.0000  -1398.0000   2635.5000   2184.2000    117.9437      0.0243   3697.4307   -117.9437    224.5747
  3134.1500      9.6774   4705.9673      0.0000     31.0778    424.0000  -1380.1000   2642.6001   2162.0000    117.5759      0.0244   3682.6968   -117.5759    224.5684
  3134.1000      9.6073   4710.0386      0.0000     31.3911    433.0000  -1367.5000   2649.0000   2129.3000    117.3043      0.0246   3663.4924   -117.3043    224.5634
  3134.0500      9.6073   4696.9780      0.0000     34.8999    341.0000  -1385.8000   2675.2000   2123.1001    117.3849      0.0244   3685.7415   -117.3849    224.5578
  3134.0000      9.6073   4728.7065      0.0000     36.9049    368.0000  -1354.5000   2680.6001   2099.3000    116.8074      0.0246   3664.3345   -116.8074    224.5550
  3133.9500      9.5890   4765.7095      0.0000     37.0929    371.0000  -1326.5000   2669.7000   2071.6001    116.4215      0.0248   3630.2104   -116.4215    224.5613
  3133.9000      9.5890   4794.4478      0.0000     38.6593    366.0000  -1306.7000   2679.7000   2078.8000    115.9952      0.0248   3634.5105   -115.9952    224.5677
  3133.8500      9.5890   4741.4307      0.0000     37.8448    367.0000  -1316.3000   2666.5000   2114.1001    116.2729      0.0247   3648.6008   -116.2729    224.5754
