~Version Information
VERS.                      2.0: CWLS Log ASCII Standard - VERSION 2.0
WRAP.                       NO: One line per depth step
~Well Information Block
STRT.M               3779.9000: START DEPTH
STOP.M               3659.5000: STOP DEPTH
STEP.M                 -0.0500: STEP
NULL.                -999.2500: NULL VALUE
COMP.                  STATOIL: COMPANY
WELL.               15/9-F-1-C: WELL
FLD.                     VOLVE: FIELD
LOC.                          : LOCATION
SRVC.          Halliburton Logging Services: SERVICE COMPANY
DATE.          Wed Dec 03 07-18-31 2014: LOG DATE
UWI.                          : UNIQUE WELL ID
CTRY.                   NORWAY: COUNTRY
SECT.                         : SECTION
TOWN.                         : TOWNSHIP
RANG.                         : RANGE
API.                          : API#
OS.                   --NONE--: OTHER SERVICES
PDAT.FT                  M.S.L: PERMANENT DATUM
EEL.FT                   54.9M: ELEVATION
LMF.FT                   R.K.B: LOG MEASURED FROM
DMF.FT                   R.K.B: DRILLING MEASURED FROM
EKB.FT                   54.9M: KB
EDF.FT                   54.9M: DF
EGL.FT                    -91M: GL
DATE1.         03-DEC-14 @ 05:47: DATE1
RUN1.                    1 & 2: RUN NUMBER
TDD1.FT                  4094M: DEPTH DRILLER
TDL1.FT                  3782M: DEPTH LOGGER
BLI1.FT                  3772M: BOTTOM LOGGED INTERVAL
TLI1.FT                  3572M: TOP LOG INTERVAL
CDD1.IN_FT                    : CASING DRILLER
CDL1.FT                       : CASING LOGGER
BS1.IN                    8.5": BIT SIZE
DFT1.                SEA WATER: TYPE FLUID IN HOLE
DFDV1.GM/C3_CP          1.03SG: DENSITY/VISCOSITY
DFPL1.C3                      : PH/FLUID LOSS
MSS1.                         : SOURCE OF SAMPLE
RMT1.OHHM_DEGF                : RM@MEASURED TEMP
RMFT1.OHMM_DEGF                : RMF@MEASURED TEMP
RMCT1.OHMM_DEGF                : RMC@MEASURED TEMP
RMFS1.                        : SOURCE OF RMF/RMC
RMBT1.OHMM_DEGF                : RM@BHT
TCS1.                         : TIME CIRCULATION STOPPED
TLOB1.                36 HOURS: TIME LOGGER ON BOTTOM
BHT1.DEGF                 FULL: MAXIMUM RECORDED TEMPERATURE
LUN1.                 12030699: EQUIPMENT NUMBER
LUL1.                   NORWAY: LOCATION
ENGI1.              C.JAMIESON: RECORDED BY
WITN1.                A.ALBAWI: WITNESSED BY
~Curve Information Block
DEPT.M             0 000 00 00: Depth
LSPD.M/MIN                   0: Line Speed
LTEN.LB                      0: Surface Line Tension
MINMK.                       0: Minute Mark Ticks
HVOLTA.V                     0: Head Voltage Apparent
CCL.                         0: Casing Collar Locator
~Parameter Information Block
SRFTEMP.DEGC           12.0000: Surface Temperature
MudWgt.LB/GAL           8.5600: Mud Weight
CASETHCK.IN             0.4530: Casing Thickness
BITSIZE.IN             12.2500: Borehole I.D.
~Other Information
TOOL STRING DEPLOYED BY ALTUS INTERVENTION WIRELINE UNIT ON 7/16" CABLE
CABLE HEAD BUILT BY ALTUS
LOG CORRELATED TO SHLUMBERGER 4.5" HSD OX POWER JET PULS DATED 09.APRIL.2014
CORRELATION LOG IS SHALLOWER BY 1.4M, DEPTH SHIFTED 1.4M DOWN AS PER
CLIENTS REQUEST.
4.655" HSC GUN 10 AND 350 DEGREE PHASING, 39 GR MILLENIUM, 4 SHOTS PER FOOT.
ATTEMPT WAS MADE TO RUN 4 GUNS IN ONE STRING BUT AT 3600M PICK UP WEIGHT 
WAS TOO HIGH TO CONTINUE.  CLIENT D4ECIDED TO SPLIT UP ONTO TWO RUNS.
RUN #1 CCL TO TOP SHOT 3.25 M, CCL STOP DEPT: 3729.75 M
PERFORATION INTERVAL 3733M - 3742.6M
RUN #2 CCL TO TOP SHOT 3.25 M, CCL STOP DEPT: 3711.75 M
PERFORATION INTERVAL 3715M - 3724.6M

~A  Depth       LSPD        LTEN       MINMK       HVOLTA       CCL     
# ...
  3707.1000      9.3025   6719.8145      0.0000      3.4554     -2.0418
  3707.0500      9.3025   6709.4980      0.0000      3.4454     -2.0262
  3707.0000      9.2842   6685.4961      0.0000      3.5057     -1.9979
  3706.9500      9.2842   6685.4961      0.0000      3.5057     -2.1416
  3706.9000      9.2842   6644.4893      0.0000      3.4851     -1.9420
  3706.8500      9.3574   6605.2275      0.0000      3.4859     -2.1587
  3706.8000      9.3574   6605.2275      0.0000      3.4859     -1.9789
  3706.7500      9.3574   6573.1987      0.0000      3.5065     -1.9585
  3706.7000      9.3756   6547.8745      0.0000      3.5263     -2.1541
  3706.6500      9.3756   6547.8745      0.0000      3.5263     -1.7809
  3706.6000      9.3756   6545.6860      0.0000      3.4760     -2.4871
  3706.5500      9.4275   6567.2827      0.0000      3.5164     -2.2283
  3706.5000      9.4275   6567.2827      0.0000      3.5164     -1.7757
  3706.4500      9.4275   6585.7705      0.0000      3.4958     -2.1837
  3706.4000      9.4640   6594.3242      0.0000      3.5057     -2.0281
  3706.3500      9.4640   6594.3242      0.0000      3.5057     -1.9875
  3706.3000      9.4640   6606.6519      0.0000      3.4454     -2.0729
  3706.2500      9.3756   6615.1128      0.0000      3.4653     -2.1532
  3706.2000      9.3756   6615.1128      0.0000      3.4653     -1.7324
  3706.1500      9.3756   6608.1899      0.0000      3.5362     -3.4111
  3706.1000      9.3756   6593.5957      0.0000      3.5156     -1.4125
  3706.0500      9.3756   6593.5957      0.0000      3.5156     -1.9060
  3706.0000      9.3756   6571.6899      0.0000      3.5057     -2.1419
  3705.9500      9.3756   6571.6899      0.0000      3.5057     -2.2646
  3705.9000      9.3939   6535.5371      0.0000      3.4454     -2.0739
  3705.8500      9.3939   6495.1484      0.0000      3.5065     -2.1035
  3705.8000      9.3939   6495.1484      0.0000      3.5065     -2.0403
  3705.7500      9.3574   6460.5420      0.0000      3.5164     -2.1984
  3705.7000      9.3574   6428.6572      0.0000      3.4454     -1.9158
  3705.6500      9.3574   6428.6572      0.0000      3.4454     -2.0467
  3705.6000      9.4640   6407.6294      0.0000      3.4958     -2.0259
  3705.5500      9.4640   6408.8823      0.0000      3.5263     -1.9677
  3705.5000      9.4640   6408.8823      0.0000      3.5263     -2.0510
  3705.4500      9.4275   6424.9619      0.0000      3.4859     -2.0043
  3705.4000      9.4275   6451.9521      0.0000      3.4958     -2.0266
  3705.3500      9.4275   6451.9521      0.0000      3.4958     -1.9908
  3705.3000      9.3939   6492.1108      0.0000      3.4653     -2.0089
  3705.2500      9.3939   6532.0215      0.0000      3.4653     -2.0146
  3705.2000      9.3939   6532.0215      0.0000      3.4653     -2.0113
  3705.1500      9.4275   6562.8091      0.0000      3.5156     -1.9976
  3705.1000      9.4275   6589.9805      0.0000      3.5057     -2.0150
  3705.0500      9.4275   6589.9805      0.0000      3.5057     -2.0162
  3705.0000      9.4275   6602.2466      0.0000      3.4760     -1.9847
  3704.9500      9.3208   6586.2856      0.0000      3.4760     -2.0070
  3704.9000      9.3208   6586.2856      0.0000      3.4760     -1.9786
  3704.8500      9.3208   6561.0352      0.0000      3.4958     -2.0342
  3704.8000      9.3574   6538.7500      0.0000      3.5164     -2.0403
  3704.7500      9.3574   6538.7500      0.0000      3.5164     -2.1227
  3704.7000      9.3574   6503.4897      0.0000      3.4958     -1.9600
  3704.6500      9.3939   6460.6045      0.0000      3.5164     -1.9911
  3704.6000      9.3939   6460.6045      0.0000      3.5164     -1.9670
  3704.5500      9.3939   6430.0605      0.0000      3.5263     -2.0409
  3704.5000      9.3391   6405.3149      0.0000      3.5362     -2.2637
  3704.4500      9.3391   6405.3149      0.0000      3.5362     -2.2197
  3704.4000      9.3391   6386.7979      0.0000      3.5362     -2.0143
  3704.3500      9.4092   6386.7979      0.0000      3.5362     -2.0299
  3704.3000      9.4092   6398.9951      0.0000      3.5164     -1.9942
  3704.2500      9.4092   6438.2891      0.0000      3.4454     -2.0110
  3704.2000      9.3756   6438.2891      0.0000      3.4454     -1.9631
  3704.1500      9.3756   6472.7119      0.0000      3.4958     -2.0275
  3704.1000      9.3756   6491.3721      0.0000      3.5362     -2.0122
  3704.0500      9.3939   6491.3721      0.0000      3.5362     -1.9976
  3704.0000      9.3939   6498.9971      0.0000      3.5164     -2.0208
  3703.9500      9.3939   6495.5483      0.0000      3.5065     -1.9408
  3703.9000      9.3939   6495.5483      0.0000      3.5065     -1.9094
  3703.8500      9.4458   6487.3477      0.0000      3.4348     -2.2728
  3703.8000      9.4458   6480.1533      0.0000      3.4851     -2.1184
  3703.7500      9.4458   6480.1533      0.0000      3.4851     -2.3751
  3703.7000      9.4092   6472.4946      0.0000      3.5263     -1.7607
  3703.6500      9.4092   6473.0254      0.0000      3.4958     -1.9768
  3703.6000      9.4092   6473.0254      0.0000      3.4958     -1.8615
  3703.5500      9.4275   6489.3076      0.0000      3.5263     -1.9832
  3703.5000      9.4275   6510.6724      0.0000      3.4554     -1.9637
  3703.4500      9.4275   6510.6724      0.0000      3.4554     -1.9915
  3703.4000      9.4458   6536.2407      0.0000      3.5263     -2.0140
  3703.3500      9.4458   6579.2183      0.0000      3.4958     -2.0122
  3703.3000      9.4458   6579.2183      0.0000      3.4958     -2.0021
  3703.2500      9.3391   6629.3813      0.0000      3.4859     -2.0110
  3703.2000      9.3391   6669.0991      0.0000      3.4851     -2.0137
  3703.1500      9.3391   6669.0991      0.0000      3.4851     -2.0153
  3703.1000      9.3756   6706.5146      0.0000      3.5156     -2.0009
  3703.0500      9.3756   6741.9253      0.0000      3.4554     -2.0131
  3703.0000      9.3756   6741.9253      0.0000      3.4554     -2.0101
  3702.9500      9.3574   6755.4146      0.0000      3.4958     -2.0076
  3702.9000      9.3574   6749.1895      0.0000      3.5164     -1.9603
  3702.8500      9.3574   6749.1895      0.0000      3.5164     -2.0360
  3702.8000      9.3025   6737.2881      0.0000      3.4149     -1.9774
  3702.7500      9.3025   6737.2881      0.0000      3.4149     -2.0241
  3702.7000      9.3025   6711.8999      0.0000      3.5362     -1.8935
  3702.6500      9.3025   6672.7715      0.0000      3.4958     -1.8718
  3702.6000      9.3756   6672.7715      0.0000      3.4958     -1.7559
  3702.5500      9.3756   6637.9556      0.0000      3.5866     -1.7928
  3702.5000      9.3756   6600.3198      0.0000      3.5568     -1.5981
  3702.4500      9.3574   6600.3198      0.0000      3.5568     -1.3488
  3702.4000      9.3574   6545.2314      0.0000      3.4859     -1.8538
  3702.3500      9.3574   6495.7192      0.0000      3.4653     -1.9887
  3702.3000      9.4275   6495.7192      0.0000      3.4653     -2.3937
  3702.2500      9.4275   6476.6392      0.0000      3.4859     -1.7165
  3702.2000      9.4275   6482.2378      0.0000      3.5057     -2.0626
  3702.1500      9.4458   6482.2378      0.0000      3.5057     -2.0894
  3702.1000      9.4458   6504.2959      0.0000      3.4752     -2.0055
  3702.0500      9.4458   6536.4370      0.0000      3.5461     -2.0159
  3702.0000      9.3939   6536.4370      0.0000      3.5461     -2.0113
  3701.9500      9.3939   6566.4150      0.0000      3.5461     -2.0156
  3701.9000      9.3939   6599.2813      0.0000      3.4248     -2.0040
  3701.8500      9.4275   6599.2813      0.0000      3.4248     -2.0183
  3701.8000      9.4275   6644.3149      0.0000      3.4447     -2.0110
  3701.7500      9.4275   6682.4922      0.0000      3.4859     -2.0027
  3701.7000      9.3391   6682.4922      0.0000      3.4859     -2.0159
  3701.6500      9.3391   6701.7754      0.0000      3.4454     -2.0156
  3701.6000      9.3391   6722.5503      0.0000      3.4760     -1.9310
  3701.5500      9.2842   6722.5503      0.0000      3.4760     -2.0137
