~Version Information
VERS.                      2.0: CWLS Log ASCII Standard - VERSION 2.0
WRAP.                       NO: One line per depth step
~Well Information Block
STRT.M               3135.0500: START DEPTH
STOP.M               3039.9000: STOP DEPTH
STEP.M                 -0.0500: STEP
NULL.                -999.2500: NULL VALUE
COMP.                  Statoil: COMPANY
WELL.                15/9-F-12: WELL
FLD.                     Volve: FIELD
LOC.                          : LOCATION
SRVC.          Halliburton Logging Services: SERVICE COMPANY
DATE.          Wed Nov 26 21-01-09 2014: LOG DATE
UWI.                          : UNIQUE WELL ID
SECT.                         : SECTION
TOWN.                         : TOWNSHIP
RANG.                         : RANGE
API.                          : API#
OS.                           : OTHER SERVICES
PDAT.FT                       : PERMANENT DATUM
EEL.FT                        : ELEVATION
LMF.FT                        : LOG MEASURED FROM
DMF.FT                        : DRILLING MEASURED FROM
EKB.FT                        : KB
EDF.FT                        : DF
EGL.FT                        : GL
DATE1.                        : DATE1
RUN1.                         : RUN NUMBER
TDD1.FT                       : DEPTH DRILLER
TDL1.FT                       : DEPTH LOGGER
BLI1.FT                       : BOTTOM LOGGED INTERVAL
TLI1.FT                       : TOP LOG INTERVAL
CDD1.IN_FT                    : CASING DRILLER
CDL1.FT                       : CASING LOGGER
BS1.IN                        : BIT SIZE
DFT1.                         : TYPE FLUID IN HOLE
DFDV1.GM/C3_CP                : DENSITY/VISCOSITY
DFPL1.C3                      : PH/FLUID LOSS
MSS1.                         : SOURCE OF SAMPLE
RMT1.OHHM_DEGF                : RM@MEASURED TEMP
RMFT1.OHMM_DEGF                : RMF@MEASURED TEMP
RMCT1.OHMM_DEGF                : RMC@MEASURED TEMP
RMFS1.                        : SOURCE OF RMF/RMC
RMBT1.OHMM_DEGF                : RM@BHT
TCS1.                         : TIME CIRCULATION STOPPED
TLOB1.                        : TIME LOGGER ON BOTTOM
BHT1.DEGF                     : MAXIMUM RECORDED TEMPERATURE
LUN1.                         : EQUIPMENT NUMBER
LUL1.                         : LOCATION
ENGI1.                        : RECORDED BY
WITN1.                        : WITNESSED BY
~Curve Information Block
DEPT.M             0 000 00 00: Depth
LSPD.M/MIN                   0: Line Speed
LTEN.LB                      0: Surface Line Tension
MINMK.                       0: Minute Mark Ticks
HVOLTA.V                     0: Head Voltage Apparent
CCL.                         0: Casing Collar Locator
~Parameter Information Block
SRFTEMP.DEGC           10.0000: Surface Temperature
MudWgt.LB/GAL           8.5000: Mud Weight
CASETHCK.IN             6.1840: Casing Thickness
BITSIZE.IN              8.5000: Borehole I.D.
~A  Depth       LSPD        LTEN       MINMK       HVOLTA       CCL     
# ...
  3095.8500      9.3574   4312.8237      0.0000      3.5370     -2.0064
  3095.8000      9.3025   4308.2285      0.0000      3.5774     -2.0122
  3095.7500      9.3025   4308.2285      0.0000      3.5774     -2.0021
  3095.7000      9.3025   4300.2524      0.0000      3.6179     -2.0397
  3095.6500      9.3025   4298.1587      0.0000      3.5675     -1.9518
  3095.6000      9.3025   4298.1587      0.0000      3.5675     -2.0143
  3095.5500      9.3025   4293.1670      0.0000      3.5774     -2.0104
  3095.5000      9.3208   4283.6230      0.0000      3.5774     -2.0125
  3095.4500      9.3208   4283.6230      0.0000      3.5774     -2.0031
  3095.4000      9.3208   4273.4526      0.0000      3.5980     -2.0107
  3095.3500      9.2690   4259.1675      0.0000      3.5469     -2.0073
  3095.3000      9.2690   4259.1675      0.0000      3.5469     -1.9991
  3095.2500      9.2690   4245.3652      0.0000      3.5469     -2.0122
  3095.2000      9.3208   4241.4077      0.0000      3.5774     -2.0186
  3095.1500      9.3208   4241.4077      0.0000      3.5774     -2.0122
  3095.1000      9.3208   4243.5293      0.0000      3.5774     -2.0003
  3095.0500      9.3391   4248.8721      0.0000      3.5774     -2.0159
  3095.0000      9.3391   4248.8721      0.0000      3.5774     -2.0101
  3094.9500      9.3391   4261.0908      0.0000      3.5469     -2.0146
  3094.9000      9.3025   4272.5010      0.0000      3.6079     -2.0192
  3094.8500      9.3025   4272.5010      0.0000      3.6079     -2.0089
  3094.8000      9.3025   4273.5557      0.0000      3.5469     -2.0195
  3094.7500      9.3025   4273.5557      0.0000      3.5469     -1.9951
  3094.7000      9.3574   4269.3247      0.0000      3.5774     -2.0000
  3094.6500      9.3574   4265.9209      0.0000      3.5774     -2.0192
  3094.6000      9.3574   4265.9209      0.0000      3.5774     -2.0031
  3094.5500      9.3574   4261.4556      0.0000      3.5774     -2.0113
  3094.5000      9.3574   4257.2485      0.0000      3.5469     -2.0110
  3094.4500      9.3574   4257.2485      0.0000      3.5469     -2.0034
  3094.4000      9.3025   4257.1816      0.0000      3.5469     -2.0085
  3094.3500      9.3025   4256.8198      0.0000      3.5675     -2.0208
  3094.3000      9.3025   4256.8198      0.0000      3.5675     -2.0186
  3094.2500      9.4092   4251.5527      0.0000      3.5980     -2.0070
  3094.2000      9.4092   4246.8608      0.0000      3.5774     -2.0177
  3094.1500      9.4092   4246.8608      0.0000      3.5774     -2.0134
  3094.1000      9.3391   4248.0220      0.0000      3.6179     -2.0034
  3094.0500      9.3391   4254.4229      0.0000      3.5164     -2.0146
  3094.0000      9.3391   4254.4229      0.0000      3.5164     -2.0156
  3093.9500      9.3208   4266.8003      0.0000      3.5370     -2.0070
  3093.9000      9.3208   4283.6641      0.0000      3.5271     -2.0180
  3093.8500      9.3208   4283.6641      0.0000      3.5271     -2.0159
  3093.8000      9.3574   4298.3032      0.0000      3.5370     -2.0110
  3093.7500      9.3574   4312.1665      0.0000      3.5370     -2.0009
  3093.7000      9.3574   4312.1665      0.0000      3.5370     -2.0183
  3093.6500      9.2690   4327.9546      0.0000      3.5774     -2.0015
  3093.6000      9.2690   4331.8301      0.0000      3.5675     -2.0153
  3093.5500      9.2690   4331.8301      0.0000      3.5675     -1.9976
  3093.5000      9.2690   4315.8232      0.0000      3.5774     -2.0085
  3093.4500      9.3574   4291.3936      0.0000      3.5774     -2.0198
  3093.4000      9.3574   4291.3936      0.0000      3.5774     -1.9988
  3093.3500      9.3574   4263.2383      0.0000      3.5370     -2.0177
  3093.3000      9.3939   4233.7456      0.0000      3.5675     -1.9985
  3093.2500      9.3939   4233.7456      0.0000      3.5675     -2.0021
  3093.2000      9.3939   4219.3545      0.0000      3.5873     -2.0217
  3093.1500      9.3756   4219.3545      0.0000      3.5873     -2.0015
  3093.1000      9.3756   4225.5762      0.0000      3.5774     -2.0070
  3093.0500      9.3756   4241.0449      0.0000      3.5469     -2.0089
  3093.0000      9.4458   4241.0449      0.0000      3.5469     -2.0076
  3092.9500      9.4458   4263.2544      0.0000      3.6079     -2.0122
  3092.9000      9.4458   4288.9258      0.0000      3.5774     -2.0082
  3092.8500      9.3208   4288.9258      0.0000      3.5774     -2.0049
  3092.8000      9.3208   4300.1108      0.0000      3.6179     -2.0018
  3092.7500      9.3208   4288.4902      0.0000      3.5675     -2.0165
  3092.7000      9.3208   4288.4902      0.0000      3.5675     -1.9924
  3092.6500      9.3208   4260.5352      0.0000      3.5774     -2.0513
  3092.6000      9.3208   4222.0132      0.0000      3.5774     -1.9887
  3092.5500      9.3391   4222.0132      0.0000      3.5774     -2.0702
  3092.5000      9.3391   4185.9561      0.0000      3.5469     -1.9887
  3092.4500      9.3391   4169.4805      0.0000      3.5774     -1.9789
  3092.4000      9.2690   4169.4805      0.0000      3.5774     -1.9921
  3092.3500      9.2690   4173.8047      0.0000      3.5774     -2.0082
  3092.3000      9.2690   4191.6011      0.0000      3.5774     -2.0150
  3092.2500      9.2690   4191.6011      0.0000      3.5774     -2.0095
  3092.2000      9.3391   4219.3882      0.0000      3.5675     -2.0201
  3092.1500      9.3391   4245.8569      0.0000      3.6079     -2.0076
  3092.1000      9.3391   4245.8569      0.0000      3.6079     -2.0098
  3092.0500      9.3025   4255.8701      0.0000      3.5675     -2.0082
  3092.0000      9.3025   4252.3877      0.0000      3.6079     -2.0043
  3091.9500      9.3025   4252.3877      0.0000      3.6079     -2.0208
  3091.9000      9.2842   4243.3120      0.0000      3.5873     -1.9985
  3091.8500      9.2842   4223.3813      0.0000      3.5774     -2.0128
  3091.8000      9.2842   4223.3813      0.0000      3.5774     -2.0128
  3091.7500      9.3939   4193.8325      0.0000      3.5973     -2.0037
  3091.7000      9.3939   4167.8364      0.0000      3.5675     -2.0067
  3091.6500      9.3939   4167.8364      0.0000      3.5675     -2.0043
  3091.6000      9.3574   4152.0068      0.0000      3.5774     -2.0012
  3091.5500      9.3574   4152.0068      0.0000      3.5774     -2.0186
  3091.5000      9.3574   4149.9307      0.0000      3.5469     -2.0131
  3091.4500      9.4092   4167.0903      0.0000      3.5774     -2.0131
  3091.4000      9.4092   4167.0903      0.0000      3.5774     -2.0092
  3091.3500      9.4092   4195.3691      0.0000      3.5469     -2.0116
  3091.3000      9.4092   4219.0210      0.0000      3.5873     -2.0003
  3091.2500      9.4092   4219.0210      0.0000      3.5873     -2.0156
  3091.2000      9.4092   4237.2007      0.0000      3.5774     -2.0052
  3091.1500      9.3025   4250.4478      0.0000      3.5675     -2.0003
  3091.1000      9.3025   4250.4478      0.0000      3.5675     -2.0211
  3091.0500      9.3025   4247.3999      0.0000      3.6079     -2.0027
  3091.0000      9.3025   4228.4004      0.0000      3.5774     -2.0143
  3090.9500      9.3208   4228.4004      0.0000      3.5774     -2.0018
  3090.9000      9.3208   4207.1665      0.0000      3.5469     -2.0092
  3090.8500      9.3208   4189.4282      0.0000      3.5675     -2.0177
  3090.8000      9.2842   4189.4282      0.0000      3.5675     -2.0119
  3090.7500      9.2842   4180.9009      0.0000      3.5774     -2.0037
  3090.7000      9.2842   4192.7710      0.0000      3.5774     -2.0067
  3090.6500      9.3025   4192.7710      0.0000      3.5774     -2.0186
  3090.6000      9.3025   4220.9185      0.0000      3.5774     -2.0055
  3090.5500      9.3025   4250.5430      0.0000      3.5774     -2.0000
  3090.5000      9.3756   4250.5430      0.0000      3.5774     -2.0125
  3090.4500      9.3756   4275.6260      0.0000      3.6079     -2.0119
  3090.4000      9.3756   4287.3604      0.0000      3.5774     -2.0073
  3090.3500      9.3391   4287.3604      0.0000      3.5774     -2.0034
  3090.3000      9.3391   4274.2559      0.0000      3.5774     -2.0125
