~Version Information
VERS.                      2.0: CWLS Log ASCII Standard - VERSION 2.0
WRAP.                       NO: One line per depth step
~Well Information Block
STRT.M               3169.9500: START DEPTH
STOP.M               3076.7000: STOP DEPTH
STEP.M                 -0.0500: STEP
NULL.                -999.2500: NULL VALUE
COMP.                  Statoil: COMPANY
WELL.                15/9-F-12: WELL
FLD.                     Volve: FIELD
LOC.                          : LOCATION
SRVC.          Halliburton Logging Services: SERVICE COMPANY
DATE.          Wed Nov 26 07-57-02 2014: LOG DATE
UWI.                          : UNIQUE WELL ID
SECT.                         : SECTION
TOWN.                         : TOWNSHIP
RANG.                         : RANGE
API.                          : API#
OS.                           : OTHER SERVICES
PDAT.FT                       : PERMANENT DATUM
EEL.FT                        : ELEVATION
LMF.FT                        : LOG MEASURED FROM
DMF.FT                        : DRILLING MEASURED FROM
EKB.FT                        : KB
EDF.FT                        : DF
EGL.FT                        : GL
DATE1.                        : DATE1
RUN1.                         : RUN NUMBER
TDD1.FT                       : DEPTH DRILLER
TDL1.FT                       : DEPTH LOGGER
BLI1.FT                       : BOTTOM LOGGED INTERVAL
TLI1.FT                       : TOP LOG INTERVAL
CDD1.IN_FT                    : CASING DRILLER
CDL1.FT                       : CASING LOGGER
BS1.IN                        : BIT SIZE
DFT1.                         : TYPE FLUID IN HOLE
DFDV1.GM/C3_CP                : DENSITY/VISCOSITY
DFPL1.C3                      : PH/FLUID LOSS
MSS1.                         : SOURCE OF SAMPLE
RMT1.OHHM_DEGF                : RM@MEASURED TEMP
RMFT1.OHMM_DEGF                : RMF@MEASURED TEMP
RMCT1.OHMM_DEGF                : RMC@MEASURED TEMP
RMFS1.                        : SOURCE OF RMF/RMC
RMBT1.OHMM_DEGF                : RM@BHT
TCS1.                         : TIME CIRCULATION STOPPED
TLOB1.                        : TIME LOGGER ON BOTTOM
BHT1.DEGF                     : MAXIMUM RECORDED TEMPERATURE
LUN1.                         : EQUIPMENT NUMBER
LUL1.                         : LOCATION
ENGI1.                        : RECORDED BY
WITN1.                        : WITNESSED BY
~Curve Information Block
DEPT.M             0 000 00 00: Depth
LSPD.M/MIN                   0: Line Speed
LTEN.LB                      0: Surface Line Tension
MINMK.                       0: Minute Mark Ticks
GR.GAPI                      0: Gamma Ray
CCL.                         0: Casing Collar Locator
ACCX.                        0: X Axis Accelerometer
ACCY.                        0: Y Axis Accelerometer
ACCZ.                        0: Z Axis Accelerometer
RB.DEG                       0: Relative Bearing
DEVI.DEG                     0: Deviation
TOTG.GEE                     0: Total G
RBRef.DEG                    0: RB Reference
IntTemp.DEGF                 0: Internal Electronics Temperature
~Parameter Information Block
~A  Depth       LSPD        LTEN       MINMK         GR         CCL         ACCX        ACCY        ACCZ         RB         DEVI        TOTG       RBRef      IntTemp   
# ...
  3145.9500      3.3924   4527.4644      0.0000     39.2859    359.0000   2731.5000   1146.5000   2155.0000     22.7694      0.0246   3663.2744    -22.7694    225.7602
  3145.9000      3.3924   4623.4380      0.0000     40.2258    371.0000   2724.5000   1144.2000   2178.3999     22.7808      0.0245   3671.1741    -22.7808    225.7510
  3145.8500      3.3376   4676.0234      0.0000     48.1832    370.0000   2722.0000   1142.6000   2187.3999     22.7710      0.0245   3674.1716    -22.7710    225.7377
  3145.8000      2.8926   4598.6948      0.0000     52.5692    369.0000   2737.0000   1130.8000   2188.0000     22.4481      0.0244   3682.0132    -22.4481    225.7236
  3145.7500      2.5512   4559.6831      0.0000     49.7496    365.0000   2731.5000   1122.2000   2152.3000     22.3346      0.0246   3654.1511    -22.3346    225.7187
  3145.7000      2.3744   4669.4761      0.0000     53.9476    361.0000   2733.7000   1127.5000   2133.2000     22.4134      0.0247   3646.2190    -22.4134    225.7236
  3145.6500      2.3378   4752.1538      0.0000     51.0028    383.0000   2730.3000   1153.4000   2153.3000     22.9014      0.0246   3663.5461    -22.9014    225.7398
  3145.6000      2.5695   4662.9897      0.0000     44.1105    328.0000   2730.7000   1146.0000   2120.5000     22.7665      0.0247   3642.3286    -22.7665    225.7524
  3145.5500      2.6761   4508.7432      0.0000     40.8523    329.0000   2721.8999   1153.5000   2097.1001     22.9665      0.0248   3624.5178    -22.9665    225.7602
  3145.5000      2.8560   4490.4707      0.0000     37.9075    379.0000   2711.8999   1159.5000   2073.5000     23.1496      0.0250   3605.3076    -23.1496    225.7637
  3145.4500      2.9261   4667.1406      0.0000     37.5315    399.0000   2704.2000   1187.7000   2121.6001     23.7114      0.0247   3636.5527    -23.7114    225.7454
  3145.4000      2.9627   4773.3779      0.0000     43.4213    363.0000   2694.3999   1174.3000   2138.3999     23.5490      0.0248   3634.7661    -23.5490    225.7285
  3145.3500      2.8743   4723.4878      0.0000     48.6845    367.0000   2685.2000   1150.3000   2112.1001     23.1896      0.0250   3604.7825    -23.1896    225.7159
  3145.3000      2.5878   4672.7207      0.0000     42.5441    369.0000   2693.7000   1151.5000   2131.1001     23.1457      0.0248   3622.6453    -23.1457    225.7095
  3145.2500      2.1062   4658.3511      0.0000     36.6543    367.0000   2708.7000   1119.0000   2165.8999     22.4462      0.0247   3644.2200    -22.4462    225.7109
  3145.2000      1.9629   4750.5454      0.0000     31.3285    402.0000   2713.8999   1124.8000   2205.3999     22.5120      0.0245   3673.4475    -22.5120    225.7229
  3145.1500      2.0696   4829.5981      0.0000     34.8999    387.0000   2725.7000   1112.6000   2169.3999     22.2047      0.0246   3656.9954    -22.2047    225.7398
  3145.1000      0.3200   4456.9565      0.0000     28.2583    363.0000   2734.7000   1087.5000   2136.3000     21.6861      0.0247   3636.6218    -21.6861    225.7623
  3145.0500      0.8565   4367.1226      0.0000     24.4362    365.0000   2740.7000   1090.7000   2167.8999     21.7008      0.0246   3660.7175    -21.7008    225.7770
  3145.0000      0.3566   4409.1460      0.0000     31.6418    366.0000   2733.7000   1108.2000   2151.5000     22.0669      0.0247   3651.0513    -22.0669    225.7855
  3144.9500      1.2131   4450.6348      0.0000     27.2558    367.0000   2725.3999   1126.2000   2146.3999     22.4516      0.0247   3647.3501    -22.4516    225.7862
  3144.9000      1.4630   4631.3062      0.0000     34.8373    368.0000   2728.8000   1113.4000   2092.3000     22.1964      0.0249   3614.3782    -22.1964    225.7834
  3144.8500      1.9629   4632.1133      0.0000     33.0829    365.0000   2711.3999   1116.6000   2118.5000     22.3827      0.0249   3617.5305    -22.3827    225.7805
  3144.8000      2.1062   4535.0088      0.0000     27.8197    366.0000   2700.6001   1129.3000   2148.2000     22.6930      0.0248   3630.8845    -22.6930    225.7784
  3144.7500      2.7493   4491.7612      0.0000     21.8673    366.0000   2719.0000   1147.3000   2115.2000     22.8776      0.0248   3630.8855    -22.8776    225.7869
  3144.7000      2.4811   4634.9106      0.0000     35.5891    366.0000   2714.3000   1125.6000   2105.5000     22.5234      0.0249   3614.9038    -22.5234    225.7960
  3144.6500      2.4110   4772.8569      0.0000     33.5841    369.0000   2713.8000   1134.3000   2104.2000     22.6837      0.0249   3616.4907    -22.6837    225.8009
  3144.6000      0.3200   4255.4448      0.0000     22.9951    374.0000   2724.3999   1152.6000   2143.1001     22.9316      0.0246   3652.9055    -22.9316    225.8009
  3144.5500      0.8565   4163.4302      0.0000     31.7044    367.0000   2724.3999   1147.5000   2140.8999     22.8405      0.0247   3650.0088    -22.8405    225.7876
  3144.5000      1.5179   4192.7354      0.0000     30.1380    366.0000   2705.8999   1185.4000   2114.2000     23.6573      0.0248   3632.7551    -23.6573    225.7728
  3144.4500      2.1580   4309.9907      0.0000     26.6919    382.0000   2705.2000   1188.1000   2119.6001     23.7107      0.0248   3636.2607    -23.7107    225.7665
  3144.4000      2.7310   4393.3203      0.0000     29.9500    363.0000   2681.3000   1242.7000   2194.8999     24.8663      0.0244   3681.2034    -24.8663    225.7503
  3144.3500      3.1242   4399.5771      0.0000     36.4663    365.0000   2673.8999   1242.4000   2205.8999     24.9215      0.0244   3682.2944    -24.9215    225.7433
  3144.3000      3.1242   4371.2373      0.0000     38.9726    369.0000   2645.3999   1282.2000   2183.1001     25.8590      0.0246   3661.7078    -25.8590    225.7405
  3144.2500      3.4442   4333.2993      0.0000     31.7044    369.0000   2608.2000   1333.4000   2173.8000     27.0777      0.0247   3647.7485    -27.0777    225.7299
  3144.2000      3.8191   4438.6567      0.0000     20.4888    366.0000   2591.7000   1369.5000   2212.2000     27.8528      0.0245   3672.3655    -27.8528    225.7187
  3144.1500      3.8191   4503.3931      0.0000     18.4838    526.0000   2567.3999   1430.3000   2155.8000     29.1222      0.0247   3644.8284    -29.1222    225.7102
  3144.1000      4.3373   4519.1309      0.0000     21.4913    525.0000   2570.7000   1425.0000   2118.2000     29.0006      0.0248   3622.9675    -29.0006    225.7025
  3144.0500      4.3373   4430.8989      0.0000     27.3184    527.0000   2558.5000   1449.7000   2108.1001     29.5368      0.0249   3618.2368    -29.5368    225.7025
  3144.0000      4.7671   4408.6455      0.0000     31.2658    529.0000   2553.3999   1450.1000   2107.5000     29.5927      0.0249   3614.4429    -29.5927    225.7180
  3143.9500      5.1237   4512.1221      0.0000     29.9500    526.0000   2567.6001   1448.8000   2131.3000     29.4344      0.0247   3637.8608    -29.4344    225.7377
  3143.9000      5.1237   4558.8159      0.0000     26.7545    526.0000   2573.7000   1446.0000   2116.2000     29.3289      0.0248   3632.2375    -29.3289    225.7609
  3143.8500      5.5352   4552.1445      0.0000     23.9976    529.0000   2581.6001   1414.7000   2133.2000     28.7225      0.0248   3635.4609    -28.7225    225.7876
  3143.8000      5.5352   4507.8677      0.0000     23.1204    536.0000   2556.8999   1427.9000   2150.8999     29.1812      0.0248   3633.5940    -29.1812    225.7981
  3143.7500      5.4803   4530.3623      0.0000     24.6868    518.0000   2548.8999   1454.5000   2135.5000     29.7107      0.0248   3629.4382    -29.7107    225.8023
  3143.7000      5.4803   4614.1533      0.0000     26.1279    526.0000   2544.2000   1462.0000   2141.1001     29.8834      0.0248   3632.4519    -29.8834    225.7960
  3143.6500      5.4986   4636.2173      0.0000     27.0678    513.0000   2521.3000   1481.7000   2114.8999     30.4416      0.0249   3609.0430    -30.4416    225.7813
  3143.6000      5.4986   4446.6904      0.0000     28.3209    525.0000   2508.8999   1493.9000   2094.7000     30.7713      0.0250   3593.6172    -30.7713    225.7791
