~Version Information
VERS.                      2.0: CWLS Log ASCII Standard - VERSION 2.0
WRAP.                       NO: One line per depth step
~Well Information Block
STRT.M               3135.0500: START DEPTH
STOP.M               3039.9000: STOP DEPTH
STEP.M                 -0.0500: STEP
NULL.                -999.2500: NULL VALUE
COMP.                  Statoil: COMPANY
WELL.                15/9-F-12: WELL
FLD.                     Volve: FIELD
LOC.                          : LOCATION
SRVC.          Halliburton Logging Services: SERVICE COMPANY
DATE.          Wed Nov 26 21-01-09 2014: LOG DATE
UWI.                          : UNIQUE WELL ID
SECT.                         : SECTION
TOWN.                         : TOWNSHIP
RANG.                         : RANGE
API.                          : API#
OS.                           : OTHER SERVICES
PDAT.FT                       : PERMANENT DATUM
EEL.FT                        : ELEVATION
LMF.FT                        : LOG MEASURED FROM
DMF.FT                        : DRILLING MEASURED FROM
EKB.FT                        : KB
EDF.FT                        : DF
EGL.FT                        : GL
DATE1.                        : DATE1
RUN1.                         : RUN NUMBER
TDD1.FT                       : DEPTH DRILLER
TDL1.FT                       : DEPTH LOGGER
BLI1.FT                       : BOTTOM LOGGED INTERVAL
TLI1.FT                       : TOP LOG INTERVAL
CDD1.IN_FT                    : CASING DRILLER
CDL1.FT                       : CASING LOGGER
BS1.IN                        : BIT SIZE
DFT1.                         : TYPE FLUID IN HOLE
DFDV1.GM/C3_CP                : DENSITY/VISCOSITY
DFPL1.C3                      : PH/FLUID LOSS
MSS1.                         : SOURCE OF SAMPLE
RMT1.OHHM_DEGF                : RM@MEASURED TEMP
RMFT1.OHMM_DEGF                : RMF@MEASURED TEMP
RMCT1.OHMM_DEGF                : RMC@MEASURED TEMP
RMFS1.                        : SOURCE OF RMF/RMC
RMBT1.OHMM_DEGF                : RM@BHT
TCS1.                         : TIME CIRCULATION STOPPED
TLOB1.                        : TIME LOGGER ON BOTTOM
BHT1.DEGF                     : MAXIMUM RECORDED TEMPERATURE
LUN1.                         : EQUIPMENT NUMBER
LUL1.                         : LOCATION
ENGI1.                        : RECORDED BY
WITN1.                        : WITNESSED BY
~Curve Information Block
DEPT.M             0 000 00 00: Depth
LSPD.M/MIN                   0: Line Speed
LTEN.LB                      0: Surface Line Tension
MINMK.                       0: Minute Mark Ticks
HVOLTA.V                     0: Head Voltage Apparent
CCL.                         0: Casing Collar Locator
~Parameter Information Block
SRFTEMP.DEGC           10.0000: Surface Temperature
MudWgt.LB/GAL           8.5000: Mud Weight
CASETHCK.IN             6.1840: Casing Thickness
BITSIZE.IN              8.5000: Borehole I.D.
~A  Depth       LSPD        LTEN       MINMK       HVOLTA       CCL     
# ...
  3101.4500      9.2690   4236.7192      0.0000      3.5774     -2.0031
  3101.4000      9.2690   4236.7192      0.0000      3.5774     -2.0058
  3101.3500      9.2690   4238.0918      0.0000      3.5469     -2.0165
  3101.3000      9.2690   4239.0879      0.0000      3.5675     -2.0153
  3101.2500      9.3574   4239.0879      0.0000      3.5675     -2.0015
  3101.2000      9.3574   4244.5376      0.0000      3.5774     -2.0140
  3101.1500      9.3574   4244.5376      0.0000      3.5774     -2.0165
  3101.1000      9.2690   4251.5391      0.0000      3.5774     -2.0259
  3101.0500      9.2690   4253.0518      0.0000      3.5370     -2.0134
  3101.0000      9.2690   4253.0518      0.0000      3.5370     -2.0125
  3100.9500      9.3391   4251.1309      0.0000      3.5774     -2.0128
  3100.9000      9.3391   4247.6782      0.0000      3.5675     -2.0238
  3100.8500      9.3391   4247.6782      0.0000      3.5675     -2.0235
  3100.8000      9.3391   4239.6577      0.0000      3.5675     -2.0085
  3100.7500      9.3391   4230.4814      0.0000      3.5980     -2.0034
  3100.7000      9.3391   4230.4814      0.0000      3.5980     -2.0128
  3100.6500      9.3391   4227.8442      0.0000      3.5774     -2.0125
  3100.6000      9.3025   4230.2759      0.0000      3.5469     -2.0128
  3100.5500      9.3025   4230.2759      0.0000      3.5469     -2.0085
  3100.5000      9.3025   4231.8535      0.0000      3.5774     -2.0119
  3100.4500      9.3574   4232.0044      0.0000      3.5774     -2.0159
  3100.4000      9.3574   4232.0044      0.0000      3.5774     -2.0232
  3100.3500      9.3574   4228.6890      0.0000      3.5980     -2.0018
  3100.3000      9.3025   4220.7231      0.0000      3.5774     -2.0244
  3100.2500      9.3025   4220.7231      0.0000      3.5774     -2.0073
  3100.2000      9.3025   4217.3579      0.0000      3.5469     -2.0125
  3100.1500      9.2690   4223.7227      0.0000      3.5774     -2.0146
  3100.1000      9.2690   4223.7227      0.0000      3.5774     -2.0089
  3100.0500      9.2690   4230.3071      0.0000      3.5469     -2.0201
  3100.0000      9.2842   4232.9873      0.0000      3.5774     -2.0131
  3099.9500      9.2842   4232.9873      0.0000      3.5774     -2.0192
  3099.9000      9.2842   4236.5581      0.0000      3.5469     -2.0092
  3099.8500      9.2324   4236.0205      0.0000      3.5675     -2.0116
  3099.8000      9.2324   4236.0205      0.0000      3.5675     -2.0244
  3099.7500      9.2324   4229.2837      0.0000      3.5774     -2.0024
  3099.7000      9.3025   4227.6240      0.0000      3.5675     -2.0198
  3099.6500      9.3025   4227.6240      0.0000      3.5675     -2.0119
  3099.6000      9.3025   4230.3354      0.0000      3.5774     -2.0082
  3099.5500      9.3574   4230.3354      0.0000      3.5774     -1.9960
  3099.5000      9.3574   4229.1631      0.0000      3.5774     -2.0107
  3099.4500      9.3574   4231.0859      0.0000      3.5774     -2.0024
  3099.4000      9.3574   4231.0859      0.0000      3.5774     -2.0171
  3099.3500      9.3391   4238.6089      0.0000      3.5774     -2.0131
  3099.3000      9.3391   4241.8340      0.0000      3.5675     -2.0162
  3099.2500      9.3391   4241.8340      0.0000      3.5675     -2.0214
  3099.2000      9.4275   4244.6050      0.0000      3.5774     -2.0143
  3099.1500      9.4275   4252.7939      0.0000      3.5675     -2.0052
  3099.1000      9.4275   4252.7939      0.0000      3.5675     -2.0140
  3099.0500      9.3391   4254.5186      0.0000      3.6079     -2.0116
  3099.0000      9.3391   4247.6782      0.0000      3.5370     -2.0241
  3098.9500      9.3391   4247.6782      0.0000      3.5370     -2.0061
  3098.9000      9.2842   4244.5879      0.0000      3.5675     -2.0189
  3098.8500      9.2842   4245.2197      0.0000      3.5774     -2.0040
  3098.8000      9.2842   4245.2197      0.0000      3.5774     -2.0037
  3098.7500      9.3391   4247.2173      0.0000      3.5774     -2.0122
  3098.7000      9.3391   4252.8423      0.0000      3.6079     -2.0052
  3098.6500      9.3391   4252.8423      0.0000      3.6079     -2.0092
  3098.6000      9.2507   4254.2280      0.0000      3.5370     -2.0098
  3098.5500      9.2507   4248.2173      0.0000      3.6079     -2.0082
  3098.5000      9.2507   4248.2173      0.0000      3.6079     -2.0195
  3098.4500      9.3208   4245.0391      0.0000      3.5774     -2.0131
  3098.4000      9.3208   4244.1973      0.0000      3.6079     -1.9963
  3098.3500      9.3208   4244.1973      0.0000      3.6079     -2.0070
  3098.3000      9.3025   4236.1074      0.0000      3.5774     -2.0113
  3098.2500      9.3025   4224.7505      0.0000      3.5774     -2.0095
  3098.2000      9.3025   4224.7505      0.0000      3.5774     -1.9976
  3098.1500      9.2507   4218.0210      0.0000      3.5774     -2.0211
  3098.1000      9.2507   4214.4517      0.0000      3.5675     -2.0067
  3098.0500      9.2507   4214.4517      0.0000      3.5675     -2.0247
  3098.0000      9.3574   4213.8462      0.0000      3.6079     -2.0162
  3097.9500      9.3574   4213.8462      0.0000      3.6079     -2.0073
  3097.9000      9.3574   4216.1074      0.0000      3.5675     -2.0174
  3097.8500      9.3574   4215.7563      0.0000      3.6079     -2.0241
  3097.8000      9.3574   4215.7563      0.0000      3.6079     -2.0006
  3097.7500      9.3574   4212.5957      0.0000      3.5774     -2.0110
  3097.7000      9.3574   4212.5796      0.0000      3.5271     -2.0076
  3097.6500      9.3756   4212.5796      0.0000      3.5271     -2.0137
  3097.6000      9.3756   4216.4775      0.0000      3.5370     -2.0143
  3097.5500      9.3756   4220.9199      0.0000      3.5774     -2.0024
  3097.5000      9.4275   4220.9199      0.0000      3.5774     -2.0018
  3097.4500      9.4275   4227.3989      0.0000      3.5675     -2.0012
  3097.4000      9.4275   4237.0854      0.0000      3.5774     -2.0146
  3097.3500      9.3574   4237.0854      0.0000      3.5774     -2.0058
  3097.3000      9.3574   4244.3804      0.0000      3.5675     -2.0037
  3097.2500      9.3574   4247.8145      0.0000      3.5774     -2.0082
  3097.2000      9.3208   4247.8145      0.0000      3.5774     -1.9988
  3097.1500      9.3208   4250.8892      1.0000      3.5774     -2.0217
  3097.1000      9.3208   4249.8750      0.0000      3.6179     -2.0098
  3097.0500      9.3208   4249.8750      0.0000      3.6179     -2.0107
  3097.0000      9.3208   4243.0806      0.0000      3.5774     -2.0232
  3096.9500      9.3208   4239.4141      0.0000      3.5271     -2.0015
  3096.9000      9.2842   4239.4141      0.0000      3.5271     -2.0159
  3096.8500      9.2842   4239.2129      0.0000      3.5469     -2.0003
  3096.8000      9.2842   4234.3491      0.0000      3.5675     -2.0085
  3096.7500      9.3208   4234.3491      0.0000      3.5675     -2.0031
  3096.7000      9.3208   4231.8096      0.0000      3.6079     -2.0333
  3096.6500      9.3208   4239.9829      0.0000      3.5774     -2.0211
  3096.6000      9.3208   4239.9829      0.0000      3.5774     -2.0333
  3096.5500      9.3208   4250.9004      0.0000      3.5774     -2.0000
  3096.5000      9.3208   4262.7207      0.0000      3.5774     -1.9884
  3096.4500      9.3208   4262.7207      0.0000      3.5774     -1.9994
  3096.4000      9.3208   4279.0933      0.0000      3.5774     -2.0165
  3096.3500      9.3208   4279.0933      0.0000      3.5774     -2.0250
  3096.3000      9.3208   4289.8315      0.0000      3.5774     -2.0183
  3096.2500      9.3391   4290.8433      0.0000      3.5675     -2.0012
  3096.2000      9.3391   4290.8433      0.0000      3.5675     -2.0211
  3096.1500      9.3391   4292.4082      0.0000      3.5774     -2.0211
  3096.1000      9.3208   4294.6636      0.0000      3.5164     -2.0101
  3096.0500      9.3208   4294.6636      0.0000      3.5164     -1.9976
  3096.0000      9.3208   4295.7808      0.0000      3.5675     -2.0146
  3095.9500      9.3574   4304.1323      0.0000      3.5873     -2.0049
  3095.9000      9.3574   4304.1323      0.0000      3.5873     -2.0168
