~Version Information
VERS.                      2.0: CWLS Log ASCII Standard - VERSION 2.0
WRAP.                       NO: One line per depth step
~Well Information Block
STRT.M               3135.0500: START DEPTH
STOP.M               3039.9000: STOP DEPTH
STEP.M                 -0.0500: STEP
NULL.                -999.2500: NULL VALUE
COMP.                  Statoil: COMPANY
WELL.                15/9-F-12: WELL
FLD.                     Volve: FIELD
LOC.                          : LOCATION
SRVC.          Halliburton Logging Services: SERVICE COMPANY
DATE.          Wed Nov 26 21-01-09 2014: LOG DATE
UWI.                          : UNIQUE WELL ID
SECT.                         : SECTION
TOWN.                         : TOWNSHIP
RANG.                         : RANGE
API.                          : API#
OS.                           : OTHER SERVICES
PDAT.FT                       : PERMANENT DATUM
EEL.FT                        : ELEVATION
LMF.FT                        : LOG MEASURED FROM
DMF.FT                        : DRILLING MEASURED FROM
EKB.FT                        : KB
EDF.FT                        : DF
EGL.FT                        : GL
DATE1.                        : DATE1
RUN1.                         : RUN NUMBER
TDD1.FT                       : DEPTH DRILLER
TDL1.FT                       : DEPTH LOGGER
BLI1.FT                       : BOTTOM LOGGED INTERVAL
TLI1.FT                       : TOP LOG INTERVAL
CDD1.IN_FT                    : CASING DRILLER
CDL1.FT                       : CASING LOGGER
BS1.IN                        : BIT SIZE
DFT1.                         : TYPE FLUID IN HOLE
DFDV1.GM/C3_CP                : DENSITY/VISCOSITY
DFPL1.C3                      : PH/FLUID LOSS
MSS1.                         : SOURCE OF SAMPLE
RMT1.OHHM_DEGF                : RM@MEASURED TEMP
RMFT1.OHMM_DEGF                : RMF@MEASURED TEMP
RMCT1.OHMM_DEGF                : RMC@MEASURED TEMP
RMFS1.                        : SOURCE OF RMF/RMC
RMBT1.OHMM_DEGF                : RM@BHT
TCS1.                         : TIME CIRCULATION STOPPED
TLOB1.                        : TIME LOGGER ON BOTTOM
BHT1.DEGF                     : MAXIMUM RECORDED TEMPERATURE
LUN1.                         : EQUIPMENT NUMBER
LUL1.                         : LOCATION
ENGI1.                        : RECORDED BY
WITN1.                        : WITNESSED BY
~Curve Information Block
DEPT.M             0 000 00 00: Depth
LSPD.M/MIN                   0: Line Speed
LTEN.LB                      0: Surface Line Tension
MINMK.                       0: Minute Mark Ticks
HVOLTA.V                     0: Head Voltage Apparent
CCL.                         0: Casing Collar Locator
~Parameter Information Block
SRFTEMP.DEGC           10.0000: Surface Temperature
MudWgt.LB/GAL           8.5000: Mud Weight
CASETHCK.IN             6.1840: Casing Thickness
BITSIZE.IN              8.5000: Borehole I.D.
~A  Depth       LSPD        LTEN       MINMK       HVOLTA       CCL     
# ...
  3084.6500      9.3208   4097.3740      0.0000      3.5675     -2.0021
  3084.6000      9.2842   4057.0349      0.0000      3.5873     -2.0092
  3084.5500      9.2842   4057.0349      0.0000      3.5873     -2.0131
  3084.5000      9.2842   4055.7532      0.0000      3.5774     -2.0241
  3084.4500      9.3939   4087.2646      0.0000      3.5469     -2.0009
  3084.4000      9.3939   4087.2646      0.0000      3.5469     -1.9979
  3084.3500      9.3939   4130.0654      0.0000      3.5774     -2.0104
  3084.3000      9.4640   4167.5483      0.0000      3.5774     -2.0110
  3084.2500      9.4640   4167.5483      0.0000      3.5774     -2.0073
  3084.2000      9.4640   4202.8179      0.0000      3.5774     -1.9957
  3084.1500      9.4640   4232.6304      0.0000      3.5370     -2.0015
  3084.1000      9.3756   4232.6304      0.0000      3.5370     -2.0064
  3084.0500      9.3756   4243.4995      0.0000      3.5469     -2.0076
  3084.0000      9.3756   4236.0430      0.0000      3.5774     -2.0247
  3083.9500      9.3939   4236.0430      0.0000      3.5774     -2.0067
  3083.9000      9.3939   4218.7642      0.0000      3.5370     -2.0092
  3083.8500      9.3939   4195.4634      0.0000      3.5675     -2.0232
  3083.8000      9.3391   4195.4634      0.0000      3.5675     -2.0143
  3083.7500      9.3391   4175.5674      0.0000      3.5774     -2.0092
  3083.7000      9.3391   4175.5674      0.0000      3.5774     -1.9994
  3083.6500      9.2842   4169.8022      0.0000      3.5774     -2.0134
  3083.6000      9.2842   4175.9365      0.0000      3.5675     -2.0012
  3083.5500      9.2842   4175.9365      0.0000      3.5675     -2.0204
  3083.5000      9.4092   4191.6362      0.0000      3.6079     -2.0122
  3083.4500      9.4092   4220.0444      0.0000      3.5675     -2.0067
  3083.4000      9.4092   4220.0444      0.0000      3.5675     -2.0052
  3083.3500      9.3208   4251.0400      0.0000      3.5774     -2.0125
  3083.3000      9.3208   4269.5508      0.0000      3.5469     -2.0034
  3083.2500      9.3208   4269.5508      0.0000      3.5469     -2.0128
  3083.2000      9.3025   4275.9697      0.0000      3.5675     -2.0003
  3083.1500      9.3025   4273.3711      0.0000      3.5675     -2.0143
  3083.1000      9.3025   4273.3711      0.0000      3.5675     -2.0128
  3083.0500      9.3025   4258.6836      0.0000      3.5774     -2.0043
  3083.0000      9.3025   4238.8560      0.0000      3.5774     -2.0192
  3082.9500      9.3025   4238.8560      0.0000      3.5774     -2.0174
  3082.9000      9.2507   4225.6948      0.0000      3.5469     -1.9969
  3082.8500      9.2507   4218.4707      0.0000      3.5774     -2.0021
  3082.8000      9.2507   4218.4707      0.0000      3.5774     -1.9927
  3082.7500      9.2507   4217.5527      0.0000      3.5774     -2.0183
  3082.7000      9.4092   4229.7378      0.0000      3.5774     -2.0113
  3082.6500      9.4092   4229.7378      0.0000      3.5774     -2.0009
  3082.6000      9.4092   4247.8018      0.0000      3.5469     -2.0143
  3082.5500      9.3756   4261.1880      0.0000      3.5469     -2.0024
  3082.5000      9.3756   4261.1880      0.0000      3.5469     -2.0159
  3082.4500      9.3756   4274.0488      0.0000      3.5675     -2.0070
  3082.4000      9.3756   4285.6401      0.0000      3.5675     -2.0137
  3082.3500      9.3756   4285.6401      0.0000      3.5675     -2.0055
  3082.3000      9.3756   4286.1016      0.0000      3.5675     -2.0180
  3082.2500      9.3756   4278.4185      0.0000      3.5469     -2.0049
  3082.2000      9.3756   4278.4185      0.0000      3.5469     -2.0214
  3082.1500      9.3756   4267.4746      0.0000      3.5370     -2.0195
  3082.1000      9.3025   4267.4746      0.0000      3.5370     -1.9896
  3082.0500      9.3025   4244.5337      0.0000      3.5370     -2.0174
  3082.0000      9.3025   4211.1001      0.0000      3.5774     -2.0095
  3081.9500      9.3391   4211.1001      0.0000      3.5774     -2.0159
  3081.9000      9.3391   4182.3428      0.0000      3.5675     -2.0125
  3081.8500      9.3391   4164.8169      0.0000      3.5774     -2.0037
  3081.8000      9.3756   4164.8169      0.0000      3.5774     -2.0162
  3081.7500      9.3756   4166.7930      0.0000      3.5370     -1.9976
  3081.7000      9.3756   4197.3291      0.0000      3.5675     -2.0146
  3081.6500      9.3025   4197.3291      0.0000      3.5675     -1.9966
  3081.6000      9.3025   4239.9688      0.0000      3.5576     -2.0204
  3081.5500      9.3025   4271.0532      0.0000      3.5370     -2.0070
  3081.5000      9.3756   4271.0532      0.0000      3.5370     -1.9951
  3081.4500      9.3756   4288.4141      0.0000      3.5370     -2.0217
  3081.4000      9.3756   4292.8481      0.0000      3.5370     -2.0183
  3081.3500      9.3391   4292.8481      0.0000      3.5370     -2.0153
  3081.3000      9.3391   4279.2593      0.0000      3.5675     -2.0085
  3081.2500      9.3391   4256.9277      0.0000      3.5370     -2.0122
  3081.2000      9.3391   4256.9277      0.0000      3.5370     -2.0143
  3081.1500      9.3208   4240.7354      0.0000      3.5774     -2.0156
  3081.1000      9.3208   4234.9932      0.0000      3.5469     -2.0174
  3081.0500      9.3208   4234.9932      0.0000      3.5469     -2.0208
  3081.0000      9.4092   4245.0542      0.0000      3.5675     -2.0037
  3080.9500      9.4092   4271.3120      0.0000      3.5675     -2.0095
  3080.9000      9.4092   4271.3120      0.0000      3.5675     -1.9954
  3080.8500      9.3208   4295.3589      0.0000      3.5370     -2.0089
  3080.8000      9.3208   4303.4849      0.0000      3.5774     -2.0037
  3080.7500      9.3208   4303.4849      0.0000      3.5774     -2.0146
  3080.7000      9.3391   4298.7847      0.0000      3.5675     -1.9982
  3080.6500      9.3391   4278.6348      0.0000      3.5774     -2.0143
  3080.6000      9.3391   4278.6348      0.0000      3.5774     -1.9783
  3080.5500      9.3208   4239.0176      0.0000      3.5469     -2.1666
  3080.5000      9.3208   4239.0176      0.0000      3.5469     -1.8172
  3080.4500      9.3208   4194.1006      0.0000      3.5774     -2.0247
  3080.4000      9.2507   4160.7344      0.0000      3.5774     -1.9973
  3080.3500      9.2507   4160.7344      0.0000      3.5774     -1.9960
  3080.3000      9.2507   4146.0493      0.0000      3.5774     -2.0107
  3080.2500      9.3574   4156.4614      0.0000      3.5675     -2.0073
  3080.2000      9.3574   4156.4614      0.0000      3.5675     -1.9991
  3080.1500      9.3574   4188.4434      0.0000      3.5675     -2.0140
  3080.1000      9.3025   4224.9751      0.0000      3.5469     -2.0204
  3080.0500      9.3025   4224.9751      0.0000      3.5469     -2.0012
  3080.0000      9.3025   4256.1597      0.0000      3.5774     -2.0046
  3079.9500      9.3025   4278.4648      0.0000      3.5980     -2.0116
  3079.9000      9.3025   4278.4648      0.0000      3.5980     -2.0034
  3079.8500      9.3025   4282.5215      0.0000      3.5774     -2.0003
  3079.8000      9.3025   4267.6660      0.0000      3.5675     -2.0122
  3079.7500      9.4092   4267.6660      0.0000      3.5675     -2.0128
  3079.7000      9.4092   4248.3052      0.0000      3.5675     -2.0098
  3079.6500      9.4092   4232.8794      0.0000      3.5774     -1.9969
  3079.6000      9.3208   4232.8794      0.0000      3.5774     -2.0223
  3079.5500      9.3208   4222.5376      0.0000      3.5873     -2.0168
  3079.5000      9.3208   4224.5620      0.0000      3.5675     -2.0085
  3079.4500      9.3756   4224.5620      0.0000      3.5675     -2.0037
  3079.4000      9.3756   4240.3574      0.0000      3.5675     -2.0140
  3079.3500      9.3756   4258.9404      0.0000      3.5774     -2.0009
  3079.3000      9.4275   4258.9404      0.0000      3.5774     -2.0089
  3079.2500      9.4275   4274.4277      0.0000      3.5774     -1.9954
  3079.2000      9.4275   4284.5762      0.0000      3.5370     -2.0296
  3079.1500      9.2690   4284.5762      0.0000      3.5370     -2.0189
  3079.1000      9.2690   4277.8877      0.0000      3.5774     -2.0122
