~Version Information
VERS.             2.0 : CWLS log ASCII standard - Version 2.0
WRAP.             NO  : One line per depth step
#
~Well Information Block
#MNEM.UNIT                   Data Type:Information
#__________________________________________________________
 STRT .M           2450.13480  :START INDEX                  
  STOP.M           3113.3796 : STOP INDEX                    
 STEP .M              0.00000  :STEP                         
  NULL.              -999.25 : NULL VALUE                    
  COMP.              Statoil : COMPANY                       
  WELL.            15_9_F-12 : WELL                          
   FLD.                Volve : FIELD                         
   LOC.           Maersk Inspirer : LOCATION                      
  PROV.                      : PROVINCE                      
  CNTY.                      : COUNTY                        
  STAT.                      : STATE                         
  CTRY.                      : COUNTRY                       
  SRVC.              SLB D&M : SERVICE COMPANY               
  DATE.                      : LOG DATE                      
   UWI.                      : UNIQUE WELL ID                
   API.                      : API NUMBER                    
#
~Curve Information Block
#MNEM.UNIT                     : Curve Description
#---------                     --------------------
DEPT        .M                 : Bit Depth 2hz                                                   
TVDE        .M                 : SVY TVD_EXTR 2hz                                                
ARC_GR_RT   .GAPI              : ARC Gamma Ray, Real-Time                                        
ROP5        .M/HR              : 5ft ROP 2hz                                                     
SWOB        .KKGF              : Surface Weight on Bit 2hz                                       
RPM         .RPM               : SRF SRPM 2hz                                                    
TFLO        .LPM               : HSPM Total Pump Flow 2hz                                        
TRPM_RT     .RPM               : MWD TUR_RPM 2hz                                                 
SPPA        .BAR               : SRF PUMPRS 2hz                                                  
TQA         .KMN               : SRF STOR 2hz                                                    
SHKRSK_RT   .----              : MWD SHKRSK 2hz                                                  
SHK2_RT     .----              : ARC Shock Level, Real-Time                                      
SHK_ADN_RT  .----              : ADN Shock Level, Real-Time                                      
PDSHKRSK    .----              : PowerDrive Shock Risk 2hz                                       
ECD_ARC     .G/C3              : Equivalent Circulating Density                                  
ATMP        .DEGC              : ARC Annular Temperature                                         
APRS_ARC    .BAR               : ARC Annular Pressure                                            
#
~Parameter Information Block
#MNEM.UNIT                       Value:Description
#__________________________________________________________
#
~Other Information Block

#
~A    DEPT       TVDE  ARC_GR_RT       ROP5       SWOB        RPM       TFLO    TRPM_RT       SPPA        TQA  SHKRSK_RT    SHK2_RT SHK_ADN_RT   PDSHKRSK    ECD_ARC       ATMP   APRS_ARC
# ...
 2810.5608  2683.1080    21.4178    13.8547     7.3781   145.2710  3522.6071    -999.25   219.7452    34.4871    -999.25     0.0000     0.0000     0.0000     1.3791    86.0000   362.0438
 2810.7131  2683.2283    21.4178    12.9929     7.5531   139.0770  3522.6071  2578.1250   219.7959    30.4400     0.0000     0.0000    -999.25    -999.25     1.3788    86.0000   361.9749
 2810.8655  2683.3565    25.2467    12.3588     6.8474   145.7870  3522.6071    -999.25   219.7064    30.0842     0.0000    -999.25     0.0000     0.0000     1.3787    86.0000   361.9749
 2811.0181  2683.4765    25.2467    11.7309     6.9390   141.5176  3522.6071  2578.1250   219.6006    31.6100    -999.25     0.0000     0.0000     0.0000     1.3781    86.0000   361.8370
 2811.1704  2683.5965    22.6591    11.3544     6.7248   143.3530  3522.6071  2578.1250   219.5979    27.0781     0.0000    -999.25     0.0000    -999.25     1.3791    86.0000   362.1128
 2811.3228  2683.7167    19.0399    11.1842     6.2779   148.9677  3522.6071    -999.25   219.5911    30.3176    -999.25     0.0000     0.0000     0.0000     1.3791    86.0000   362.1128
 2811.4751  2683.8447    23.9354    11.1425     6.1322   137.4390  3522.6071  2578.1250   219.6534    30.4135     0.0000    -999.25     0.0000    -999.25     1.3790    86.0000   362.1128
 2811.6277  2681.2417    23.9354     7.5327     0.7586   140.5099  3273.9510  2578.1250   208.3655    28.2919     0.0000     0.0000     0.0000     2.0000     1.3792    86.0000   362.1817
 2811.7800  2681.3539    25.2467     7.5299     4.8978   139.6823  2627.5542    -999.25   203.8118    25.7362     0.0000    -999.25     0.0000    -999.25     1.3784    86.0000   361.9749
 2811.9324  2681.4661    25.2467     7.6176     7.3647   147.5343  3065.8544    -999.25   196.3227    29.3248    -999.25     0.0000     0.0000    -999.25     1.3783    86.0000   361.9749
 2812.0847  2681.5786    25.2467     7.8034     7.9667   141.6438  3091.0444  2187.5000   179.7611    28.7910     0.0000    -999.25     0.0000    -999.25     1.3780    86.0000   361.9059
 2812.2373  2681.6980    26.5930     7.9312     9.6439   138.4255  2838.4020    -999.25   192.1617    31.3759    -999.25    -999.25    -999.25    -999.25     1.3782    86.0000   361.9749
 2812.3896  2681.8105    26.5930     7.8473     8.6097   137.5936  2795.2823    -999.25   203.1106    32.5418    -999.25    -999.25     0.0000    -999.25     1.3784    86.0000   362.0438
 2812.5420  2681.9227    16.8020     7.8684     6.7106   122.8545  2970.9534    -999.25   194.2352    32.8326     0.0000    -999.25     0.0000    -999.25     1.3792    86.0000   362.2507
 2812.6943  2682.0349    20.2114     7.8282     6.8067   137.2569  3141.3012    -999.25   196.5329    35.1115    -999.25    -999.25     0.0000    -999.25     1.3791    87.0000   362.2507
 2812.8467  2682.1549    20.2114     7.7443     5.3482   137.1296  2943.7114  2265.6250   190.8878    31.6691     0.0000     0.0000     0.0000    -999.25     1.3790    87.0000   362.2507
 2812.9993  2682.2671    14.7039     7.6041     6.4939   143.3945  3067.1134  2578.1250   213.5921    30.4011    -999.25    -999.25     0.0000     0.0000     1.3790    87.0000   362.2507
 2813.1516  2682.3790    16.8020    11.0579     7.4818   139.7778  3501.0675    -999.25   222.7295    31.9290    -999.25     0.0000     0.0000     0.0000     1.3795    87.0000   362.3886
 2813.3040  2682.4916    14.7039    10.7910     7.3811   141.5963  3217.5216  2578.1250   222.8071    32.0755    -999.25     0.0000     0.0000    -999.25     1.3784    87.0000   362.1128
 2813.4563  2682.6112    16.8020    10.4207     8.2937   144.3909  3305.0870    -999.25   223.0909    34.2326    -999.25    -999.25     0.0000    -999.25     1.3783    87.0000   362.1128
 2813.6089  2682.7234    19.0399     9.8278     7.4458   137.2920  3432.6945    -999.25   223.2884    32.7998     0.0000    -999.25     0.0000     1.0000     1.3793    87.0000   362.3886
 2813.7612  2682.8356    16.8020     9.5033     7.2772   141.5303  3396.7279  2578.1250   223.0915    33.6617    -999.25     0.0000     0.0000     1.0000     1.3787    87.0000   362.2507
 2813.9136  2682.9479    17.9035     9.6234     7.9040   133.9725  3322.8078  2617.1875   223.0465    28.5154     0.0000    -999.25     0.0000    -999.25     1.3794    87.0000   362.4575
 2814.0659  2683.0678    25.2467     9.5340     9.1952   141.8167  3381.9247  2578.1250   222.9508    31.7705     0.0000     0.0000     0.0000     0.0000     1.3797    87.0000   362.5265
 2814.2185  2683.1800    29.3904     9.2387     8.4424   139.8288  3333.9886    -999.25   223.1405    33.2213     0.0000     0.0000    -999.25     0.0000     1.3788    87.0000   362.3196
 2814.3708  2683.2925    30.8416     9.1930     6.8909   140.2982  3411.8332  2617.1875   223.1789    32.7843    -999.25     0.0000     0.0000    -999.25     1.3785    87.0000   362.2507
 2814.5232  2683.4045    23.9354     9.1914     7.6454   141.7130  3529.9920  2617.1875   223.0836    31.8064     0.0000    -999.25    -999.25     0.0000     1.3790    87.0000   362.3886
 2814.6755  2683.5241    22.6591     9.1691     8.4631   141.6250  3384.5355    -999.25   223.2260    29.1832     0.0000     0.0000     0.0000     0.0000     1.3789    87.0000   362.3886
 2814.8279  2683.6366    22.6591     9.1040     7.8352   140.0085  3429.8573    -999.25   223.2030    34.1838    -999.25     0.0000     0.0000    -999.25     1.3786    87.0000   362.3196
 2814.9805  2683.7486    19.0399     9.0911     8.2920   139.1802  3462.1308  2578.1250   223.0895    30.7066     0.0000    -999.25     0.0000     0.0000     1.3783    87.0000   362.2507
 2815.1328  2683.8608    23.9354     9.2797     8.3854   143.5803  3413.0203    -999.25   223.0741    31.7157    -999.25     0.0000     0.0000    -999.25     1.3785    87.0000   362.3196
 2815.2852  2683.9807    20.2114     9.4601     7.9657   140.6909  3305.4907    -999.25   223.1450    32.7369    -999.25    -999.25    -999.25    -999.25     1.3795    87.0000   362.5954
 2815.4375  2684.0929    20.2114     9.4462     7.8672   143.1091  3399.7480  2617.1875   223.1015    33.2460     0.0000    -999.25     0.0000     0.0000     1.3797    87.0000   362.6644
 2815.5901  2684.2052    21.4178     9.5436     7.9838   144.8349  3442.3209    -999.25   223.1599    34.5724     0.0000     0.0000     0.0000     0.0000     1.3786    87.0000   362.3886
 2815.7424  2684.3177    20.2114     9.8523     8.5596   143.6818  3363.4958  2578.1250   223.1788    31.2230    -999.25     0.0000     0.0000    -999.25     1.3790    83.0000   362.5265
 2815.8948  2684.4296    22.6591     9.8983     7.9044   145.2569  3409.3943  2578.1250   222.9254    32.6491     0.0000    -999.25     0.0000     0.0000     1.3793    83.0000   362.5954
 2816.0471  2684.5495    22.6591     9.8959     7.5948   142.5648  3504.1447    -999.25   222.8678    31.2914     0.0000     0.0000    -999.25     0.0000     1.3787    84.0000   362.4575
 2816.1997  2684.6618    26.5930     9.9254     6.1401   145.6019  3408.1407  2578.1250   222.8898    31.1263    -999.25     0.0000     0.0000    -999.25     1.3784    84.0000   362.3886
 2816.3521  2684.7740    21.4178    10.0083     6.0855   147.0000  3420.3695  2617.1875   223.0135    33.3580     0.0000    -999.25     0.0000     1.0000     1.3791    84.0000   362.5954
 2816.5044  2684.8862    21.4178    10.0911     6.3103   145.6274  3423.5626    -999.25   222.7971    30.8458    -999.25     2.0000     0.0000     0.0000     1.3790    85.0000   362.5954
 2816.6567  2685.0059    21.4178    10.2880     5.7891   147.4674  3475.4074  2578.1250   222.8450    34.9502     0.0000    -999.25     0.0000    -999.25     1.3787    85.0000   362.5265
 2816.8091  2685.1184    25.2467    10.4698     5.4581   146.6484  3281.8259    -999.25   222.9766    31.1371    -999.25     0.0000     0.0000     0.0000     1.3797    85.0000   362.8023
 2816.9617  2685.2303    23.9354    10.6625     5.8803   146.1539  3448.3528  2617.1875   222.8215    30.7817     0.0000     0.0000    -999.25    -999.25     1.3797    85.0000   362.8023
