~Version Information
VERS.                      2.0: CWLS Log ASCII Standard - VERSION 2.0
WRAP.                       NO: One line per depth step
~Well Information Block
STRT.M               3169.8000: START DEPTH
STOP.M               3077.9500: STOP DEPTH
STEP.M                 -0.0500: STEP
NULL.                -999.2500: NULL VALUE
COMP.                  Statoil: COMPANY
WELL.                15/9-F-12: WELL
FLD.                     Volve: FIELD
LOC.                          : LOCATION
SRVC.          Halliburton Logging Services: SERVICE COMPANY
DATE.          Wed Nov 26 07-41-16 2014: LOG DATE
UWI.                          : UNIQUE WELL ID
SECT.                         : SECTION
TOWN.                         : TOWNSHIP
RANG.                         : RANGE
API.                          : API#
OS.                           : OTHER SERVICES
PDAT.FT                       : PERMANENT DATUM
EEL.FT                        : ELEVATION
LMF.FT                        : LOG MEASURED FROM
DMF.FT                        : DRILLING MEASURED FROM
EKB.FT                        : KB
EDF.FT                        : DF
EGL.FT                        : GL
DATE1.                        : DATE1
RUN1.                         : RUN NUMBER
TDD1.FT                       : DEPTH DRILLER
TDL1.FT                       : DEPTH LOGGER
BLI1.FT                       : BOTTOM LOGGED INTERVAL
TLI1.FT                       : TOP LOG INTERVAL
CDD1.IN_FT                    : CASING DRILLER
CDL1.FT                       : CASING LOGGER
BS1.IN                        : BIT SIZE
DFT1.                         : TYPE FLUID IN HOLE
DFDV1.GM/C3_CP                : DENSITY/VISCOSITY
DFPL1.C3                      : PH/FLUID LOSS
MSS1.                         : SOURCE OF SAMPLE
RMT1.OHHM_DEGF                : RM@MEASURED TEMP
RMFT1.OHMM_DEGF                : RMF@MEASURED TEMP
RMCT1.OHMM_DEGF                : RMC@MEASURED TEMP
RMFS1.                        : SOURCE OF RMF/RMC
RMBT1.OHMM_DEGF                : RM@BHT
TCS1.                         : TIME CIRCULATION STOPPED
TLOB1.                        : TIME LOGGER ON BOTTOM
BHT1.DEGF                     : MAXIMUM RECORDED TEMPERATURE
LUN1.                         : EQUIPMENT NUMBER
LUL1.                         : LOCATION
ENGI1.                        : RECORDED BY
WITN1.                        : WITNESSED BY
~Curve Information Block
DEPT.M             0 000 00 00: Depth
LSPD.M/MIN                   0: Line Speed
LTEN.LB                      0: Surface Line Tension
MINMK.                       0: Minute Mark Ticks
GR.GAPI                      0: Gamma Ray
CCL.                         0: Casing Collar Locator
ACCX.                        0: X Axis Accelerometer
ACCY.                        0: Y Axis Accelerometer
ACCZ.                        0: Z Axis Accelerometer
RB.DEG                       0: Relative Bearing
DEVI.DEG                     0: Deviation
TOTG.GEE                     0: Total G
RBRef.DEG                    0: RB Reference
IntTemp.DEGF                 0: Internal Electronics Temperature
~Parameter Information Block
~A  Depth       LSPD        LTEN       MINMK         GR         CCL         ACCX        ACCY        ACCZ         RB         DEVI        TOTG       RBRef      IntTemp   
# ...
  3117.0000      9.6256   4595.5410      0.0000     65.3512    355.0000   2899.3000   -366.8000   2169.0000    352.7896      0.0247   3639.3740      7.2104    224.7392
  3116.9500      9.5890   4642.5571      0.0000     68.0454    363.0000   2909.3999   -346.7000   2151.8999    353.2044      0.0248   3635.3103      6.7956    224.7392
  3116.9000      9.5890   4652.3970      0.0000     69.7372    375.0000   2917.8000   -358.1000   2180.2000    353.0031      0.0246   3659.9268      6.9969    224.7469
  3116.8500      9.5890   4634.5449      0.0000     70.3011    376.0000   2917.8000   -355.4000   2162.7000    353.0554      0.0247   3649.2654      6.9447    224.7561
  3116.8000      9.5890   4593.4785      0.0000     73.8726    371.0000   2928.8999   -292.1000   2146.8999    354.3047      0.0247   3643.2068      5.6953    224.7709
  3116.7500      9.6439   4600.6689      0.0000     78.1332    370.0000   2932.6001   -260.6000   2157.8000    354.9218      0.0247   3650.2271      5.0781    224.7877
  3116.7000      9.6439   4617.3853      0.0000     81.6420    368.0000   2932.2000   -173.3000   2153.3999    356.6176      0.0247   3642.1094      3.3824    224.8046
  3116.6500      9.6439   4607.2803      0.0000     84.6495    376.0000   2932.8000   -148.3000   2156.0000    357.1053      0.0247   3643.0269      2.8948    224.8159
  3116.6000      9.6591   4578.7056      0.0000     87.5318    366.0000   2929.2000   -110.8000   2138.1001    357.8338      0.0248   3628.2173      2.1662    224.8257
  3116.5500      9.6591   4568.1855      0.0000     88.8476    375.0000   2911.2000    -71.9000   2153.8000    358.5852      0.0248   3622.0310      1.4148    224.8215
  3116.5000      9.6591   4589.8286      0.0000     87.7197    362.0000   2920.6001    -59.1000   2190.7000    358.8408      0.0246   3651.3784      1.1593    224.8152
  3116.4500      9.6439   4631.8994      0.0000     84.5618    362.0000   2913.2000    -46.9000   2173.6001    359.0777      0.0248   3635.0339      0.9223    224.8130
  3116.4000      9.6439   4647.5669      0.0000     81.5167    377.0000   2917.8000    -44.6000   2167.6001    359.1243      0.0248   3635.1116      0.8757    224.8166
  3116.3500      9.6439   4642.8442      0.0000     79.5117    364.0000   2925.7000    -46.9000   2179.8000    359.0816      0.0247   3648.7598      0.9184    224.8250
  3116.3000      9.6591   4624.7046      0.0000     77.4440    371.0000   2909.8999    -11.5000   2184.0000    359.7736      0.0247   3638.3384      0.2264    224.8440
  3116.2500      9.6591   4612.1162      0.0000     76.8174    360.0000   2914.5000     26.5000   2179.5000      0.5209      0.0247   3639.4001     -0.5209    224.8813
  3116.2000      9.6591   4601.9897      0.0000     81.2661    358.0000   2896.3999     44.2000   2154.0000      0.8743      0.0249   3609.8203     -0.8743    224.9087
  3116.1500      9.6591   4601.9897      0.0000     81.2661    370.0000   2895.7000     77.3000   2159.5000      1.5291      0.0249   3613.1003     -1.5291    224.9249
  3116.1000      9.6591   4586.5249      0.0000     81.1408    372.0000   2921.0000    105.1000   2190.5000      2.0607      0.0246   3652.6123     -2.0607    224.9487
  3116.0500      9.6591   4554.7002      0.0000     80.1382    368.0000   2964.3000    139.6000   2197.2000      2.6963      0.0244   3692.4585     -2.6963    224.9656
  3116.0000      9.6591   4554.7183      0.0000     78.2585    374.0000   2991.6001    152.3000   2189.1001      2.9144      0.0243   3710.1248     -2.9144    224.9642
  3115.9500      9.6256   4565.2051      0.0000     77.8826    368.0000   3008.0000    202.2000   2196.8000      3.8457      0.0241   3730.2654     -3.8457    224.9494
  3115.9000      9.6256   4581.5347      0.0000     76.2284    373.0000   3017.3000    237.0000   2180.8999      4.4912      0.0241   3730.4951     -4.4912    224.9220
  3115.8500      9.6256   4579.3701      0.0000     77.1307    369.0000   3032.0000    246.1000   2153.8000      4.6404      0.0241   3727.2568     -4.6404    224.8869
  3115.8000      9.6439   4577.2285      0.0000     78.3839    360.0000   3022.0000    303.0000   2134.1001      5.7256      0.0242   3711.9639     -5.7256    224.8531
  3115.7500      9.6439   4590.8271      0.0000     80.6395    354.0000   3009.7000    333.0000   2116.3999      6.3137      0.0244   3694.3647     -6.3137    224.8264
  3115.7000      9.6439   4635.1997      0.0000     79.5117    374.0000   2941.8999    351.3000   2120.3000      6.8096      0.0247   3643.3308     -6.8096    224.8116
  3115.6500      9.6439   4655.8433      0.0000     77.8199    358.0000   2932.8999    394.5000   2114.3999      7.6608      0.0247   3637.0618     -7.6608    224.8187
  3115.6000      9.6439   4662.3223      0.0000     73.3713    384.0000   2910.5000    415.8000   2115.0000      8.1304      0.0248   3621.7571     -8.1304    224.8355
  3115.5500      9.6439   4631.5288      0.0000     69.0480    354.0000   2910.2000    443.4000   2166.3999      8.6630      0.0246   3655.0178     -8.6630    224.8545
  3115.5000      9.6256   4616.1650      0.0000     65.7271    361.0000   2904.3000    481.6000   2191.3000      9.4153      0.0245   3669.9719     -9.4153    224.8749
  3115.4500      9.6256   4616.1426      0.0000     65.1632    376.0000   2895.0000    528.8000   2197.5000     10.3515      0.0245   3672.8274    -10.3515    224.8862
  3115.4000      9.6256   4599.1294      0.0000     66.9803    368.0000   2886.8000    563.4000   2203.1001     11.0433      0.0245   3674.8721    -11.0433    224.8848
  3115.3500      9.6256   4547.3081      0.0000     68.7973    357.0000   2850.5000    629.8000   2181.1001     12.4590      0.0247   3644.0630    -12.4590    224.8693
  3115.3000      9.6774   4504.6860      0.0000     69.6119    364.0000   2839.2000    667.3000   2187.3999     13.2262      0.0247   3645.6912    -13.2262    224.8609
  3115.2500      9.6774   4522.6421      0.0000     69.0480    372.0000   2828.2000    734.7000   2197.8000     14.5622      0.0246   3656.3403    -14.5622    224.8559
  3115.2000      9.6774   4599.9395      0.0000     65.9151    369.0000   2793.8000    836.6000   2167.6001     16.6703      0.0248   3633.6907    -16.6703    224.8531
  3115.1500      9.6073   4619.7139      0.0000     61.6544    369.0000   2740.5000    935.2000   2156.0000     18.8423      0.0249   3610.1628    -18.8423    224.8644
  3115.1000      9.6073   4596.3584      0.0000     58.8349    376.0000   2694.0000   1034.1000   2146.5000     20.9994      0.0250   3596.4512    -20.9994    224.8848
  3115.0500      9.6073   4582.2266      0.0000     57.7071    378.0000   2660.8000   1128.5000   2140.8000     22.9828      0.0250   3596.7200    -22.9828    224.9080
  3115.0000      9.6439   4611.1479      0.0000     57.5191    341.0000   2621.7000   1233.6000   2187.6001     25.1986      0.0248   3630.5198    -25.1986    224.9256
  3114.9500      9.6439   4664.6987      0.0000     59.8374    379.0000   2539.8999   1449.0000   2117.1001     29.7045      0.0249   3610.0977    -29.7045    224.9431
  3114.9000      9.6439   4700.2534      0.0000     63.2835    377.0000   2539.8999   1449.0000   2117.1001     29.7045      0.0249   3610.0977    -29.7045    224.9431
  3114.8500      9.6256   4689.0400      0.0000     65.7898    360.0000   2514.1001   1506.5000   2088.3999     30.9309      0.0250   3598.8408    -30.9309    224.9347
  3114.8000      9.6256   4670.5444      0.0000     67.1683    361.0000   2503.6001   1528.5000   2098.8000     31.4049      0.0250   3606.8389    -31.4049    224.9241
  3114.7500      9.6256   4683.1987      0.0000     67.4815    367.0000   2493.3999   1568.7000   2117.3000     32.1757      0.0248   3627.7847    -32.1757    224.9073
  3114.7000      9.6256   4701.2080      0.0000     66.2284    358.0000   2466.3999   1594.0000   2112.0000     32.8740      0.0249   3617.2515    -32.8740    224.8953
  3114.6500      9.5890   4682.7285      0.0000     63.2835    367.0000   2462.6001   1584.8000   2104.7000     32.7632      0.0250   3606.3489    -32.7632    224.8791
