~Version Information
VERS.                      2.0: CWLS Log ASCII Standard - VERSION 2.0
WRAP.                       NO: One line per depth step
~Well Information Block
STRT.M               3169.8000: START DEPTH
STOP.M               3077.9500: STOP DEPTH
STEP.M                 -0.0500: STEP
NULL.                -999.2500: NULL VALUE
COMP.                  Statoil: COMPANY
WELL.                15/9-F-12: WELL
FLD.                     Volve: FIELD
LOC.                          : LOCATION
SRVC.          Halliburton Logging Services: SERVICE COMPANY
DATE.          Wed Nov 26 07-41-16 2014: LOG DATE
UWI.                          : UNIQUE WELL ID
SECT.                         : SECTION
TOWN.                         : TOWNSHIP
RANG.                         : RANGE
API.                          : API#
OS.                           : OTHER SERVICES
PDAT.FT                       : PERMANENT DATUM
EEL.FT                        : ELEVATION
LMF.FT                        : LOG MEASURED FROM
DMF.FT                        : DRILLING MEASURED FROM
EKB.FT                        : KB
EDF.FT                        : DF
EGL.FT                        : GL
DATE1.                        : DATE1
RUN1.                         : RUN NUMBER
TDD1.FT                       : DEPTH DRILLER
TDL1.FT                       : DEPTH LOGGER
BLI1.FT                       : BOTTOM LOGGED INTERVAL
TLI1.FT                       : TOP LOG INTERVAL
CDD1.IN_FT                    : CASING DRILLER
CDL1.FT                       : CASING LOGGER
BS1.IN                        : BIT SIZE
DFT1.                         : TYPE FLUID IN HOLE
DFDV1.GM/C3_CP                : DENSITY/VISCOSITY
DFPL1.C3                      : PH/FLUID LOSS
MSS1.                         : SOURCE OF SAMPLE
RMT1.OHHM_DEGF                : RM@MEASURED TEMP
RMFT1.OHMM_DEGF                : RMF@MEASURED TEMP
RMCT1.OHMM_DEGF                : RMC@MEASURED TEMP
RMFS1.                        : SOURCE OF RMF/RMC
RMBT1.OHMM_DEGF                : RM@BHT
TCS1.                         : TIME CIRCULATION STOPPED
TLOB1.                        : TIME LOGGER ON BOTTOM
BHT1.DEGF                     : MAXIMUM RECORDED TEMPERATURE
LUN1.                         : EQUIPMENT NUMBER
LUL1.                         : LOCATION
ENGI1.                        : RECORDED BY
WITN1.                        : WITNESSED BY
~Curve Information Block
DEPT.M             0 000 00 00: Depth
LSPD.M/MIN                   0: Line Speed
LTEN.LB                      0: Surface Line Tension
MINMK.                       0: Minute Mark Ticks
GR.GAPI                      0: Gamma Ray
CCL.                         0: Casing Collar Locator
ACCX.                        0: X Axis Accelerometer
ACCY.                        0: Y Axis Accelerometer
ACCZ.                        0: Z Axis Accelerometer
RB.DEG                       0: Relative Bearing
DEVI.DEG                     0: Deviation
TOTG.GEE                     0: Total G
RBRef.DEG                    0: RB Reference
IntTemp.DEGF                 0: Internal Electronics Temperature
~Parameter Information Block
~A  Depth       LSPD        LTEN       MINMK         GR         CCL         ACCX        ACCY        ACCZ         RB         DEVI        TOTG       RBRef      IntTemp   
# ...
  3153.0000      9.6073   4772.6074      0.0000     12.4061    399.0000   1615.3000  -2562.3999   2134.2000    302.2267      0.0243   3705.3875     57.7733    224.5894
  3152.9500      9.6073   4862.5391      0.0000     11.7795    386.0000   1653.2000  -2564.8999   2110.3000    302.8037      0.0243   3710.1411     57.1963    224.5873
  3152.9000      9.5890   4919.2383      0.0000     11.9048    361.0000   1687.3000  -2559.3000   2083.1001    303.3961      0.0243   3706.2520     56.6039    224.5852
  3152.8500      9.5890   4936.6934      0.0000     12.0301    351.0000   1683.3000  -2569.3000   2073.3000    303.2312      0.0243   3705.8569     56.7688    224.5859
  3152.8000      9.5890   4941.9766      0.0000     12.5940    364.0000   1675.4000  -2513.3999   2051.2000    303.6869      0.0246   3651.2417     56.3131    224.5803
  3152.7500      9.6073   4963.8965      0.0000     14.5364    359.0000   1664.3000  -2466.0000   2048.8000    304.0154      0.0249   3612.2891     55.9846    224.5684
  3152.7000      9.6073   5013.0015      0.0000     15.5389    379.0000   1672.1000  -2462.3000   2089.3000    304.1797      0.0247   3636.4839     55.8203    224.5578
  3152.6500      9.6073   5060.2651      0.0000     16.4161    371.0000   1663.4000  -2458.6001   2090.8000    304.0809      0.0248   3630.8481     55.9191    224.5501
  3152.6000      9.6073   5062.1499      0.0000     16.1655    370.0000   1655.6000  -2449.3000   2087.2000    304.0567      0.0249   3618.9067     55.9433    224.5473
  3152.5500      9.6073   5012.5039      0.0000     15.7896    369.0000   1649.2000  -2430.3999   2095.6001    304.1597      0.0249   3608.0803     55.8403    224.5557
  3152.5000      9.6073   4963.6387      0.0000     15.6016    370.0000   1644.0000  -2414.3999   2117.8999    304.2515      0.0249   3607.9861     55.7485    224.5768
  3152.4500      9.6073   4962.3384      0.0000     16.4161    368.0000   1648.0000  -2404.3999   2136.7000    304.4271      0.0249   3614.2122     55.5729    224.5979
  3152.4000      9.6073   4970.9019      0.0000     16.7921    368.0000   1648.8000  -2399.8000   2142.2000    304.4913      0.0249   3614.7756     55.5087    224.6120
  3152.3500      9.6073   4905.9751      0.0000     17.8572    368.0000   1657.1000  -2401.1001   2139.8000    304.6112      0.0249   3618.0115     55.3888    224.6098
  3152.3000      9.6073   4799.9473      0.0000     18.4838    365.0000   1673.8000  -2412.5000   2169.6001    304.7530      0.0247   3650.8804     55.2470    224.5993
  3152.2500      9.6256   4732.4727      0.0000     17.7319    364.0000   1698.5000  -2406.8999   2181.3999    305.2098      0.0246   3665.5935     54.7902    224.5782
  3152.2000      9.6256   4739.0972      0.0000     15.6016    371.0000   1697.7000  -2448.7000   2185.0000    304.7338      0.0244   3694.9346     55.2662    224.5388
  3152.1500      9.6256   4780.2939      0.0000     13.9098    377.0000   1687.0000  -2462.3999   2189.8999    304.4152      0.0243   3702.0325     55.5848    224.5198
  3152.1000      9.6073   4801.9663      0.0000     12.4687    365.0000   1684.8000  -2453.0000   2141.0000    304.4825      0.0245   3666.0117     55.5175    224.5149
  3152.0500      9.6073   4796.2881      0.0000     11.6542    370.0000   1697.8000  -2475.2000   2134.2000    304.4472      0.0244   3682.9268     55.5528    224.5206
  3152.0000      9.6073   4813.0605      0.0000     12.2808    369.0000   1726.9000  -2474.3999   2123.3999    304.9114      0.0244   3689.6702     55.0886    224.5297
  3151.9500      9.6256   4862.8750      0.0000     13.7845    382.0000   1747.4000  -2523.0000   2106.6001    304.7060      0.0242   3722.4587     55.2940    224.5416
  3151.9000      9.6256   4900.0693      0.0000     14.8497    348.0000   1760.6000  -2469.8000   2090.7000    305.4832      0.0244   3683.8364     54.5168    224.5606
  3151.8500      9.6256   4934.1123      0.0000     15.8522    388.0000   1798.9000  -2394.5000   2068.1001    306.9162      0.0247   3639.6030     53.0838    224.5810
  3151.8000      9.6256   4922.6191      0.0000     15.9775    370.0000   1819.9000  -2391.5000   2066.7000    307.2707      0.0247   3647.2671     52.7293    224.5937
  3151.7500      9.6073   4923.2769      0.0000     15.4763    342.0000   1826.8000  -2378.1001   2079.6001    307.5306      0.0247   3649.2869     52.4694    224.6063
  3151.7000      9.6073   4974.1665      0.0000     15.0377    368.0000   1813.8000  -2332.5000   2074.3000    307.8694      0.0249   3610.1450     52.1306    224.6148
  3151.6500      9.6073   4997.7920      0.0000     15.0377    354.0000   1814.3000  -2316.3999   2088.1001    308.0695      0.0249   3607.9849     51.9305    224.6190
  3151.6000      9.5890   4968.2422      0.0000     15.8522    367.0000   1802.5000  -2299.1001   2093.5000    308.0965      0.0250   3594.1077     51.9035    224.6218
  3151.5500      9.5890   4929.5957      0.0000     15.9775    369.0000   1809.6000  -2309.5000   2097.1001    308.0804      0.0250   3606.4209     51.9197    224.6176
  3151.5000      9.5890   4872.2700      0.0000     17.3560    367.0000   1799.8000  -2296.0000   2139.8000    308.0924      0.0249   3617.9609     51.9076    224.6113
  3151.4500      9.5890   4856.3877      0.0000     17.6693    368.0000   1789.1000  -2314.5000   2155.5000    307.7039      0.0248   3633.7266     52.2961    224.6021
  3151.4000      9.5890   4822.3589      0.0000     17.9825    372.0000   1795.4000  -2313.2000   2136.3000    307.8170      0.0248   3624.6563     52.1830    224.5958
  3151.3500      9.5890   4754.7070      0.0000     17.0427    369.0000   1795.6000  -2319.0000   2130.1001    307.7506      0.0248   3624.8127     52.2494    224.5901
  3151.3000      9.6591   4682.0488      0.0000     17.1053    369.0000   1806.6000  -2308.1001   2154.8000    308.0511      0.0247   3637.8967     51.9489    224.5838
  3151.2500      9.6591   4637.7388      0.0000     16.0402    361.0000   1800.3000  -2311.7000   2159.1001    307.9106      0.0247   3639.6084     52.0893    224.5796
  3151.2000      9.6591   4638.0288      0.0000     14.9124    376.0000   1818.2000  -2276.3000   2185.8999    308.6162      0.0247   3642.1904     51.3838    224.5796
  3151.1500      9.6439   4690.8765      0.0000     13.0326    383.0000   1858.4000  -2248.8000   2122.2000    309.5702      0.0249   3607.5593     50.4298    224.5656
  3151.1000      9.6439   4723.3877      0.0000     11.6542    380.0000   1881.7000  -2242.2000   2129.1001    310.0041      0.0249   3619.5750     49.9959    224.5529
  3151.0500      9.6439   4728.8765      0.0000      9.4612    364.0000   1901.0000  -2250.8999   2131.3999    310.1828      0.0247   3636.3740     49.8172    224.5395
  3151.0000      9.6439   4732.6846      0.0000      8.3334    357.0000   1919.6000  -2239.8000   2117.6001    310.5979      0.0248   3631.2256     49.4021    224.5276
  3150.9500      9.6774   4789.8154      0.0000      6.7043    388.0000   1957.3000  -2233.5000   2115.8000    311.2293      0.0247   3646.3894     48.7707    224.5037
  3150.9000      9.6774   4849.6758      0.0000      6.0777    372.0000   1985.6000  -2224.5000   2068.2000    311.7523      0.0248   3628.8372     48.2477    224.5009
  3150.8500      9.6774   4865.2456      0.0000      6.2030    368.0000   1987.6000  -2211.1001   2080.8000    311.9530      0.0248   3628.9456     48.0470    224.5086
  3150.8000      9.6774   4839.5771      0.0000      7.8948    366.0000   2000.4000  -2206.3000   2103.2000    312.1978      0.0247   3645.9307     47.8021    224.5234
  3150.7500      9.6774   4862.9463      0.0000      9.4612    355.0000   2015.2000  -2161.5000   2091.1001    312.9939      0.0249   3620.1951     47.0061    224.5466
  3150.7000      9.6774   4925.9531      0.0000     10.9023    357.0000   2017.1000  -2148.5000   2099.3999    313.1933      0.0249   3618.3179     46.8067    224.5627
  3150.6500      9.6073   4960.5132      0.0000     11.8422    367.0000   2019.7000  -2149.7000   2131.6001    313.2141      0.0247   3639.2468     46.7859    224.5824
