~Version Information
VERS.                      2.0: CWLS Log ASCII Standard - VERSION 2.0
WRAP.                       NO: One line per depth step
~Well Information Block
STRT.M               3779.4000: START DEPTH
STOP.M               3680.8000: STOP DEPTH
STEP.M                 -0.0500: STEP
NULL.                -999.2500: NULL VALUE
COMP.                  STATOIL: COMPANY
WELL.               15/9-F-1-C: WELL
FLD.                     VOLVE: FIELD
LOC.                          : LOCATION
SRVC.          Halliburton Logging Services: SERVICE COMPANY
DATE.          Thu Dec 04 05-18-20 2014: LOG DATE
UWI.                          : UNIQUE WELL ID
CTRY.                   NORWAY: COUNTRY
SECT.                         : SECTION
TOWN.                         : TOWNSHIP
RANG.                         : RANGE
API.                          : API#
OS.                   --NONE--: OTHER SERVICES
PDAT.FT                  M.S.L: PERMANENT DATUM
EEL.FT                   54.9M: ELEVATION
LMF.FT                   R.K.B: LOG MEASURED FROM
DMF.FT                   R.K.B: DRILLING MEASURED FROM
EKB.FT                   54.9M: KB
EDF.FT                   54.9M: DF
EGL.FT                    -91M: GL
DATE1.         03-DEC-14 @ 05:47: DATE1
RUN1.                    1 & 2: RUN NUMBER
TDD1.FT                  4094M: DEPTH DRILLER
TDL1.FT                  3782M: DEPTH LOGGER
BLI1.FT                  3772M: BOTTOM LOGGED INTERVAL
TLI1.FT                  3572M: TOP LOG INTERVAL
CDD1.IN_FT                    : CASING DRILLER
CDL1.FT                       : CASING LOGGER
BS1.IN                    8.5": BIT SIZE
DFT1.                SEA WATER: TYPE FLUID IN HOLE
DFDV1.GM/C3_CP          1.03SG: DENSITY/VISCOSITY
DFPL1.C3                      : PH/FLUID LOSS
MSS1.                         : SOURCE OF SAMPLE
RMT1.OHHM_DEGF                : RM@MEASURED TEMP
RMFT1.OHMM_DEGF                : RMF@MEASURED TEMP
RMCT1.OHMM_DEGF                : RMC@MEASURED TEMP
RMFS1.                        : SOURCE OF RMF/RMC
RMBT1.OHMM_DEGF                : RM@BHT
TCS1.                         : TIME CIRCULATION STOPPED
TLOB1.                36 HOURS: TIME LOGGER ON BOTTOM
BHT1.DEGF                 FULL: MAXIMUM RECORDED TEMPERATURE
LUN1.                 12030699: EQUIPMENT NUMBER
LUL1.                   NORWAY: LOCATION
ENGI1.              C.JAMIESON: RECORDED BY
WITN1.                A.ALBAWI: WITNESSED BY
~Curve Information Block
DEPT.M             0 000 00 00: Depth
LSPD.M/MIN                   0: Line Speed
LTEN.LB                      0: Surface Line Tension
MINMK.                       0: Minute Mark Ticks
HVOLTA.V                     0: Head Voltage Apparent
CCL.                         0: Casing Collar Locator
~Parameter Information Block
SRFTEMP.DEGC           10.0000: Surface Temperature
MudWgt.LB/GAL           8.5000: Mud Weight
CASETHCK.IN             0.4530: Casing Thickness
BITSIZE.IN              8.5000: Borehole I.D.
~Other Information
TOOL STRING DEPLOYED BY ALTUS INTERVENTION WIRELINE UNIT ON 7/16" CABLE
CABLE HEAD BUILT BY ALTUS
LOG CORRELATED TO SHLUMBERGER 4.5" HSD OX POWER JET PULS DATED 09.APRIL.2014
CORRELATION LOG IS SHALLOWER BY 1.4M, DEPTH SHIFTED 1.4M DOWN AS PER
CLIENTS REQUEST.
4.655" HSC GUN 10 AND 350 DEGREE PHASING, 39 GR MILLENIUM, 4 SHOTS PER FOOT.
ATTEMPT WAS MADE TO RUN 4 GUNS IN ONE STRING BUT AT 3600M PICK UP WEIGHT 
WAS TOO HIGH TO CONTINUE.  CLIENT D4ECIDED TO SPLIT UP ONTO TWO RUNS.
RUN #1 CCL TO TOP SHOT 3.25 M, CCL STOP DEPT: 3729.75 M
PERFORATION INTERVAL 3733M - 3742.6M
RUN #2 CCL TO TOP SHOT 3.25 M, CCL STOP DEPT: 3711.75 M
PERFORATION INTERVAL 3715M - 3724.6M

~A  Depth       LSPD        LTEN       MINMK       HVOLTA       CCL     
# ...
  3701.0000      8.1077   7066.3770      0.0000      3.4546      1.9954
  3700.9500      8.1077   7108.7554      0.0000      3.4348      1.9823
  3700.9000      8.1595   7154.0020      0.0000      3.4546      1.9973
  3700.8500      8.1595   7154.0020      0.0000      3.4546      1.9893
  3700.8000      8.1595   7196.2930      0.0000      3.4447      2.0183
  3700.7500      8.1260   7224.1318      0.0000      3.4950      1.9896
  3700.7000      8.1260   7224.1318      0.0000      3.4950      1.9884
  3700.6500      8.1260   7247.2192      0.0000      3.4538      1.9963
  3700.6000      8.1595   7269.0088      0.0000      3.4851      1.9890
  3700.5500      8.1595   7269.0088      0.0000      3.4851      1.9973
  3700.5000      8.0894   7264.7739      0.0000      3.4851      1.9893
  3700.4500      8.0894   7219.3794      0.0000      3.4546      1.9982
  3700.4000      8.0894   7219.3794      0.0000      3.4546      1.9826
  3700.3500      8.0894   7138.4473      0.0000      3.4851      1.9649
  3700.3000      8.0894   7026.3511      0.0000      3.5156      1.9918
  3700.2500      8.0894   7026.3511      0.0000      3.5156      1.9265
  3700.2000      8.1260   6904.4653      0.0000      3.4950      1.9927
  3700.1500      8.1260   6808.7979      0.0000      3.4851      2.0717
  3700.1000      8.1260   6808.7979      0.0000      3.4851      1.9310
  3700.0500      8.1260   6746.0078      0.0000      3.4645      1.9792
  3700.0000      8.1260   6705.8979      0.0000      3.5156      1.9991
  3699.9500      8.1412   6705.8979      0.0000      3.5156      1.9960
  3699.9000      8.1412   6695.3306      0.0000      3.4241      1.9915
  3699.8500      8.1412   6712.2935      0.0000      3.4447      1.9896
  3699.8000      8.1412   6712.2935      0.0000      3.4447      1.9997
  3699.7500      8.1412   6734.9902      0.0000      3.5156      1.9860
  3699.7000      8.1595   6757.5044      0.0000      3.5255      1.9860
  3699.6500      8.1595   6757.5044      0.0000      3.5255      1.9890
  3699.6000      8.1595   6784.1836      0.0000      3.4851      1.9945
  3699.5500      8.1077   6784.1836      0.0000      3.4851      1.9921
  3699.5000      8.1077   6808.2183      0.0000      3.4447      1.9902
  3699.4500      8.1077   6831.4189      0.0000      3.5561      1.9884
  3699.4000      8.1412   6831.4189      0.0000      3.5561      1.9695
  3699.3500      8.1412   6861.1001      0.0000      3.4645      1.9747
  3699.3000      8.1412   6888.1758      0.0000      3.4546      2.0006
  3699.2500      8.0894   6888.1758      0.0000      3.4546      1.9841
  3699.2000      8.0894   6907.8252      0.0000      3.5255      1.9875
  3699.1500      8.0894   6928.6743      0.0000      3.5355      1.9774
  3699.1000      8.0894   6928.6743      0.0000      3.5355      1.9911
  3699.0500      8.0894   6948.7285      0.0000      3.4950      2.0140
  3699.0000      8.1077   6966.0640      0.0000      3.4950      1.9808
  3698.9500      8.1077   6966.0640      0.0000      3.4950      2.0076
  3698.9000      8.1077   6993.3638      0.0000      3.4645      1.9908
  3698.8500      8.0711   7026.5298      0.0000      3.4142      1.9765
  3698.8000      8.0711   7026.5298      0.0000      3.4142      1.9905
  3698.7500      8.0711   7044.1929      0.0000      3.4546      1.9902
  3698.7000      8.0711   7042.3574      0.0000      3.5049      1.9884
  3698.6500      8.0711   7042.3574      0.0000      3.5049      1.9814
  3698.6000      8.0528   7019.7271      0.0000      3.4752      1.9924
  3698.5500      8.0528   6966.1226      0.0000      3.5362      2.0046
  3698.5000      8.0528   6966.1226      0.0000      3.5362      1.9792
  3698.4500      8.1412   6893.5977      1.0000      3.4851      1.9811
  3698.4000      8.1412   6826.3472      0.0000      3.4447      1.9750
  3698.3500      8.1412   6826.3472      0.0000      3.4447      2.0140
  3698.3000      8.1260   6769.6348      0.0000      3.4340      1.9744
  3698.2500      8.1260   6730.5947      0.0000      3.4752      1.9945
  3698.2000      8.2144   6730.5947      0.0000      3.4752      2.0137
  3698.1500      8.2144   6726.8970      0.0000      3.4851      1.9982
  3698.1000      8.2144   6751.5449      0.0000      3.5362      1.9872
  3698.0500      8.1961   6751.5449      0.0000      3.5362      1.9728
  3698.0000      8.1961   6783.0596      0.0000      3.5156      1.9814
  3697.9500      8.1961   6783.0596      0.0000      3.5156      1.9915
  3697.9000      8.1595   6821.1821      0.0000      3.4645      2.0037
  3697.8500      8.1595   6866.4473      0.0000      3.5156      1.9942
  3697.8000      8.1595   6866.4473      0.0000      3.5156      2.0159
  3697.7500      8.1778   6905.4678      0.0000      3.4851      1.9890
  3697.7000      8.1778   6937.7168      0.0000      3.5156      1.9738
  3697.6500      8.1077   6937.7168      0.0000      3.5156      1.9707
  3697.6000      8.1077   6968.2261      0.0000      3.4645      1.9887
  3697.5500      8.1077   6986.4429      0.0000      3.4340      1.9823
  3697.5000      8.0894   6986.4429      0.0000      3.4340      1.9945
  3697.4500      8.0894   6989.1509      0.0000      3.5355      1.9951
  3697.4000      8.0894   6987.0225      0.0000      3.5156      1.9890
  3697.3500      8.0894   6987.0225      0.0000      3.5156      2.0110
  3697.3000      8.0894   6972.3584      0.0000      3.5156      2.0055
  3697.2500      8.1595   6930.7925      0.0000      3.5149      1.9930
  3697.2000      8.1595   6930.7925      0.0000      3.5149      1.9948
  3697.1500      8.1595   6876.6182      0.0000      3.4546      1.9915
  3697.1000      8.1412   6833.0239      0.0000      3.5049      1.9966
  3697.0500      8.1412   6833.0239      0.0000      3.5049      2.0052
  3697.0000      8.1412   6807.4673      0.0000      3.5057      1.9710
  3696.9500      8.2144   6801.7539      0.0000      3.4950      2.0394
  3696.9000      8.2144   6801.7539      0.0000      3.4950      1.9713
  3696.8500      8.1595   6810.9243      0.0000      3.5049      1.9951
  3696.8000      8.1595   6823.6392      0.0000      3.4645      1.9927
  3696.7500      8.1595   6823.6392      0.0000      3.4645      2.0070
  3696.7000      8.1260   6842.8975      0.0000      3.5255      2.0137
  3696.6500      8.1260   6877.0977      0.0000      3.4851      2.0021
  3696.6000      8.1260   6877.0977      0.0000      3.4851      1.9918
  3696.5500      8.1260   6914.8066      0.0000      3.4851      1.9789
  3696.5000      8.1260   6914.8066      0.0000      3.4851      1.9597
  3696.4500      8.0711   6943.3818      0.0000      3.4950      2.0027
  3696.4000      8.0711   6964.4263      0.0000      3.4950      1.9893
  3696.3500      8.0711   6964.4263      0.0000      3.4950      1.9918
  3696.3000      8.0711   6971.6714      0.0000      3.4851      2.0021
  3696.2500      8.0711   6958.3423      0.0000      3.5049      2.0217
  3696.2000      8.0711   6958.3423      0.0000      3.5049      2.0177
  3696.1500      8.0711   6932.8672      0.0000      3.5057      1.9759
  3696.1000      8.0711   6895.2227      0.0000      3.5156      1.4397
  3696.0500      8.0711   6895.2227      0.0000      3.5156      1.9582
  3696.0000      8.1260   6840.6240      0.0000      3.4851      1.9915
  3695.9500      8.1260   6787.5757      0.0000      3.5255      1.9930
  3695.9000      8.1412   6787.5757      0.0000      3.5255      1.9826
  3695.8500      8.1412   6754.7437      0.0000      3.4950      1.9872
  3695.8000      8.1412   6739.7646      0.0000      3.4546      2.0180
  3695.7500      8.2144   6739.7646      0.0000      3.4546      1.9854
  3695.7000      8.2144   6748.2632      0.0000      3.4950      1.9756
  3695.6500      8.2144   6787.7822      0.0000      3.5156      1.9820
  3695.6000      8.1778   6787.7822      0.0000      3.5156      1.9973
  3695.5500      8.1778   6834.5693      0.0000      3.4950      1.9973
  3695.5000      8.1778   6865.3682      0.0000      3.4851      1.9890
  3695.4500      8.1595   6865.3682      0.0000      3.4851      1.9838
