~Version Information
VERS.                      2.0: CWLS Log ASCII Standard - VERSION 2.0
WRAP.                       NO: One line per depth step
~Well Information Block
STRT.M               3169.8000: START DEPTH
STOP.M               3077.9500: STOP DEPTH
STEP.M                 -0.0500: STEP
NULL.                -999.2500: NULL VALUE
COMP.                  Statoil: COMPANY
WELL.                15/9-F-12: WELL
FLD.                     Volve: FIELD
LOC.                          : LOCATION
SRVC.          Halliburton Logging Services: SERVICE COMPANY
DATE.          Wed Nov 26 07-41-16 2014: LOG DATE
UWI.                          : UNIQUE WELL ID
SECT.                         : SECTION
TOWN.                         : TOWNSHIP
RANG.                         : RANGE
API.                          : API#
OS.                           : OTHER SERVICES
PDAT.FT                       : PERMANENT DATUM
EEL.FT                        : ELEVATION
LMF.FT                        : LOG MEASURED FROM
DMF.FT                        : DRILLING MEASURED FROM
EKB.FT                        : KB
EDF.FT                        : DF
EGL.FT                        : GL
DATE1.                        : DATE1
RUN1.                         : RUN NUMBER
TDD1.FT                       : DEPTH DRILLER
TDL1.FT                       : DEPTH LOGGER
BLI1.FT                       : BOTTOM LOGGED INTERVAL
TLI1.FT                       : TOP LOG INTERVAL
CDD1.IN_FT                    : CASING DRILLER
CDL1.FT                       : CASING LOGGER
BS1.IN                        : BIT SIZE
DFT1.                         : TYPE FLUID IN HOLE
DFDV1.GM/C3_CP                : DENSITY/VISCOSITY
DFPL1.C3                      : PH/FLUID LOSS
MSS1.                         : SOURCE OF SAMPLE
RMT1.OHHM_DEGF                : RM@MEASURED TEMP
RMFT1.OHMM_DEGF                : RMF@MEASURED TEMP
RMCT1.OHMM_DEGF                : RMC@MEASURED TEMP
RMFS1.                        : SOURCE OF RMF/RMC
RMBT1.OHMM_DEGF                : RM@BHT
TCS1.                         : TIME CIRCULATION STOPPED
TLOB1.                        : TIME LOGGER ON BOTTOM
BHT1.DEGF                     : MAXIMUM RECORDED TEMPERATURE
LUN1.                         : EQUIPMENT NUMBER
LUL1.                         : LOCATION
ENGI1.                        : RECORDED BY
WITN1.                        : WITNESSED BY
~Curve Information Block
DEPT.M             0 000 00 00: Depth
LSPD.M/MIN                   0: Line Speed
LTEN.LB                      0: Surface Line Tension
MINMK.                       0: Minute Mark Ticks
GR.GAPI                      0: Gamma Ray
CCL.                         0: Casing Collar Locator
ACCX.                        0: X Axis Accelerometer
ACCY.                        0: Y Axis Accelerometer
ACCZ.                        0: Z Axis Accelerometer
RB.DEG                       0: Relative Bearing
DEVI.DEG                     0: Deviation
TOTG.GEE                     0: Total G
RBRef.DEG                    0: RB Reference
IntTemp.DEGF                 0: Internal Electronics Temperature
~Parameter Information Block
~A  Depth       LSPD        LTEN       MINMK         GR         CCL         ACCX        ACCY        ACCZ         RB         DEVI        TOTG       RBRef      IntTemp   
# ...
  3088.2000      9.4092   4481.9385      0.0000     20.9901    379.0000  -1579.7000   2480.5000   2078.7000    122.4909      0.0250   3601.2949   -122.4909    225.2145
  3088.1500      9.3574   4502.2612      0.0000     21.1154    378.0000  -1584.9000   2493.8999   2111.7000    122.4364      0.0248   3631.9033   -122.4364    225.2145
  3088.1000      9.3574   4474.8745      0.0000     22.5565    358.0000  -1588.6000   2499.8000   2116.1001    122.4356      0.0247   3640.1277   -122.4356    225.2166
  3088.0500      9.3574   4455.7720      0.0000     24.3109    358.0000  -1588.2000   2493.8000   2116.2000    122.4914      0.0248   3635.8933   -122.4914    225.2202
  3088.0000      9.3208   4473.8188      0.0000     24.3736    364.0000  -1589.2000   2491.7000   2131.8000    122.5296      0.0247   3643.9946   -122.5296    225.2152
  3087.9500      9.3208   4522.2939      0.0000     23.8723    368.0000  -1574.8000   2479.3999   2152.2000    122.4218      0.0247   3641.3438   -122.4218    225.2131
  3087.9000      9.3208   4532.3945      0.0000     24.1229    379.0000  -1567.4000   2477.6001   2157.6001    122.3186      0.0247   3640.1213   -122.3186    225.2110
  3087.8500      9.3391   4521.9619      0.0000     23.5590    370.0000  -1566.2000   2473.6001   2140.8999    122.3406      0.0248   3627.0005   -122.3406    225.2089
  3087.8000      9.3391   4526.1963      0.0000     22.8698    363.0000  -1558.7000   2487.3000   2149.2000    122.0739      0.0247   3638.0308   -122.0739    225.2068
  3087.7500      9.3391   4581.8740      0.0000     24.7495    361.0000  -1590.2000   2492.5000   2175.2000    122.5376      0.0245   3670.5295   -122.5376    225.2054
  3087.7000      9.3025   4637.3330      0.0000     25.6267    363.0000  -1592.4000   2499.3999   2159.5000    122.5017      0.0245   3666.9031   -122.5017    225.1991
  3087.6500      9.3025   4657.1753      0.0000     26.2533    367.0000  -1607.2000   2526.0000   2094.3999    122.4671      0.0246   3653.8032   -122.4671    225.1948
  3087.6000      9.3025   4608.4639      0.0000     27.3184    365.0000  -1620.6000   2536.7000   2054.0000    122.5729      0.0247   3644.1880   -122.5729    225.1892
  3087.5500      9.3025   4590.9253      0.0000     28.0077    373.0000  -1605.9000   2537.1001   2067.8000    122.3325      0.0247   3645.7632   -122.3325    225.1829
  3087.5000      9.3025   4630.5947      0.0000     27.4437    368.0000  -1610.0000   2527.0000   2051.7000    122.5020      0.0248   3631.4324   -122.5020    225.1766
  3087.4500      9.3025   4678.4009      0.0000     26.6292    358.0000  -1581.0000   2518.2000   2023.5000    122.1218      0.0250   3596.5879   -122.1218    225.1801
  3087.4000      9.3025   4673.3013      0.0000     25.8147    369.0000  -1564.6000   2528.3000   2025.7000    121.7507      0.0250   3597.7402   -121.7507    225.1808
  3087.3500      9.3391   4618.4258      0.0000     24.6868    361.0000  -1553.2000   2508.8999   2067.6001    121.7607      0.0250   3603.0513   -121.7607    225.1871
  3087.3000      9.3391   4576.8965      0.0000     22.8698    367.0000  -1549.8000   2504.5000   2084.7000    121.7495      0.0249   3608.3755   -121.7495    225.1948
  3087.2500      9.3391   4596.6226      0.0000     20.6141    358.0000  -1564.9000   2512.3000   2105.7000    121.9186      0.0248   3632.4285   -121.9186    225.2166
  3087.2000      9.3756   4623.4272      0.0000     19.4863    363.0000  -1559.8000   2509.2000   2102.2000    121.8664      0.0248   3626.0591   -121.8664    225.2265
  3087.1500      9.3756   4620.3154      0.0000     18.2958    375.0000  -1553.5000   2508.1001   2102.6001    121.7738      0.0248   3622.8242   -121.7738    225.2370
  3087.1000      9.3756   4589.4199      0.0000     17.2307    364.0000  -1552.4000   2505.8000   2103.5000    121.7792      0.0249   3621.2832   -121.7792    225.2434
  3087.0500      9.3939   4566.9951      0.0000     15.8522    374.0000  -1561.5000   2505.5000   2157.1001    121.9324      0.0246   3656.3496   -121.9324    225.2518
  3087.0000      9.3939   4594.2163      0.0000     15.4136    338.0000  -1583.0000   2484.8000   2187.6001    122.5001      0.0245   3669.5659   -122.5001    225.2518
  3086.9500      9.3939   4629.0874      0.0000     15.1630    348.0000  -1576.0000   2483.2000   2192.1001    122.4019      0.0245   3668.1550   -122.4019    225.2490
  3086.9000      9.3939   4623.0610      0.0000     16.4161    357.0000  -1612.4000   2443.8000   2218.5000    123.4165      0.0245   3673.3818   -123.4165    225.2469
  3086.8500      9.3939   4578.8906      0.0000     18.2332    416.0000  -1637.6000   2485.3000   2223.5000    123.3815      0.0242   3715.1584   -123.3815    225.2342
  3086.8000      9.3939   4551.0928      0.0000     21.6166    386.0000  -1637.0000   2477.1001   2219.3000    123.4589      0.0243   3706.8972   -123.4589    225.2089
  3086.7500      9.3574   4571.5752      0.0000     24.7495    355.0000  -1639.7000   2450.3999   2146.8000    123.7887      0.0247   3647.1667   -123.7887    225.1878
  3086.7000      9.3574   4600.2065      0.0000     28.1330    367.0000  -1636.8000   2498.7000   2056.2000    123.2272      0.0248   3626.3721   -123.2272    225.1695
  3086.6500      9.3574   4582.4155      0.0000     30.8899    370.0000  -1646.4000   2507.2000   2025.8000    123.2917      0.0249   3619.4683   -123.2917    225.1611
  3086.6000      9.3391   4525.5981      0.0000     31.8924    368.0000  -1626.9000   2528.8000   1987.4000    122.7551      0.0250   3604.3574   -122.7551    225.1611
  3086.5500      9.3391   4485.8467      0.0000     32.0804    366.0000  -1599.6000   2517.6001   1981.2000    122.4305      0.0251   3580.8076   -122.4305    225.1695
  3086.5000      9.3391   4519.8896      0.0000     29.0728    377.0000  -1580.2000   2529.0000   1983.6000    121.9985      0.0251   3581.5557   -121.9985    225.1808
  3086.4500      9.3208   4564.3330      0.0000     25.7520    364.0000  -1567.2000   2557.3000   2022.2000    121.5014      0.0249   3617.3459   -121.5014    225.1829
  3086.4000      9.3208   4559.5220      0.0000     21.9926    359.0000  -1568.9000   2530.2000   2051.1001    121.8018      0.0249   3615.2969   -121.8018    225.1787
  3086.3500      9.3208   4501.1045      0.0000     17.3560    361.0000  -1543.3000   2524.7000   2078.8000    121.4366      0.0249   3616.2542   -121.4366    225.1702
  3086.3000      9.3391   4485.0923      0.0000     14.7870    362.0000  -1544.8000   2527.1001   2103.8000    121.4372      0.0248   3632.9900   -121.4372    225.1639
  3086.2500      9.3391   4513.7114      0.0000     13.7219    362.0000  -1552.9000   2524.3000   2106.0000    121.5990      0.0248   3635.7703   -121.5990    225.1576
  3086.2000      9.3391   4554.5981      0.0000     13.1580    357.0000  -1564.4000   2519.2000   2105.5000    121.8399      0.0247   3636.8730   -121.8399    225.1505
  3086.1500      9.3574   4552.1030      0.0000     12.7820    371.0000  -1562.5000   2511.0000   2109.3999    121.8924      0.0248   3632.6431   -121.8924    225.1470
  3086.1000      9.3574   4519.0146      0.0000     13.4086    363.0000  -1559.5000   2512.0000   2113.3000    121.8328      0.0248   3634.3118   -121.8328    225.1456
  3086.0500      9.3574   4511.7290      0.0000     14.4111    363.0000  -1549.4000   2502.7000   2130.1001    121.7613      0.0248   3633.3833   -121.7613    225.1498
  3086.0000      9.3025   4560.2925      0.0000     14.3484    371.0000  -1562.4000   2518.5000   2160.1001    121.8142      0.0245   3667.4199   -121.8142    225.1611
  3085.9500      9.3025   4584.0400      0.0000     15.3510    364.0000  -1552.8000   2549.3000   2186.8000    121.3459      0.0243   3700.2991   -121.3459    225.1759
  3085.9000      9.3025   4552.1304      0.0000     16.4788    364.0000  -1583.4000   2580.8999   2203.3000    121.5294      0.0240   3744.6936   -121.5294    225.1948
  3085.8500      9.3025   4499.8037      0.0000     17.2307    364.0000  -1566.8000   2553.5000   2182.0000    121.5328      0.0243   3706.2581   -121.5328    225.2124
