~Version Information
VERS.                      2.0: CWLS Log ASCII Standard - VERSION 2.0
WRAP.                       NO: One line per depth step
~Well Information Block
STRT.M               3782.3500: START DEPTH
STOP.M               3681.1500: STOP DEPTH
STEP.M                 -0.0500: STEP
NULL.                -999.2500: NULL VALUE
COMP.                  STATOIL: COMPANY
WELL.               15/9-F-1-C: WELL
FLD.                     VOLVE: FIELD
LOC.                          : LOCATION
SRVC.          Halliburton Logging Services: SERVICE COMPANY
DATE.          Thu Dec 04 04-49-02 2014: LOG DATE
UWI.                          : UNIQUE WELL ID
CTRY.                   NORWAY: COUNTRY
SECT.                         : SECTION
TOWN.                         : TOWNSHIP
RANG.                         : RANGE
API.                          : API#
OS.                   --NONE--: OTHER SERVICES
PDAT.FT                  M.S.L: PERMANENT DATUM
EEL.FT                   54.9M: ELEVATION
LMF.FT                   R.K.B: LOG MEASURED FROM
DMF.FT                   R.K.B: DRILLING MEASURED FROM
EKB.FT                   54.9M: KB
EDF.FT                   54.9M: DF
EGL.FT                    -91M: GL
DATE1.         03-DEC-14 @ 05:47: DATE1
RUN1.                    1 & 2: RUN NUMBER
TDD1.FT                  4094M: DEPTH DRILLER
TDL1.FT                  3782M: DEPTH LOGGER
BLI1.FT                  3772M: BOTTOM LOGGED INTERVAL
TLI1.FT                  3572M: TOP LOG INTERVAL
CDD1.IN_FT                    : CASING DRILLER
CDL1.FT                       : CASING LOGGER
BS1.IN                    8.5": BIT SIZE
DFT1.                SEA WATER: TYPE FLUID IN HOLE
DFDV1.GM/C3_CP          1.03SG: DENSITY/VISCOSITY
DFPL1.C3                      : PH/FLUID LOSS
MSS1.                         : SOURCE OF SAMPLE
RMT1.OHHM_DEGF                : RM@MEASURED TEMP
RMFT1.OHMM_DEGF                : RMF@MEASURED TEMP
RMCT1.OHMM_DEGF                : RMC@MEASURED TEMP
RMFS1.                        : SOURCE OF RMF/RMC
RMBT1.OHMM_DEGF                : RM@BHT
TCS1.                         : TIME CIRCULATION STOPPED
TLOB1.                36 HOURS: TIME LOGGER ON BOTTOM
BHT1.DEGF                 FULL: MAXIMUM RECORDED TEMPERATURE
LUN1.                 12030699: EQUIPMENT NUMBER
LUL1.                   NORWAY: LOCATION
ENGI1.              C.JAMIESON: RECORDED BY
WITN1.                A.ALBAWI: WITNESSED BY
~Curve Information Block
DEPT.M             0 000 00 00: Depth
LSPD.M/MIN                   0: Line Speed
LTEN.LB                      0: Surface Line Tension
MINMK.                       0: Minute Mark Ticks
HVOLTA.V                     0: Head Voltage Apparent
CCL.                         0: Casing Collar Locator
~Parameter Information Block
SRFTEMP.DEGC           12.0000: Surface Temperature
MudWgt.LB/GAL           8.5600: Mud Weight
CASETHCK.IN             0.4530: Casing Thickness
BITSIZE.IN             12.2500: Borehole I.D.
~Other Information
TOOL STRING DEPLOYED BY ALTUS INTERVENTION WIRELINE UNIT ON 7/16" CABLE
CABLE HEAD BUILT BY ALTUS
LOG CORRELATED TO SHLUMBERGER 4.5" HSD OX POWER JET PULS DATED 09.APRIL.2014
CORRELATION LOG IS SHALLOWER BY 1.4M, DEPTH SHIFTED 1.4M DOWN AS PER
CLIENTS REQUEST.
4.655" HSC GUN 10 AND 350 DEGREE PHASING, 39 GR MILLENIUM, 4 SHOTS PER FOOT.
ATTEMPT WAS MADE TO RUN 4 GUNS IN ONE STRING BUT AT 3600M PICK UP WEIGHT 
WAS TOO HIGH TO CONTINUE.  CLIENT D4ECIDED TO SPLIT UP ONTO TWO RUNS.
RUN #1 CCL TO TOP SHOT 3.25 M, CCL STOP DEPT: 3729.75 M
PERFORATION INTERVAL 3733M - 3742.6M
RUN #2 CCL TO TOP SHOT 3.25 M, CCL STOP DEPT: 3711.75 M
PERFORATION INTERVAL 3715M - 3724.6M

~A  Depth       LSPD        LTEN       MINMK       HVOLTA       CCL     
# ...
  3692.7500      9.3574   6992.1777      0.0000      3.5049     -0.0375
  3692.7000      9.3574   6992.1777      0.0000      3.5049     -0.0232
  3692.6500      9.3574   6962.6099      0.0000      3.4851      0.1654
  3692.6000      9.3574   6947.9326      0.0000      3.5461     -0.0092
  3692.5500      9.3574   6947.9326      0.0000      3.5461     -0.0223
  3692.5000      9.3939   6949.9912      0.0000      3.4851     -0.0311
  3692.4500      9.3939   6981.3433      0.0000      3.4546     -0.0229
  3692.4000      9.3939   6981.3433      0.0000      3.4546     -0.0110
  3692.3500      9.3939   7029.2119      0.0000      3.4645     -0.0116
  3692.3000      9.3939   7068.9209      0.0000      3.4851     -0.0125
  3692.2500      9.3939   7068.9209      0.0000      3.4851     -0.0079
  3692.2000      9.3939   7099.6343      0.0000      3.4950     -0.0128
  3692.1500      9.3939   7127.0498      0.0000      3.5255     -0.0171
  3692.1000      9.3939   7127.0498      0.0000      3.5255     -0.0073
  3692.0500      9.3939   7147.3037      0.0000      3.4851     -0.0125
  3692.0000      9.3939   7167.3184      0.0000      3.4752     -0.0131
  3691.9500      9.3939   7167.3184      0.0000      3.4752     -0.0076
  3691.9000      9.3939   7194.5146      0.0000      3.4851     -0.0146
  3691.8500      9.3574   7216.2778      0.0000      3.4546     -0.0092
  3691.8000      9.3574   7216.2778      0.0000      3.4546     -0.0128
  3691.7500      9.3574   7231.7881      0.0000      3.4950     -0.0104
  3691.7000      9.3391   7231.7881      0.0000      3.4950     -0.0046
  3691.6500      9.3391   7254.6655      0.0000      3.5156     -0.0403
  3691.6000      9.3391   7267.7017      0.0000      3.4851      0.0125
  3691.5500      9.3391   7267.7017      0.0000      3.4851     -0.1013
  3691.5000      9.3391   7241.5317      0.0000      3.4546     -0.0128
  3691.4500      9.3391   7175.8677      0.0000      3.4851     -0.0992
  3691.4000      9.3391   7175.8677      0.0000      3.4851      1.1740
  3691.3500      9.3391   7078.6245      0.0000      3.4752     -0.2704
  3691.3000      9.3391   6955.4102      0.0000      3.4851     -0.8463
  3691.2500      9.3939   6955.4102      0.0000      3.4851     -1.4462
  3691.2000      9.3939   6833.4658      0.0000      3.4645      0.2777
  3691.1500      9.3939   6743.4644      0.0000      3.4851     -0.1300
  3691.1000      9.4458   6743.4644      0.0000      3.4851      0.2762
  3691.0500      9.4458   6693.7178      0.0000      3.4950      0.0745
  3691.0000      9.4458   6689.9443      0.0000      3.4744     -0.0424
  3690.9500      9.4823   6689.9443      0.0000      3.4744     -0.0034
  3690.9000      9.4823   6731.1787      0.0000      3.4851     -0.0064
  3690.8500      9.4823   6790.4321      0.0000      3.4851     -0.0107
  3690.8000      9.4823   6790.4321      0.0000      3.4851     -0.0076
  3690.7500      9.4823   6846.2842      0.0000      3.4851     -0.0116
  3690.7000      9.4823   6901.0669      0.0000      3.4851     -0.0076
  3690.6500      9.4823   6901.0669      0.0000      3.4851     -0.0098
  3690.6000      9.4458   6951.3120      0.0000      3.5156     -0.0027
  3690.5500      9.4458   6988.7539      0.0000      3.4752     -0.0171
  3690.5000      9.4458   6988.7539      0.0000      3.4752     -0.0064
  3690.4500      9.3756   7023.1514      0.0000      3.4851     -0.0128
  3690.4000      9.3756   7059.6880      0.0000      3.4950     -0.0073
  3690.3500      9.3756   7059.6880      0.0000      3.4950     -0.0079
  3690.3000      9.3574   7086.5000      0.0000      3.4851     -0.0125
  3690.2500      9.3574   7109.4614      0.0000      3.4752     -0.0104
  3690.2000      9.3574   7109.4614      0.0000      3.4752     -0.0156
  3690.1500      9.3208   7143.0884      0.0000      3.4950     -0.0049
  3690.1000      9.3208   7143.0884      0.0000      3.4950     -0.0067
  3690.0500      9.3208   7175.9629      1.0000      3.4851     -0.0116
  3690.0000      9.3208   7197.1890      0.0000      3.4447     -0.0131
  3689.9500      9.3208   7197.1890      0.0000      3.4447     -0.0076
  3689.9000      9.3208   7216.3062      0.0000      3.4851      0.0006
  3689.8500      9.3391   7233.8945      0.0000      3.4950     -0.0253
  3689.8000      9.3391   7233.8945      0.0000      3.4950     -0.0244
  3689.7500      9.3391   7239.5054      0.0000      3.5156     -0.0214
  3689.7000      9.3574   7229.4590      0.0000      3.5156     -0.1566
  3689.6500      9.3574   7229.4590      0.0000      3.5156      0.0177
  3689.6000      9.3574   7193.2637      0.0000      3.4950      0.1447
  3689.5500      9.3939   7117.1831      0.0000      3.5049     -1.3681
  3689.5000      9.3939   7117.1831      0.0000      3.5049      0.2573
  3689.4500      9.3939   7014.9229      0.0000      3.4851     -0.4095
  3689.4000      9.3939   6911.5894      0.0000      3.4447     -0.3198
  3689.3500      9.4092   6911.5894      0.0000      3.4447     -0.0986
  3689.3000      9.4092   6811.8423      0.0000      3.4950      0.2856
  3689.2500      9.4092   6715.5220      0.0000      3.4752      0.0934
  3689.2000      9.4092   6715.5220      0.0000      3.4752      0.5963
  3689.1500      9.4092   6632.6460      0.0000      3.4546     -0.1141
  3689.1000      9.4092   6574.6865      0.0000      3.5362      0.0949
  3689.0500      9.4092   6574.6865      0.0000      3.5362      0.0458
  3689.0000      9.4092   6555.7422      0.0000      3.5255     -0.0259
  3688.9500      9.4092   6582.6030      0.0000      3.4950     -0.0089
  3688.9000      9.3939   6582.6030      0.0000      3.4950      0.0134
  3688.8500      9.3939   6633.5840      0.0000      3.4851     -0.0012
  3688.8000      9.3939   6682.9683      0.0000      3.4546     -0.0171
  3688.7500      9.3939   6682.9683      0.0000      3.4546     -0.0089
  3688.7000      9.3939   6731.8735      0.0000      3.4851     -0.0058
  3688.6500      9.3939   6779.9409      0.0000      3.4950     -0.0122
  3688.6000      9.3939   6779.9409      0.0000      3.4950     -0.0134
  3688.5500      9.3939   6813.5122      0.0000      3.4851     -0.0067
  3688.5000      9.3939   6813.5122      0.0000      3.4851     -0.0043
  3688.4500      9.3939   6838.9316      0.0000      3.5156     -0.0113
  3688.4000      9.3939   6871.0347      0.0000      3.4645     -0.0150
  3688.3500      9.3939   6871.0347      0.0000      3.4645     -0.0034
  3688.3000      9.3939   6906.0142      0.0000      3.4851     -0.0076
  3688.2500      9.4275   6943.4097      0.0000      3.4851     -0.0131
  3688.2000      9.4275   6943.4097      0.0000      3.4851     -0.0043
  3688.1500      9.4275   6989.8364      0.0000      3.4851     -0.0134
  3688.1000      9.3939   7029.9053      0.0000      3.4645     -0.0107
  3688.0500      9.3939   7029.9053      0.0000      3.4645     -0.0070
  3688.0000      9.3939   7048.3726      0.0000      3.5156     -0.0146
  3687.9500      9.3756   7061.8525      0.0000      3.4752     -0.0043
  3687.9000      9.3756   7061.8525      0.0000      3.4752      0.0006
  3687.8500      9.3756   7081.0518      0.0000      3.5156      0.0031
  3687.8000      9.3574   7088.8511      0.0000      3.5057     -0.0064
  3687.7500      9.3574   7088.8511      0.0000      3.5057     -0.0320
  3687.7000      9.3574   7074.3638      0.0000      3.4851      0.0125
  3687.6500      9.3391   7036.4233      0.0000      3.4851      0.0705
  3687.6000      9.3391   7036.4233      0.0000      3.4851     -0.1724
  3687.5500      9.3391   6970.1494      0.0000      3.4546     -0.7559
  3687.5000      9.3574   6880.6782      0.0000      3.4851      0.0488
  3687.4500      9.3574   6880.6782      0.0000      3.4851     -0.1651
  3687.4000      9.3574   6778.4092      0.0000      3.4851      1.1075
  3687.3500      9.3939   6664.3496      0.0000      3.4546     -0.2316
  3687.3000      9.3939   6664.3496      0.0000      3.4546     -0.0497
  3687.2500      9.3939   6552.6650      0.0000      3.4851     -0.0116
  3687.2000      9.3939   6473.4780      0.0000      3.5156      0.6140
