~Version Information
VERS.             2.0 : CWLS log ASCII standard - Version 2.0
WRAP.             NO  : One line per depth step
#
~Well Information Block
#MNEM.UNIT                   Data Type:Information
#__________________________________________________________
 STRT .M           2450.13480  :START INDEX                  
  STOP.M           3113.3796 : STOP INDEX                    
 STEP .M              0.00000  :STEP                         
  NULL.              -999.25 : NULL VALUE                    
  COMP.              Statoil : COMPANY                       
  WELL.            15_9_F-12 : WELL                          
   FLD.                Volve : FIELD                         
   LOC.           Maersk Inspirer : LOCATION                      
  PROV.                      : PROVINCE                      
  CNTY.                      : COUNTY                        
  STAT.                      : STATE                         
  CTRY.                      : COUNTRY                       
  SRVC.              SLB D&M : SERVICE COMPANY               
  DATE.                      : LOG DATE                      
   UWI.                      : UNIQUE WELL ID                
   API.                      : API NUMBER                    
#
~Curve Information Block
#MNEM.UNIT                     : Curve Description
#---------                     --------------------
DEPT        .M                 : Bit Depth 2hz                                                   
TVDE        .M                 : SVY TVD_EXTR 2hz                                                
ARC_GR_RT   .GAPI              : ARC Gamma Ray, Real-Time                                        
ROP5        .M/HR              : 5ft ROP 2hz                                                     
SWOB        .KKGF              : Surface Weight on Bit 2hz                                       
RPM         .RPM               : SRF SRPM 2hz                                                    
TFLO        .LPM               : HSPM Total Pump Flow 2hz                                        
TRPM_RT     .RPM               : MWD TUR_RPM 2hz                                                 
SPPA        .BAR               : SRF PUMPRS 2hz                                                  
TQA         .KMN               : SRF STOR 2hz                                                    
SHKRSK_RT   .----              : MWD SHKRSK 2hz                                                  
SHK2_RT     .----              : ARC Shock Level, Real-Time                                      
SHK_ADN_RT  .----              : ADN Shock Level, Real-Time                                      
PDSHKRSK    .----              : PowerDrive Shock Risk 2hz                                       
ECD_ARC     .G/C3              : Equivalent Circulating Density                                  
ATMP        .DEGC              : ARC Annular Temperature                                         
APRS_ARC    .BAR               : ARC Annular Pressure                                            
#
~Parameter Information Block
#MNEM.UNIT                       Value:Description
#__________________________________________________________
#
~Other Information Block

#
~A    DEPT       TVDE  ARC_GR_RT       ROP5       SWOB        RPM       TFLO    TRPM_RT       SPPA        TQA  SHKRSK_RT    SHK2_RT SHK_ADN_RT   PDSHKRSK    ECD_ARC       ATMP   APRS_ARC
# ...
 2600.8584  2508.4016    69.2028    18.3729     3.0663   177.6297  3323.2142    -999.25   192.6128    29.4067    -999.25     0.0000     0.0000    -999.25     1.3682    71.0000   336.1195
 2601.0107  2508.5415    64.8787    18.3731     3.1258   178.6000  3323.2142    -999.25   192.5058    28.4840    -999.25    -999.25    -999.25    -999.25     1.3682    71.0000   336.1195
 2601.1631  2508.6817    -999.25    18.3735     2.9999   177.9636  3323.2142    -999.25   192.5233    28.0847    -999.25    -999.25    -999.25    -999.25     1.3684    71.0000   336.1885
 2601.3157  2508.8312    73.6664    18.3779     2.7413   176.5185  3323.2142    -999.25   192.4970    27.1857    -999.25    -999.25    -999.25    -999.25     1.3683    71.0000   336.1885
 2601.4680  2508.9714    -999.25    18.3806     2.5449   177.2363  3323.2142    -999.25   192.7996    26.1973    -999.25    -999.25    -999.25     0.0000     1.3685    71.0000   336.2574
 2601.6204  2509.1115    -999.25    18.3799     2.4646   178.1111  3323.2142  2421.8750   192.9960    27.3499     0.0000    -999.25    -999.25    -999.25     1.3681    71.0000   336.1885
 2601.7727  2509.2517    -999.25    18.3845     2.3042   178.2364  3323.2142    -999.25   193.1215    27.9697    -999.25    -999.25     0.0000    -999.25     1.3684    71.0000   336.2574
 2601.9253  2509.4012    78.2694    18.3855     2.6322   180.0926  3323.2142    -999.25   192.7057    27.2015    -999.25     0.0000    -999.25    -999.25     1.3686    71.0000   336.3264
 2602.0776  2509.5414    69.2028    20.1111     2.5784   179.4182  3323.2142    -999.25   192.5727    30.2772    -999.25    -999.25    -999.25    -999.25     1.3685    71.0000   336.3264
 2602.2300  2509.6816    -999.25    20.1138     2.6869   177.5273  3323.2142    -999.25   192.6998    25.6244    -999.25    -999.25    -999.25    -999.25     1.3684    71.0000   336.3264
 2602.3823  2509.8215    64.8787    20.1155     2.8296   178.7963  3323.2142    -999.25   192.9308    25.9949    -999.25    -999.25    -999.25    -999.25     1.3686    71.0000   336.3953
 2602.5349  2509.9620    -999.25    20.1131     2.5825   177.4909  3323.2142  2421.8750   193.1599    27.6051    -999.25    -999.25    -999.25     0.0000     1.3688    71.0000   336.4643
 2602.6873  2510.1114    50.8429    20.1130     2.4214   179.0741  3323.2142    -999.25   193.3073    29.3466     0.0000    -999.25     0.0000    -999.25     1.3685    71.0000   336.3953
 2602.8396  2510.2519    -999.25    20.1127     2.8119   177.7818  3323.2142    -999.25   193.0149    28.3691    -999.25     0.0000    -999.25    -999.25     1.3684    71.0000   336.3953
 2602.9919  2510.3918    -999.25    20.1078     2.8104   177.1297  3323.2142    -999.25   192.6959    29.0021    -999.25    -999.25    -999.25    -999.25     1.3683    71.0000   336.3953
 2603.1443  2510.5320    -999.25    20.1004     2.6876   177.6727  3323.2142    -999.25   192.7136    29.4263    -999.25    -999.25    -999.25    -999.25     1.3685    71.0000   336.4643
 2603.2969  2510.6814    71.4172    20.1012     2.9795   178.6545  3323.2142    -999.25   192.7586    31.3592    -999.25    -999.25    -999.25    -999.25     1.3687    71.0000   336.5332
 2603.4492  2510.8213    -999.25    20.1045     2.6349   178.2222  3323.2142  2421.8750   193.1502    28.9880    -999.25    -999.25    -999.25     0.0000     1.3686    71.0000   336.5332
 2603.6016  2510.9618    47.1465    20.1111     2.5596   179.9637  3323.2142    -999.25   193.4464    27.4876     0.0000    -999.25    -999.25    -999.25     1.3686    71.0000   336.5332
 2603.7539  2511.1017    -999.25    20.1085     2.8825   176.9630  3323.2142    -999.25   193.3911    26.7172    -999.25     0.0000    -999.25    -999.25     1.3691    71.0000   336.6711
 2603.9065  2511.2514    60.6941    20.1030     3.2303   177.5454  3323.2142    -999.25   193.3386    26.5738    -999.25    -999.25    -999.25    -999.25     1.3690    71.0000   336.6711
 2604.0588  2511.3916    47.1465    20.1008     3.2477   178.2963  3323.2142    -999.25   193.0235    30.8629    -999.25    -999.25    -999.25    -999.25     1.3686    72.0000   336.6022
 2604.2112  2511.5318    -999.25    20.0955     3.5314   178.9455  3323.2142    -999.25   193.0580    29.8427    -999.25    -999.25    -999.25    -999.25     1.3688    72.0000   336.6711
 2604.3635  2511.6720    -999.25    20.0927     3.6379   179.0546  3323.2142  2421.8750   193.1528    26.9350    -999.25    -999.25    -999.25     0.0000     1.3688    72.0000   336.6711
 2604.5161  2511.8214    -999.25    20.0971     3.9969   180.1111  3323.2142    -999.25   193.5599    28.9599     0.0000    -999.25    -999.25    -999.25     1.3687    72.0000   336.6711
 2604.6685  2511.9616    -999.25    20.1034     3.9969   178.3273  3323.2142    -999.25   193.6241    31.4639    -999.25     0.0000    -999.25    -999.25     1.3689    72.0000   336.7401
 2604.8208  2512.1018    -999.25    20.1015     4.1344   177.0741  3323.2142    -999.25   193.5413    28.6710    -999.25    -999.25    -999.25    -999.25     1.3688    72.0000   336.7401
 2604.9731  2512.2420    -999.25    20.0957     4.2205   177.6000  3323.2142    -999.25   193.4178    29.5976    -999.25    -999.25    -999.25    -999.25     1.3687    72.0000   336.7401
 2605.1255  2512.3911    69.2028    20.0919     4.5090   179.1636  3323.2142    -999.25   193.3318    29.6826    -999.25    -999.25    -999.25    -999.25     1.3687    72.0000   336.7401
 2605.2781  2512.5316    -999.25    20.0887     4.4796   178.2037  3323.2142  2421.8750   193.2838    32.0680    -999.25    -999.25    -999.25     0.0000     1.3689    72.0000   336.8090
 2605.4304  2512.6715    64.8787    20.0883     4.1253   180.2909  3323.2142    -999.25   193.3756    32.0233     0.0000    -999.25    -999.25    -999.25     1.3691    72.0000   336.8780
 2605.5828  2512.8120    -999.25    20.0926     3.3312   177.4727  3323.2142    -999.25   193.6985    34.6114    -999.25     0.0000    -999.25    -999.25     1.3693    72.0000   336.9469
 2605.7351  2512.9614    87.8940    20.0977     3.1045   178.7778  3323.2142    -999.25   193.5935    29.3869    -999.25    -999.25    -999.25    -999.25     1.3695    72.0000   337.0159
 2605.8877  2513.1016    -999.25    20.1007     3.1347   178.0727  3323.2142    -999.25   193.3829    29.3152    -999.25    -999.25    -999.25    -999.25     1.3694    72.0000   337.0159
 2606.0400  2513.2418    -999.25    20.0999     3.0696   179.0000  3323.2142    -999.25   193.3026    28.1466    -999.25    -999.25     0.0000    -999.25     1.3682    71.0000   336.7401
 2606.1924  2513.3820    -999.25    20.0985     3.7861   178.4000  3323.2142  2460.9375   193.2288    26.9672    -999.25    -999.25    -999.25     0.0000     1.3681    71.0000   336.7401
 2606.3447  2513.5222    -999.25    20.0924     3.3720   178.6000  3323.2142    -999.25   193.3831    29.6962     0.0000    -999.25    -999.25    -999.25     1.3678    71.0000   336.6711
 2606.4973  2513.6716    83.0120    20.0953     4.2631   179.1111  3323.2142    -999.25   193.6909    29.1158    -999.25     0.0000    -999.25    -999.25     1.3683    71.0000   336.8090
 2606.6497  2513.8118    71.4172    20.0767     5.5365   177.2546  3323.2142    -999.25   193.8197    30.3045    -999.25    -999.25    -999.25    -999.25     1.3685    71.0000   336.8780
 2606.8020  2513.9520    -999.25    19.9390     6.5766   176.9491  3323.2142    -999.25   193.7350    29.6468    -999.25    -999.25    -999.25    -999.25     1.3681    71.0000   336.8090
 2606.9543  2514.0922    47.1465    19.8440     4.5097   176.0702  3323.2142    -999.25   193.4503    26.0105    -999.25    -999.25     0.0000    -999.25     1.3683    71.0000   336.8780
 2607.1067  2514.2417    -999.25    19.8346     4.6172   176.5636  3323.2142  2421.8750   193.2591    29.9733    -999.25    -999.25    -999.25     0.0000     1.3682    72.0000   336.8780
 2607.2593  2514.3818    45.3506    19.8348     4.4890   175.9074  3323.2142    -999.25   193.3093    31.9342     0.0000    -999.25    -999.25    -999.25     1.3679    71.0000   336.8090
