~Version Information
VERS.                      2.0: CWLS Log ASCII Standard - VERSION 2.0
WRAP.                       NO: One line per depth step
~Well Information Block
STRT.M               3169.9500: START DEPTH
STOP.M               3076.7000: STOP DEPTH
STEP.M                 -0.0500: STEP
NULL.                -999.2500: NULL VALUE
COMP.                  Statoil: COMPANY
WELL.                15/9-F-12: WELL
FLD.                     Volve: FIELD
LOC.                          : LOCATION
SRVC.          Halliburton Logging Services: SERVICE COMPANY
DATE.          Wed Nov 26 07-57-02 2014: LOG DATE
UWI.                          : UNIQUE WELL ID
SECT.                         : SECTION
TOWN.                         : TOWNSHIP
RANG.                         : RANGE
API.                          : API#
OS.                           : OTHER SERVICES
PDAT.FT                       : PERMANENT DATUM
EEL.FT                        : ELEVATION
LMF.FT                        : LOG MEASURED FROM
DMF.FT                        : DRILLING MEASURED FROM
EKB.FT                        : KB
EDF.FT                        : DF
EGL.FT                        : GL
DATE1.                        : DATE1
RUN1.                         : RUN NUMBER
TDD1.FT                       : DEPTH DRILLER
TDL1.FT                       : DEPTH LOGGER
BLI1.FT                       : BOTTOM LOGGED INTERVAL
TLI1.FT                       : TOP LOG INTERVAL
CDD1.IN_FT                    : CASING DRILLER
CDL1.FT                       : CASING LOGGER
BS1.IN                        : BIT SIZE
DFT1.                         : TYPE FLUID IN HOLE
DFDV1.GM/C3_CP                : DENSITY/VISCOSITY
DFPL1.C3                      : PH/FLUID LOSS
MSS1.                         : SOURCE OF SAMPLE
RMT1.OHHM_DEGF                : RM@MEASURED TEMP
RMFT1.OHMM_DEGF                : RMF@MEASURED TEMP
RMCT1.OHMM_DEGF                : RMC@MEASURED TEMP
RMFS1.                        : SOURCE OF RMF/RMC
RMBT1.OHMM_DEGF                : RM@BHT
TCS1.                         : TIME CIRCULATION STOPPED
TLOB1.                        : TIME LOGGER ON BOTTOM
BHT1.DEGF                     : MAXIMUM RECORDED TEMPERATURE
LUN1.                         : EQUIPMENT NUMBER
LUL1.                         : LOCATION
ENGI1.                        : RECORDED BY
WITN1.                        : WITNESSED BY
~Curve Information Block
DEPT.M             0 000 00 00: Depth
LSPD.M/MIN                   0: Line Speed
LTEN.LB                      0: Surface Line Tension
MINMK.                       0: Minute Mark Ticks
GR.GAPI                      0: Gamma Ray
CCL.                         0: Casing Collar Locator
ACCX.                        0: X Axis Accelerometer
ACCY.                        0: Y Axis Accelerometer
ACCZ.                        0: Z Axis Accelerometer
RB.DEG                       0: Relative Bearing
DEVI.DEG                     0: Deviation
TOTG.GEE                     0: Total G
RBRef.DEG                    0: RB Reference
IntTemp.DEGF                 0: Internal Electronics Temperature
~Parameter Information Block
~A  Depth       LSPD        LTEN       MINMK         GR         CCL         ACCX        ACCY        ACCZ         RB         DEVI        TOTG       RBRef      IntTemp   
# ...
  3085.9500      9.3756   4225.4761      0.0000     16.2282    543.0000   2564.0000   1536.0000   2130.3999     30.9243      0.0245   3670.4216    -30.9243    226.2812
  3085.9000      9.3756   4225.4263      0.0000     15.1630    533.0000   2547.8000   1571.6000   2163.1001     31.6682      0.0244   3693.2659    -31.6682    226.2833
  3085.8500      9.3756   4194.1611      0.0000     14.5991    523.0000   2542.8000   1553.1000   2148.0000     31.4159      0.0245   3673.1262    -31.4159    226.2769
  3085.8000      9.4092   4206.4966      0.0000     14.3484    533.0000   2547.3000   1544.0000   2105.3999     31.2214      0.0247   3647.6543    -31.2214    226.2657
  3085.7500      9.4092   4241.7261      0.0000     13.9725    534.0000   2553.5000   1543.1000   2115.3000     31.1449      0.0246   3657.3232    -31.1449    226.2509
  3085.7000      9.4092   4293.3931      0.0000     14.2858    521.0000   2542.3000   1559.5000   2070.2000     31.5258      0.0248   3630.5725    -31.5258    226.2369
  3085.6500      9.4458   4298.8086      0.0000     14.3484    524.0000   2546.7000   1543.9000   2075.1001     31.2257      0.0248   3629.7864    -31.2257    226.2277
  3085.6000      9.4458   4265.0503      0.0000     14.2231    510.0000   2547.3999   1546.8000   2044.1000     31.2664      0.0249   3613.8872    -31.2664    226.2277
  3085.5500      9.4458   4242.3770      0.0000     14.0978    524.0000   2560.0000   1515.4000   2040.9000     30.6235      0.0249   3607.6738    -30.6235    226.2305
  3085.5000      9.4458   4247.2275      0.0000     14.4111    525.0000   2550.5000   1499.4000   2057.2000     30.4506      0.0250   3603.5154    -30.4506    226.2418
  3085.4500      9.4275   4246.4185      0.0000     13.9098    525.0000   2572.5000   1479.6000   2050.3000     29.9058      0.0250   3607.0352    -29.9058    226.2587
  3085.4000      9.4275   4198.1470      0.0000     13.3459    534.0000   2568.3000   1463.7000   2077.5000     29.6792      0.0249   3613.1135    -29.6792    226.2755
  3085.3500      9.4275   4126.4795      0.0000     11.5915    528.0000   2573.1001   1449.7000   2067.6001     29.3972      0.0250   3605.1968    -29.3972    226.2896
  3085.3000      9.4823   4086.7559      0.0000     10.4637    561.0000   2580.0000   1464.4000   2096.6001     29.5791      0.0248   3632.7124    -29.5791    226.2980
  3085.2500      9.4823   4105.5776      0.0000      9.8998    530.0000   2586.7000   1478.6000   2113.5000     29.7530      0.0246   3652.9656    -29.7530    226.2938
  3085.2000      9.4823   4148.3760      0.0000      9.8998    527.0000   2586.0000   1478.7000   2116.3999     29.7613      0.0246   3654.1892    -29.7613    226.2938
  3085.1500      9.4640   4165.2925      0.0000     10.7770    527.0000   2567.7000   1505.7000   2116.8000     30.3874      0.0246   3652.5413    -30.3874    226.2917
  3085.1000      9.4640   4141.0483      0.0000     13.9725    540.0000   2560.3999   1511.4000   2109.8000     30.5533      0.0247   3645.7144    -30.5533    226.2903
  3085.0500      9.4640   4140.1392      0.0000     15.2883    515.0000   2552.6001   1506.6000   2123.3000     30.5500      0.0247   3646.0957    -30.5500    226.2945
  3085.0000      9.3939   4177.4604      0.0000     15.6642    543.0000   2551.3000   1517.0000   2104.2000     30.7357      0.0247   3638.4170    -30.7357    226.3002
  3084.9500      9.3939   4213.9282      0.0000     15.7269    518.0000   2546.5000   1510.6000   2108.7000     30.6767      0.0248   3634.9951    -30.6767    226.3044
  3084.9000      9.3939   4193.9277      0.0000     15.2883    541.0000   2547.0000   1498.6000   2105.3999     30.4716      0.0248   3628.4597    -30.4716    226.2945
  3084.8500      9.4092   4141.4785      0.0000     14.3484    492.0000   2572.2000   1477.8000   2111.1001     29.8786      0.0247   3640.9956    -29.8786    226.2798
  3084.8000      9.4092   4104.5117      0.0000     13.7219    516.0000   2566.1001   1446.5000   2124.0000     29.4098      0.0248   3631.6123    -29.4098    226.2671
  3084.7500      9.4092   4114.4219      0.0000     13.9098    532.0000   2575.1001   1460.4000   2084.8999     29.5586      0.0249   3620.8723    -29.5586    226.2502
  3084.7000      9.4092   4129.5938      0.0000     14.5364    528.0000   2576.3000   1457.8000   2093.5000     29.5034      0.0248   3625.6372    -29.5034    226.2425
  3084.6500      9.4092   4113.0332      0.0000     14.4111    520.0000   2568.1001   1472.1000   2082.5000     29.8224      0.0249   3619.2573    -29.8224    226.2425
  3084.6000      9.4092   4090.0298      0.0000     14.0352    531.0000   2562.7000   1465.6000   2091.8000     29.7651      0.0249   3618.1545    -29.7651    226.2467
  3084.5500      9.4092   4088.8403      0.0000     13.2833    531.0000   2564.2000   1491.0000   2089.1001     30.1766      0.0248   3628.0217    -30.1766    226.2467
  3084.5000      9.4092   4149.2266      0.0000     12.0928    539.0000   2561.5000   1513.7000   2059.8999     30.5807      0.0249   3618.8062    -30.5807    226.2531
  3084.4500      9.4092   4200.2227      0.0000     10.7770    530.0000   2561.7000   1493.4000   2079.7000     30.2410      0.0248   3621.8369    -30.2410    226.2636
  3084.4000      9.4640   4174.2349      0.0000      9.1479    518.0000   2563.3000   1497.7000   2069.2000     30.2971      0.0249   3618.7292    -30.2971    226.2727
  3084.3500      9.4640   4127.5586      0.0000      8.7093    539.0000   2553.2000   1499.4000   2072.2000     30.4241      0.0249   3614.0066    -30.4241    226.2840
  3084.3000      9.4640   4120.3516      0.0000      8.9599    532.0000   2554.8999   1503.2000   2061.2000     30.4708      0.0249   3610.4944    -30.4708    226.2980
  3084.2500      9.4640   4147.2104      0.0000      9.4612    523.0000   2551.0000   1499.9000   2064.8999     30.4541      0.0249   3608.4778    -30.4541    226.3016
  3084.2000      9.4458   4162.7227      0.0000     10.4637    523.0000   2548.8999   1495.7000   2106.1001     30.4045      0.0248   3629.0034    -30.4045    226.2966
  3084.1500      9.4458   4153.1006      0.0000     11.8422    526.0000   2550.2000   1509.8000   2087.1001     30.6269      0.0248   3624.7761    -30.6269    226.2931
  3084.1000      9.4458   4141.0537      0.0000     12.7194    523.0000   2544.8999   1534.1000   2098.2000     31.0821      0.0247   3637.6394    -31.0821    226.2854
  3084.0500      9.4640   4148.5444      0.0000     12.8447    525.0000   2557.0000   1528.7000   2092.2000     30.8731      0.0247   3640.3945    -30.8731    226.2755
  3084.0000      9.4640   4168.5879      0.0000     12.6567    529.0000   2550.8000   1534.3000   2104.8000     31.0268      0.0247   3645.6606    -31.0268    226.2734
  3083.9500      9.4640   4185.6431      0.0000     11.5289    530.0000   2546.8000   1532.7000   2100.0000     31.0401      0.0247   3639.4175    -31.0401    226.2755
  3083.9000      9.4640   4174.4043      0.0000     10.0878    528.0000   2549.6001   1531.6000   2079.0000     30.9942      0.0248   3628.8428    -30.9942    226.2833
  3083.8500      9.4640   4116.0811      0.0000      9.8371    528.0000   2552.8999   1535.7000   2115.3999     31.0291      0.0246   3653.8457    -31.0291    226.3009
  3083.8000      9.4640   4093.1057      0.0000     10.6517    526.0000   2557.1001   1533.0000   2094.8000     30.9430      0.0247   3643.7668    -30.9430    226.3156
  3083.7500      9.4092   4109.8311      0.0000     12.2181    539.0000   2551.6001   1514.6000   2112.8000     30.6929      0.0247   3642.6089    -30.6929    226.3311
  3083.7000      9.4092   4129.9976      0.0000     14.1605    532.0000   2536.8000   1518.7000   2101.8000     30.9076      0.0248   3627.5842    -30.9076    226.3438
  3083.6500      9.4092   4117.5039      0.0000     16.0402    525.0000   2530.8999   1526.4000   2103.3000     31.0944      0.0248   3627.5642    -31.0944    226.3487
  3083.6000      9.4092   4089.1282      0.0000     17.4813    526.0000   2511.0000   1548.3000   2101.0000     31.6583      0.0249   3621.6785    -31.6583    226.3452
