~Version Information
VERS.                      2.0: CWLS Log ASCII Standard - VERSION 2.0
WRAP.                       NO: One line per depth step
~Well Information Block
STRT.M               3169.8000: START DEPTH
STOP.M               3077.9500: STOP DEPTH
STEP.M                 -0.0500: STEP
NULL.                -999.2500: NULL VALUE
COMP.                  Statoil: COMPANY
WELL.                15/9-F-12: WELL
FLD.                     Volve: FIELD
LOC.                          : LOCATION
SRVC.          Halliburton Logging Services: SERVICE COMPANY
DATE.          Wed Nov 26 07-41-16 2014: LOG DATE
UWI.                          : UNIQUE WELL ID
SECT.                         : SECTION
TOWN.                         : TOWNSHIP
RANG.                         : RANGE
API.                          : API#
OS.                           : OTHER SERVICES
PDAT.FT                       : PERMANENT DATUM
EEL.FT                        : ELEVATION
LMF.FT                        : LOG MEASURED FROM
DMF.FT                        : DRILLING MEASURED FROM
EKB.FT                        : KB
EDF.FT                        : DF
EGL.FT                        : GL
DATE1.                        : DATE1
RUN1.                         : RUN NUMBER
TDD1.FT                       : DEPTH DRILLER
TDL1.FT                       : DEPTH LOGGER
BLI1.FT                       : BOTTOM LOGGED INTERVAL
TLI1.FT                       : TOP LOG INTERVAL
CDD1.IN_FT                    : CASING DRILLER
CDL1.FT                       : CASING LOGGER
BS1.IN                        : BIT SIZE
DFT1.                         : TYPE FLUID IN HOLE
DFDV1.GM/C3_CP                : DENSITY/VISCOSITY
DFPL1.C3                      : PH/FLUID LOSS
MSS1.                         : SOURCE OF SAMPLE
RMT1.OHHM_DEGF                : RM@MEASURED TEMP
RMFT1.OHMM_DEGF                : RMF@MEASURED TEMP
RMCT1.OHMM_DEGF                : RMC@MEASURED TEMP
RMFS1.                        : SOURCE OF RMF/RMC
RMBT1.OHMM_DEGF                : RM@BHT
TCS1.                         : TIME CIRCULATION STOPPED
TLOB1.                        : TIME LOGGER ON BOTTOM
BHT1.DEGF                     : MAXIMUM RECORDED TEMPERATURE
LUN1.                         : EQUIPMENT NUMBER
LUL1.                         : LOCATION
ENGI1.                        : RECORDED BY
WITN1.                        : WITNESSED BY
~Curve Information Block
DEPT.M             0 000 00 00: Depth
LSPD.M/MIN                   0: Line Speed
LTEN.LB                      0: Surface Line Tension
MINMK.                       0: Minute Mark Ticks
GR.GAPI                      0: Gamma Ray
CCL.                         0: Casing Collar Locator
ACCX.                        0: X Axis Accelerometer
ACCY.                        0: Y Axis Accelerometer
ACCZ.                        0: Z Axis Accelerometer
RB.DEG                       0: Relative Bearing
DEVI.DEG                     0: Deviation
TOTG.GEE                     0: Total G
RBRef.DEG                    0: RB Reference
IntTemp.DEGF                 0: Internal Electronics Temperature
~Parameter Information Block
~A  Depth       LSPD        LTEN       MINMK         GR         CCL         ACCX        ACCY        ACCZ         RB         DEVI        TOTG       RBRef      IntTemp   
# ...
  3107.4000      9.2842   4605.3486      0.0000     33.7094    669.0000   2469.3000   1529.7000   2143.5000     31.7777      0.0249   3609.9885    -31.7777    224.9952
  3107.3500      9.2842   4602.5728      0.0000     33.8974    144.0000   2480.6001   1485.5000   2112.1001     30.9152      0.0251   3580.6499    -30.9152    224.9853
  3107.3000      9.2842   4601.5288      0.0000     35.3385    383.0000   2454.8000   1495.6000   2135.8000     31.3521      0.0251   3581.1318    -31.3521    224.9839
  3107.2500      9.2842   4607.6504      0.0000     35.5265    368.0000   2465.7000   1506.9000   2155.3999     31.4310      0.0250   3605.0205    -31.4310    224.9888
  3107.2000      9.2842   4601.5557      0.0000     35.9651    356.0000   2488.6001   1527.2000   2157.3999     31.5365      0.0248   3630.4055    -31.5365    224.9888
  3107.1500      9.2842   4576.9521      0.0000     35.5891    349.0000   2506.2000   1487.1000   2159.6001     30.6836      0.0248   3627.1721    -30.6836    224.9895
  3107.1000      9.2842   4555.0645      0.0000     34.4613    361.0000   2513.8999   1481.2000   2145.2000     30.5068      0.0249   3621.5369    -30.5068    224.9916
  3107.0500      9.2842   4532.7900      0.0000     33.0202    364.0000   2501.1001   1505.9000   2142.1001     31.0519      0.0249   3621.0261    -31.0519    224.9937
  3107.0000      9.2842   4519.2905      0.0000     32.1430    367.0000   2543.7000   1508.8000   2121.6001     30.6744      0.0247   3639.7903    -30.6744    224.9846
  3106.9500      9.2842   4519.0981      0.0000     31.4538    368.0000   2548.2000   1501.3000   2117.2000     30.5049      0.0247   3637.2737    -30.5049    224.9825
  3106.9000      9.2842   4512.0557      0.0000     31.3285    377.0000   2530.3000   1474.4000   2119.3999     30.2293      0.0249   3614.9868    -30.2293    224.9776
  3106.8500      9.3939   4483.4277      0.0000     32.0804    365.0000   2517.1001   1483.6000   2116.3000     30.5155      0.0249   3607.7122    -30.5155    224.9713
  3106.8000      9.3939   4452.8887      0.0000     33.8974    382.0000   2523.6001   1494.8000   2138.8000     30.6395      0.0248   3630.0757    -30.6395    224.9635
  3106.7500      9.3939   4473.6836      0.0000     35.3385    365.0000   2521.1001   1488.9000   2190.0000     30.5651      0.0246   3656.3464    -30.5651    224.9628
  3106.7000      9.3756   4518.2041      0.0000     37.3435    378.0000   2526.8999   1496.9000   2202.0000     30.6419      0.0245   3670.7952    -30.6419    224.9607
  3106.6500      9.3756   4550.8320      0.0000     40.4764    355.0000   2522.5000   1512.0000   2188.7000     30.9387      0.0245   3666.0002    -30.9387    224.9663
  3106.6000      9.3756   4547.3403      0.0000     43.1706    370.0000   2518.0000   1521.5000   2183.6001     31.1424      0.0246   3663.7952    -31.1424    224.9727
  3106.5500      9.3939   4557.1968      0.0000     45.3636    361.0000   2540.2000   1512.1000   2210.3000     30.7640      0.0244   3691.1365    -30.7640    224.9790
  3106.5000      9.3939   4598.6719      0.0000     46.8674    368.0000   2555.2000   1538.8000   2217.3000     31.0573      0.0242   3716.6345    -31.0573    224.9853
  3106.4500      9.3939   4643.0361      0.0000     46.9301    361.0000   2552.8000   1543.3000   2117.8000     31.1551      0.0246   3658.3657    -31.1551    224.9994
  3106.4000      9.3939   4618.6201      0.0000     46.9301    372.0000   2545.3000   1540.4000   2092.8000     31.1821      0.0247   3637.4712    -31.1821    225.0050
  3106.3500      9.3939   4562.0840      0.0000     45.3636    365.0000   2546.3000   1538.1000   2107.1001     31.1342      0.0247   3645.4446    -31.1342    225.0092
  3106.3000      9.3939   4518.5962      0.0000     41.7922    353.0000   2565.2000   1509.3000   2136.8999     30.4715      0.0246   3663.9568    -30.4715    225.0226
  3106.2500      9.3939   4522.3667      0.0000     40.2884    364.0000   2535.3999   1501.2000   2091.5000     30.6296      0.0249   3613.3401    -30.6296    225.0303
  3106.2000      9.3208   4538.4478      0.0000     39.0353    368.0000   2517.5000   1478.1000   2065.7000     30.4185      0.0252   3576.2693    -30.4185    225.0324
  3106.1500      9.3208   4533.1348      0.0000     37.6882    367.0000   2514.8999   1472.2000   2107.5000     30.3443      0.0250   3596.3384    -30.3443    225.0352
  3106.1000      9.3208   4479.4458      0.0000     35.9964    368.0000   2525.5000   1455.0000   2154.3000     29.9473      0.0248   3624.3875    -29.9473    225.0373
  3106.0500      9.3391   4449.9150      0.0000     36.0277    372.0000   2517.0000   1445.2000   2176.6001     29.8634      0.0248   3627.8755    -29.8634    225.0395
  3106.0000      9.3391   4471.6318      0.0000     36.1217    380.0000   2523.6001   1464.7000   2135.3999     30.1309      0.0249   3615.7761    -30.1309    225.0402
  3105.9500      9.3391   4537.1631      0.0000     37.3122    365.0000   2535.1001   1507.3000   2148.8999     30.7345      0.0247   3649.1721    -30.7345    225.0331
  3105.9000      9.3025   4543.2720      0.0000     38.9726    367.0000   2548.3000   1504.0000   2168.8999     30.5490      0.0245   3668.7839    -30.5490    225.0275
  3105.8500      9.3025   4517.0215      0.0000     39.5679    346.0000   2550.3000   1509.0000   2196.6001     30.6126      0.0244   3688.6533    -30.6126    225.0212
  3105.8000      9.3025   4511.9258      0.0000     40.7270    386.0000   2528.6001   1516.9000   2191.0000     30.9594      0.0245   3673.5930    -30.9594    225.0085
  3105.7500      9.2842   4554.3828      0.0000     42.7320    362.0000   2532.0000   1516.1000   2135.6001     30.9121      0.0247   3642.8521    -30.9121    224.9966
  3105.7000      9.2842   4572.3066      0.0000     43.1706    357.0000   2525.3000   1506.3000   2146.6001     30.8154      0.0247   3640.6006    -30.8154    224.9944
  3105.6500      9.2842   4551.1611      0.0000     44.0478    368.0000   2520.5000   1491.4000   2173.7000     30.6131      0.0247   3647.2134    -30.6131    224.9930
  3105.6000      9.3208   4505.2715      0.0000     45.1130    361.0000   2509.3000   1496.6000   2173.1001     30.8127      0.0247   3641.2583    -30.8127    224.9853
  3105.5500      9.3208   4467.2969      0.0000     46.2408    378.0000   2483.0000   1521.3000   2149.5000     31.4952      0.0249   3619.3914    -31.4952    224.9881
  3105.5000      9.3208   4485.9673      0.0000     46.4288    358.0000   2467.7000   1526.8000   2130.3000     31.7457      0.0250   3599.8389    -31.7457    224.9930
  3105.4500      9.3208   4508.2578      0.0000     46.4915    361.0000   2471.3999   1540.3000   2146.8999     31.9332      0.0249   3617.9443    -31.9332    225.0029
  3105.4000      9.3208   4512.1011      0.0000     45.1130    370.0000   2457.5000   1579.2000   2189.3000     32.7250      0.0247   3650.5085    -32.7250    225.0212
  3105.3500      9.3208   4467.9282      0.0000     45.4263    370.0000   2439.7000   1612.6000   2195.1001     33.4640      0.0246   3656.6487    -33.4640    225.0423
  3105.3000      9.3756   4430.4966      0.0000     44.6744    371.0000   2443.3999   1609.5000   2164.0000     33.3734      0.0247   3639.1743    -33.3734    225.0584
  3105.2500      9.3756   4445.5811      0.0000     42.6067    371.0000   2472.8999   1638.5000   2144.3999     33.5278      0.0246   3660.3779    -33.5278    225.0753
  3105.2000      9.3756   4509.4668      0.0000     40.9776    359.0000   2456.8000   1634.0000   2159.8000     33.6276      0.0246   3656.5774    -33.6276    225.0922
  3105.1500      9.3756   4512.5630      0.0000     39.9125    362.0000   2457.3999   1632.3000   2186.1001     33.5937      0.0245   3671.8186    -33.5937    225.1048
  3105.1000      9.3756   4470.5171      0.0000     37.4689    377.0000   2469.6001   1627.0000   2172.1001     33.3773      0.0245   3669.3423    -33.3773    225.1069
  3105.0500      9.3756   4448.2515      0.0000     37.3435    364.0000   2473.1001   1617.3000   2126.7000     33.1829      0.0247   3640.7056    -33.1829    225.0985
