~Version Information
VERS.                      2.0: CWLS Log ASCII Standard - VERSION 2.0
WRAP.                       NO: One line per depth step
~Well Information Block
STRT.M               3169.8000: START DEPTH
STOP.M               3077.9500: STOP DEPTH
STEP.M                 -0.0500: STEP
NULL.                -999.2500: NULL VALUE
COMP.                  Statoil: COMPANY
WELL.                15/9-F-12: WELL
FLD.                     Volve: FIELD
LOC.                          : LOCATION
SRVC.          Halliburton Logging Services: SERVICE COMPANY
DATE.          Wed Nov 26 07-41-16 2014: LOG DATE
UWI.                          : UNIQUE WELL ID
SECT.                         : SECTION
TOWN.                         : TOWNSHIP
RANG.                         : RANGE
API.                          : API#
OS.                           : OTHER SERVICES
PDAT.FT                       : PERMANENT DATUM
EEL.FT                        : ELEVATION
LMF.FT                        : LOG MEASURED FROM
DMF.FT                        : DRILLING MEASURED FROM
EKB.FT                        : KB
EDF.FT                        : DF
EGL.FT                        : GL
DATE1.                        : DATE1
RUN1.                         : RUN NUMBER
TDD1.FT                       : DEPTH DRILLER
TDL1.FT                       : DEPTH LOGGER
BLI1.FT                       : BOTTOM LOGGED INTERVAL
TLI1.FT                       : TOP LOG INTERVAL
CDD1.IN_FT                    : CASING DRILLER
CDL1.FT                       : CASING LOGGER
BS1.IN                        : BIT SIZE
DFT1.                         : TYPE FLUID IN HOLE
DFDV1.GM/C3_CP                : DENSITY/VISCOSITY
DFPL1.C3                      : PH/FLUID LOSS
MSS1.                         : SOURCE OF SAMPLE
RMT1.OHHM_DEGF                : RM@MEASURED TEMP
RMFT1.OHMM_DEGF                : RMF@MEASURED TEMP
RMCT1.OHMM_DEGF                : RMC@MEASURED TEMP
RMFS1.                        : SOURCE OF RMF/RMC
RMBT1.OHMM_DEGF                : RM@BHT
TCS1.                         : TIME CIRCULATION STOPPED
TLOB1.                        : TIME LOGGER ON BOTTOM
BHT1.DEGF                     : MAXIMUM RECORDED TEMPERATURE
LUN1.                         : EQUIPMENT NUMBER
LUL1.                         : LOCATION
ENGI1.                        : RECORDED BY
WITN1.                        : WITNESSED BY
~Curve Information Block
DEPT.M             0 000 00 00: Depth
LSPD.M/MIN                   0: Line Speed
LTEN.LB                      0: Surface Line Tension
MINMK.                       0: Minute Mark Ticks
GR.GAPI                      0: Gamma Ray
CCL.                         0: Casing Collar Locator
ACCX.                        0: X Axis Accelerometer
ACCY.                        0: Y Axis Accelerometer
ACCZ.                        0: Z Axis Accelerometer
RB.DEG                       0: Relative Bearing
DEVI.DEG                     0: Deviation
TOTG.GEE                     0: Total G
RBRef.DEG                    0: RB Reference
IntTemp.DEGF                 0: Internal Electronics Temperature
~Parameter Information Block
~A  Depth       LSPD        LTEN       MINMK         GR         CCL         ACCX        ACCY        ACCZ         RB         DEVI        TOTG       RBRef      IntTemp   
# ...
  3157.8000      9.5890   4913.1543      0.0000     19.8623    362.0000   1493.3000  -2503.5000   2073.8999    300.8154      0.0252   3577.5017     59.1846    224.5986
  3157.7500      9.5890   4918.8481      0.0000     19.6743    368.0000   1492.2000  -2484.8000   2076.6001    300.9861      0.0252   3565.5518     59.0139    224.5852
  3157.7000      9.5707   4969.2192      0.0000     17.9199    364.0000   1499.6000  -2511.5000   2070.3999    300.8412      0.0251   3583.7114     59.1589    224.5782
  3157.6500      9.5707   5014.8193      0.0000     16.2282    361.0000   1495.8000  -2494.6001   2091.5000    300.9475      0.0251   3582.5718     59.0525    224.5656
  3157.6000      9.5707   5005.0356      0.0000     14.4738    372.0000   1508.8000  -2507.5000   2116.2000    301.0359      0.0249   3611.4175     58.9641    224.5508
  3157.5500      9.5707   4914.3501      0.0000     12.0301    365.0000   1511.7000  -2509.1001   2131.3999    301.0684      0.0248   3622.6628     58.9316    224.5276
  3157.5000      9.5707   4845.2261      0.0000     11.2156    373.0000   1517.2000  -2510.0000   2126.8999    301.1514      0.0248   3622.9407     58.8486    224.5191
  3157.4500      9.5707   4805.7329      0.0000     11.9048    367.0000   1513.7000  -2511.0000   2131.8999    301.0827      0.0248   3625.1077     58.9173    224.5135
  3157.4000      9.5707   4782.7524      0.0000     12.2181    371.0000   1519.9000  -2508.2000   2132.8999    301.2147      0.0248   3626.3516     58.7853    224.5184
  3157.3500      9.5707   4747.6958      0.0000     13.2206    367.0000   1516.0000  -2511.7000   2149.3999    301.1141      0.0247   3636.8684     58.8859    224.5388
  3157.3000      9.5707   4695.2588      0.0000     14.4738    366.0000   1531.5000  -2511.3999   2196.0000    301.3756      0.0245   3670.8362     58.6244    224.5677
  3157.2500      9.5707   4663.8325      0.0000     16.2282    373.0000   1519.5000  -2523.2000   2215.0000    301.0568      0.0244   3685.3281     58.9432    224.5880
  3157.2000      9.6256   4707.8936      0.0000     16.9800    366.0000   1505.1000  -2532.3999   2239.8000    300.7246      0.0243   3700.6863     59.2754    224.6084
  3157.1500      9.6256   4762.9004      0.0000     17.6693    377.0000   1520.1000  -2544.3000   2244.3000    300.8563      0.0242   3717.6672     59.1437    224.6084
  3157.1000      9.6256   4780.5439      0.0000     17.7946    391.0000   1533.3000  -2533.1001   2238.1001    301.1868      0.0242   3711.6973     58.8132    224.5972
  3157.0500      9.6591   4777.1523      0.0000     18.2332    370.0000   1550.8000  -2561.8999   2229.6001    301.1879      0.0241   3733.5544     58.8121    224.5684
  3157.0000      9.6591   4788.1802      0.0000     16.4788    364.0000   1558.9000  -2573.0000   2119.1001    301.2104      0.0245   3679.8210     58.7896    224.5388
  3156.9500      9.6591   4838.6523      0.0000     15.5389    381.0000   1561.4000  -2574.5000   2055.3000    301.2363      0.0247   3645.5835     58.7637    224.5198
  3156.9000      9.6439   4886.7534      0.0000     14.2231    328.0000   1566.6000  -2579.8000   2046.1000    301.2685      0.0247   3646.3857     58.7315    224.5058
  3156.8500      9.6439   4900.3794      0.0000     12.7820    367.0000   1589.0000  -2554.0000   2019.7000    301.8883      0.0248   3623.1235     58.1117    224.5128
  3156.8000      9.6439   4901.8066      0.0000     11.9675    372.0000   1573.4000  -2542.6001   2019.5000    301.7498      0.0249   3608.1550     58.2501    224.5318
  3156.7500      9.6439   4924.8955      0.0000     11.2783    365.0000   1571.2000  -2519.7000   2024.2000    301.9463      0.0250   3593.7366     58.0537    224.5423
  3156.7000      9.6439   4971.3877      0.0000     10.5264    359.0000   1566.4000  -2492.2000   2049.1001    302.1502      0.0251   3586.5696     57.8498    224.5585
  3156.6500      9.6439   5022.6289      0.0000     10.6517    370.0000   1567.9000  -2486.2000   2129.6001    302.2372      0.0248   3629.6965     57.7628    224.5817
  3156.6000      9.5890   5021.2368      0.0000     11.7795    367.0000   1569.8000  -2487.6001   2124.5000    302.2540      0.0248   3628.4883     57.7460    224.5923
  3156.5500      9.5890   4986.2505      0.0000     12.3434    363.0000   1564.9000  -2483.3999   2120.0000    302.2168      0.0249   3620.8545     57.7832    224.5965
  3156.5000      9.5890   4918.4106      0.0000     14.0352    367.0000   1563.4000  -2477.5000   2126.8999    302.2535      0.0249   3620.2112     57.7465    224.5993
  3156.4500      9.5890   4882.6279      0.0000     15.1630    368.0000   1568.5000  -2478.2000   2135.8999    302.3305      0.0248   3628.1863     57.6695    224.6000
  3156.4000      9.5707   4822.3916      0.0000     16.2908    363.0000   1571.0000  -2480.6001   2145.1001    302.3467      0.0248   3636.3267     57.6533    224.6000
  3156.3500      9.5707   4742.5005      0.0000     15.9149    370.0000   1582.7000  -2481.8000   2152.2000    302.5266      0.0247   3646.4004     57.4734    224.6007
  3156.3000      9.5707   4634.4756      0.0000     15.2256    366.0000   1574.3000  -2479.8000   2159.8999    302.4094      0.0247   3645.9563     57.5906    224.6091
  3156.2500      9.6591   4613.3408      0.0000     14.4738    366.0000   1591.6000  -2478.8999   2167.8000    302.7029      0.0246   3657.5254     57.2971    224.6134
  3156.2000      9.6591   4646.6812      0.0000     13.1580    368.0000   1605.9000  -2461.3999   2197.0000    303.1218      0.0245   3669.3613     56.8782    224.6176
  3156.1500      9.6591   4683.4648      0.0000     12.2808    373.0000   1601.8000  -2471.2000   2202.8000    302.9508      0.0245   3677.6243     57.0492    224.6197
  3156.1000      9.6256   4694.5845      0.0000     13.2833    364.0000   1586.8000  -2466.5000   2191.8000    302.7548      0.0246   3661.3582     57.2452    224.6148
  3156.0500      9.6256   4695.9600      0.0000     14.0978    359.0000   1581.3000  -2453.0000   2155.8000    302.8074      0.0248   3628.3870     57.1926    224.5958
  3156.0000      9.6256   4714.3120      0.0000     15.3510    381.0000   1581.0000  -2448.7000   2154.0000    302.8483      0.0248   3624.2805     57.1517    224.5796
  3155.9500      9.5890   4772.4063      0.0000     16.7921    361.0000   1547.3000  -2457.6001   2132.1001    302.1944      0.0250   3602.7471     57.8056    224.5599
  3155.9000      9.5890   4812.7700      0.0000     17.3560    373.0000   1533.7000  -2481.3999   2092.8999    301.7193      0.0251   3590.2383     58.2807    224.5494
  3155.8500      9.5890   4827.4160      0.0000     15.9149    349.0000   1524.7000  -2505.2000   2041.9000    301.3253      0.0252   3573.5266     58.6747    224.5508
  3155.8000      9.6256   4826.8584      0.0000     14.5364    350.0000   1514.6000  -2497.3999   2049.8999    301.2356      0.0252   3568.3481     58.7644    224.5613
  3155.7500      9.6256   4844.1187      0.0000     12.4061    369.0000   1497.1000  -2534.6001   2056.3999    300.5689      0.0251   3590.8616     59.4311    224.5684
  3155.7000      9.6256   4896.2935      0.0000     11.0276    360.0000   1466.2000  -2560.0000   2067.3000    299.8012      0.0250   3602.3704     60.1987    224.5712
  3155.6500      9.6256   4953.1982      0.0000     10.3384    368.0000   1473.1000  -2576.8999   2080.2000    299.7547      0.0248   3624.5923     60.2453    224.5733
  3155.6000      9.5707   4960.1685      0.0000     11.0903    365.0000   1449.6000  -2567.5000   2096.2000    299.4489      0.0249   3617.6582     60.5511    224.5754
  3155.5500      9.5707   4929.2842      0.0000     12.0301    366.0000   1434.6000  -2566.5000   2132.6001    299.2039      0.0248   3632.2146     60.7961    224.5754
  3155.5000      9.5707   4921.3223      0.0000     13.3459    366.0000   1431.9000  -2564.8999   2134.0000    299.1732      0.0248   3630.8408     60.8268    224.5782
  3155.4500      9.5890   4938.0859      0.0000     14.7870    367.0000   1437.3000  -2562.5000   2129.1001    299.2880      0.0248   3628.4026     60.7120    224.5866
