~Version Information
VERS.             2.0 : CWLS log ASCII standard - Version 2.0
WRAP.             NO  : One line per depth step
#
~Well Information Block
#MNEM.UNIT                   Data Type:Information
#__________________________________________________________
 STRT .M           2450.13480  :START INDEX                  
  STOP.M           3113.3796 : STOP INDEX                    
 STEP .M              0.00000  :STEP                         
  NULL.              -999.25 : NULL VALUE                    
  COMP.              Statoil : COMPANY                       
  WELL.            15_9_F-12 : WELL                          
   FLD.                Volve : FIELD                         
   LOC.           Maersk Inspirer : LOCATION                      
  PROV.                      : PROVINCE                      
  CNTY.                      : COUNTY                        
  STAT.                      : STATE                         
  CTRY.                      : COUNTRY                       
  SRVC.              SLB D&M : SERVICE COMPANY               
  DATE.                      : LOG DATE                      
   UWI.                      : UNIQUE WELL ID                
   API.                      : API NUMBER                    
#
~Curve Information Block
#MNEM.UNIT                     : Curve Description
#---------                     --------------------
DEPT        .M                 : Bit Depth 2hz                                                   
TVDE        .M                 : SVY TVD_EXTR 2hz                                                
ARC_GR_RT   .GAPI              : ARC Gamma Ray, Real-Time                                        
ROP5        .M/HR              : 5ft ROP 2hz                                                     
SWOB        .KKGF              : Surface Weight on Bit 2hz                                       
RPM         .RPM               : SRF SRPM 2hz                                                    
TFLO        .LPM               : HSPM Total Pump Flow 2hz                                        
TRPM_RT     .RPM               : MWD TUR_RPM 2hz                                                 
SPPA        .BAR               : SRF PUMPRS 2hz                                                  
TQA         .KMN               : SRF STOR 2hz                                                    
SHKRSK_RT   .----              : MWD SHKRSK 2hz                                                  
SHK2_RT     .----              : ARC Shock Level, Real-Time                                      
SHK_ADN_RT  .----              : ADN Shock Level, Real-Time                                      
PDSHKRSK    .----              : PowerDrive Shock Risk 2hz                                       
ECD_ARC     .G/C3              : Equivalent Circulating Density                                  
ATMP        .DEGC              : ARC Annular Temperature                                         
APRS_ARC    .BAR               : ARC Annular Pressure                                            
#
~Parameter Information Block
#MNEM.UNIT                       Value:Description
#__________________________________________________________
#
~Other Information Block

#
~A    DEPT       TVDE  ARC_GR_RT       ROP5       SWOB        RPM       TFLO    TRPM_RT       SPPA        TQA  SHKRSK_RT    SHK2_RT SHK_ADN_RT   PDSHKRSK    ECD_ARC       ATMP   APRS_ARC
# ...
 2561.5393  2471.6587    -999.25    66.6241    -1.2950    60.0000  3224.5247    -999.25   198.0403    26.7344    -999.25    -999.25    -999.25    -999.25     1.3650    68.0000   330.4658
 2561.6917  2471.7987    56.6490    62.5168    -1.3940    60.0455  3309.1157    -999.25   198.0093    27.6580    -999.25    -999.25     0.0000    -999.25     1.3649    68.0000   330.4658
 2561.8440  2471.9390    48.9772    58.8533    -1.4140    60.8182  3323.2142    -999.25   198.0363    28.9838    -999.25     0.0000    -999.25    -999.25     1.3651    68.0000   330.5348
 2561.9963  2472.0885    54.6788    55.6140    -1.0385    60.0000  3323.2142    -999.25   198.0200    28.4054    -999.25    -999.25    -999.25    -999.25     1.3650    68.0000   330.5348
 2562.1487  2472.2287    -999.25    52.7063    -1.2325    56.3636  3323.2142    -999.25   197.9802    23.0389    -999.25    -999.25    -999.25     0.0000     1.3650    68.0000   330.5348
 2562.3013  2472.3689    50.8429    50.2628    -1.1515    58.5714  3291.5641    -999.25   198.0386    26.0663    -999.25    -999.25    -999.25    -999.25     1.3652    68.0000   330.6037
 2562.4536  2472.5091    -999.25    50.2291    -1.0859    59.4545  3323.2142    -999.25   198.0073    28.4117     0.0000    -999.25    -999.25    -999.25     1.3648    68.0000   330.5348
 2562.6060  2472.6586    60.6941    50.2309    -1.5325    58.0909  3121.8072  2500.0000   197.9409    21.6371    -999.25    -999.25     0.0000    -999.25     1.3650    68.0000   330.6037
 2562.7583  2472.7985    60.6941    50.1533    -1.1545    70.0000  3131.8775    -999.25   197.9688    29.1100    -999.25    -999.25    -999.25    -999.25     1.3652    68.0000   330.6727
 2562.9109  2472.9387    67.0233    49.9713    -1.2742    65.9565  3323.2142    -999.25   197.8960    26.4026    -999.25     0.0000    -999.25    -999.25     1.3648    68.0000   330.6037
 2563.0632  2473.0789    -999.25    49.7716    -1.5794    65.7391  3303.9494    -999.25   197.8446    26.4945    -999.25    -999.25    -999.25    -999.25     1.3651    68.0000   330.6727
 2563.2156  2473.2286    56.6490    49.5469    -1.4566    69.3913  3323.2142    -999.25   198.0288    28.0333    -999.25    -999.25    -999.25     0.0000     1.3650    68.0000   330.6727
 2563.3679  2473.3688    64.8787    49.3385    -1.4951    67.7273  3182.2296    -999.25   198.0598    26.8756    -999.25    -999.25    -999.25    -999.25     1.3649    68.0000   330.6727
 2563.5205  2473.5089    64.8787    49.1314    -1.3031    70.3913  3197.9918    -999.25   197.9606    28.5940     0.0000    -999.25     0.0000    -999.25     1.3648    68.0000   330.6727
 2563.6729  2473.6488    -999.25    48.9332    -1.4401    69.0000  3323.2142  2500.0000   198.0019    29.0913    -999.25    -999.25    -999.25    -999.25     1.3647    68.0000   330.6727
 2563.8252  2473.7985    54.6788    48.7270    -1.3835    55.6087  3111.2992    -999.25   198.0073    21.0617    -999.25    -999.25    -999.25    -999.25     1.3649    68.0000   330.7416
 2563.9775  2473.9387    -999.25    48.5157    -1.3867    68.6364  3101.6665    -999.25   197.9839    29.4201    -999.25    -999.25    -999.25    -999.25     1.3649    68.0000   330.7416
 2564.1299  2474.0786    58.6541    48.3055    -1.6284    65.0870  3265.4193    -999.25   197.9234    26.6144    -999.25     0.0000    -999.25    -999.25     1.3651    68.0000   330.8106
 2564.2825  2474.2191    45.3506    48.1791    -1.6982    63.4783  3294.3163    -999.25   197.9336    24.3368    -999.25    -999.25    -999.25    -999.25     1.3653    68.0000   330.8795
 2564.4348  2474.3593    45.3506    48.1581    -1.7559    70.0000  3323.2142    -999.25   197.9510    28.6584    -999.25    -999.25     0.0000     0.0000     1.3655    68.0000   330.9485
 2564.5872  2474.5089    -999.25    48.2727    -1.6559    62.3182  3172.1586    -999.25   197.9982    25.2111     0.0000    -999.25    -999.25    -999.25     1.3654    68.0000   330.9485
 2564.7395  2474.6488    -999.25    48.4894    -1.7268    69.0000  3101.6665    -999.25   198.0069    26.9592    -999.25    -999.25    -999.25    -999.25     1.3656    68.0000   331.0174
 2564.8921  2474.7890    -999.25    48.6999    -1.5340    70.6364  3313.1437  2500.0000   197.9934    29.3005    -999.25    -999.25    -999.25    -999.25     1.3653    68.0000   330.9485
 2565.0444  2474.9291    -999.25    48.9068    -1.6390    65.0000  3302.1147    -999.25   198.1924    25.8832    -999.25    -999.25    -999.25    -999.25     1.3657    68.0000   331.0864
 2565.1968  2475.0786    60.6941    49.0987    -1.5153    69.6364  3323.2142    -999.25   197.9774    28.6011    -999.25     0.0000    -999.25    -999.25     1.3657    68.0000   331.0864
 2565.3491  2475.2189    62.7690    49.3121    -1.3903    68.5455  3313.1440    -999.25   195.3028    27.9774    -999.25    -999.25     0.0000    -999.25     1.3656    68.0000   331.0864
 2565.5017  2475.3591    -999.25    49.5530    -1.3060    70.0000  3323.2142    -999.25   195.0683    29.5161    -999.25    -999.25    -999.25     0.0000     1.3655    68.0000   331.0864
 2565.6541  2475.4990    56.6490    49.7747    -1.6502    70.0000  3323.2142    -999.25   195.0471    29.2331    -999.25    -999.25    -999.25    -999.25     1.3657    68.0000   331.1553
 2565.8064  2475.6487    -999.25    49.9980    -1.4320    66.6364  3323.2142    -999.25   194.9309    25.2628     0.0000    -999.25    -999.25    -999.25     1.3659    68.0000   331.2243
 2565.9587  2475.7889    38.5157    50.2116    -1.4527    67.3333  3291.5641  2500.0000   195.0237    24.7956    -999.25    -999.25    -999.25    -999.25     1.3658    68.0000   331.2243
 2566.1111  2475.9291    -999.25    50.3083    -1.4044    71.0000  3323.2142    -999.25   195.0169    27.5935    -999.25    -999.25    -999.25    -999.25     1.3660    68.0000   331.2932
 2566.2637  2476.0693    35.3076    50.2880    -1.4598    65.9091  3162.0884    -999.25   195.0196    22.1196    -999.25    -999.25     0.0000    -999.25     1.3657    68.0000   331.2243
 2566.4160  2476.2186    -999.25    50.2880    -1.5802    69.7273  3101.6665    -999.25   194.9455    27.4531    -999.25     0.0000    -999.25    -999.25     1.3659    68.0000   331.2932
 2566.5684  2476.3588    36.8942    50.2763    -1.4022    70.7727  3303.0735    -999.25   195.0265    27.5187    -999.25    -999.25    -999.25    -999.25     1.3661    68.0000   331.3622
 2566.7207  2476.4990    -999.25    50.2988    -1.6474    67.4762  3302.1144    -999.25   195.0054    22.7599    -999.25    -999.25    -999.25     0.0000     1.3663    68.0000   331.4311
 2566.8733  2476.6395    40.1722    50.3128    -1.7210    69.6818  3323.2142    -999.25   194.9546    26.5327    -999.25    -999.25    -999.25    -999.25     1.3659    68.0000   331.3622
 2567.0256  2476.7889    -999.25    50.2956    -1.4669    68.3636  3282.9326    -999.25   194.9244    27.6284     0.0000    -999.25    -999.25    -999.25     1.3661    69.0000   331.4311
 2567.1780  2476.9288    40.1722    50.2925    -1.5463    70.0000  3101.6665  2500.0000   195.0699    26.9480    -999.25    -999.25    -999.25    -999.25     1.3664    69.0000   331.5001
 2567.3303  2477.0691    41.8634    50.2884    -1.5418    69.1818  3303.0735    -999.25   194.9375    29.2690    -999.25    -999.25    -999.25    -999.25     1.3660    69.0000   331.4311
 2567.4829  2477.2090    47.1465    50.2713    -1.4410    66.6364  3222.5107    -999.25   194.9421    25.5610    -999.25     0.0000    -999.25    -999.25     1.3665    69.0000   331.5690
 2567.6353  2477.3588    -999.25    50.2677    -1.3726    65.3333  3101.6665    -999.25   194.8207    23.2318    -999.25    -999.25    -999.25    -999.25     1.3661    69.0000   331.5001
 2567.7876  2477.4990    45.3506    50.2844    -1.1719    68.0000  3141.9482    -999.25   194.8283    28.4343    -999.25    -999.25    -999.25    -999.25     1.3663    69.0000   331.5690
 2567.9399  2477.6392    -999.25    50.2794    -1.2887    65.2727  3323.2142    -999.25   194.6942    22.4124    -999.25    -999.25    -999.25     0.0000     1.3665    69.0000   331.6379
