~Version Information
VERS.                      2.0: CWLS Log ASCII Standard - VERSION 2.0
WRAP.                       NO: One line per depth step
~Well Information Block
STRT.M               3135.0500: START DEPTH
STOP.M               3039.9000: STOP DEPTH
STEP.M                 -0.0500: STEP
NULL.                -999.2500: NULL VALUE
COMP.                  Statoil: COMPANY
WELL.                15/9-F-12: WELL
FLD.                     Volve: FIELD
LOC.                          : LOCATION
SRVC.          Halliburton Logging Services: SERVICE COMPANY
DATE.          Wed Nov 26 21-01-09 2014: LOG DATE
UWI.                          : UNIQUE WELL ID
SECT.                         : SECTION
TOWN.                         : TOWNSHIP
RANG.                         : RANGE
API.                          : API#
OS.                           : OTHER SERVICES
PDAT.FT                       : PERMANENT DATUM
EEL.FT                        : ELEVATION
LMF.FT                        : LOG MEASURED FROM
DMF.FT                        : DRILLING MEASURED FROM
EKB.FT                        : KB
EDF.FT                        : DF
EGL.FT                        : GL
DATE1.                        : DATE1
RUN1.                         : RUN NUMBER
TDD1.FT                       : DEPTH DRILLER
TDL1.FT                       : DEPTH LOGGER
BLI1.FT                       : BOTTOM LOGGED INTERVAL
TLI1.FT                       : TOP LOG INTERVAL
CDD1.IN_FT                    : CASING DRILLER
CDL1.FT                       : CASING LOGGER
BS1.IN                        : BIT SIZE
DFT1.                         : TYPE FLUID IN HOLE
DFDV1.GM/C3_CP                : DENSITY/VISCOSITY
DFPL1.C3                      : PH/FLUID LOSS
MSS1.                         : SOURCE OF SAMPLE
RMT1.OHHM_DEGF                : RM@MEASURED TEMP
RMFT1.OHMM_DEGF                : RMF@MEASURED TEMP
RMCT1.OHMM_DEGF                : RMC@MEASURED TEMP
RMFS1.                        : SOURCE OF RMF/RMC
RMBT1.OHMM_DEGF                : RM@BHT
TCS1.                         : TIME CIRCULATION STOPPED
TLOB1.                        : TIME LOGGER ON BOTTOM
BHT1.DEGF                     : MAXIMUM RECORDED TEMPERATURE
LUN1.                         : EQUIPMENT NUMBER
LUL1.                         : LOCATION
ENGI1.                        : RECORDED BY
WITN1.                        : WITNESSED BY
~Curve Information Block
DEPT.M             0 000 00 00: Depth
LSPD.M/MIN                   0: Line Speed
LTEN.LB                      0: Surface Line Tension
MINMK.                       0: Minute Mark Ticks
HVOLTA.V                     0: Head Voltage Apparent
CCL.                         0: Casing Collar Locator
~Parameter Information Block
SRFTEMP.DEGC           10.0000: Surface Temperature
MudWgt.LB/GAL           8.5000: Mud Weight
CASETHCK.IN             6.1840: Casing Thickness
BITSIZE.IN              8.5000: Borehole I.D.
~A  Depth       LSPD        LTEN       MINMK       HVOLTA       CCL     
  3135.0500   -999.2500   2022.9294      0.0000      3.5774   -999.2500
  3135.0000      0.1768   2022.9294      0.0000      3.5774     -0.0165
  3134.9500      1.6581   2829.7329      0.0000      3.5774      0.0000
  3134.9000      1.6581   3342.0039      0.0000      3.5469     -0.0067
  3134.8500      3.3558   3342.0039      0.0000      3.5469     -0.0174
  3134.8000      3.3558   3594.5325      0.0000      3.5774     -0.0061
  3134.7500      3.3558   3713.8516      0.0000      3.5469      0.0055
  3134.7000      5.3370   3713.8516      0.0000      3.5469     -0.0046
  3134.6500      5.3370   3785.8311      0.0000      3.5873     -0.0226
  3134.6000      6.9982   3839.9692      0.0000      3.5370     -0.0012
  3134.5500      6.9982   3839.9692      0.0000      3.5370      0.0076
  3134.5000      6.9982   3884.2588      0.0000      3.5065     -0.0406
  3134.4500      7.7846   3884.2588      0.0000      3.5065     -0.0076
  3134.4000      7.7846   3929.3289      0.0000      3.6583     -0.0177
  3134.3500      7.7846   3976.2925      0.0000      3.5469     -0.0018
  3134.3000      8.3028   3976.2925      0.0000      3.5469      0.0095
  3134.2500      8.3028   4015.8398      0.0000      3.5568     -0.0247
  3134.2000      8.3028   4051.1814      0.0000      3.5065     -0.0095
  3134.1500      8.6076   4051.1814      0.0000      3.5065     -0.0250
  3134.1000      8.6076   4091.1785      0.0000      3.5675      0.0043
  3134.0500      8.6076   4129.6265      0.0000      3.5774      0.0235
  3134.0000      8.8910   4129.6265      0.0000      3.5774      0.0006
  3133.9500      8.8910   4160.5542      0.0000      3.5675      0.0198
  3133.9000      8.8910   4192.6299      0.0000      3.5774      0.0027
  3133.8500      9.0007   4192.6299      0.0000      3.5774     -0.0266
  3133.8000      9.0007   4229.7285      0.0000      3.5271     -0.0089
  3133.7500      9.0007   4265.7358      0.0000      3.6186     -0.0305
  3133.7000      9.0891   4265.7358      0.0000      3.6186     -0.0241
  3133.6500      9.0891   4297.7217      0.0000      3.6179     -0.0671
  3133.6000      9.0891   4320.2007      0.0000      3.6186     -0.0623
  3133.5500      8.9825   4320.2007      0.0000      3.6186      0.3079
  3133.5000      8.9825   4325.7061      0.0000      3.5675     -0.1926
  3133.4500      8.9825   4318.6636      0.0000      3.5774      0.2701
  3133.4000      8.9642   4318.6636      0.0000      3.5774     -0.0397
  3133.3500      8.9642   4305.6299      0.0000      3.5568      0.1590
  3133.3000      8.9642   4284.1147      0.0000      3.5057      0.1556
  3133.2500      8.9825   4284.1147      0.0000      3.5057      0.6644
  3133.2000      8.9825   4259.9507      0.0000      3.6377     -0.3400
  3133.1500      8.9825   4248.6489      0.0000      3.5164     -0.1315
  3133.1000      8.8910   4248.6489      0.0000      3.5164      0.6491
  3133.0500      8.8910   4253.1514      0.0000      3.5065     -0.1346
  3133.0000      8.8910   4270.0332      0.0000      3.5469     -0.0415
  3132.9500      8.9642   4270.0332      0.0000      3.5469     -0.1532
  3132.9000      8.9642   4298.8418      0.0000      3.5873     -0.0974
  3132.8500      8.9642   4298.8418      0.0000      3.5873      0.0385
  3132.8000      8.8910   4326.7705      0.0000      3.6079      0.0082
  3132.7500      8.8910   4337.8145      0.0000      3.5065      0.0070
  3132.7000      8.8910   4337.8145      0.0000      3.5065      0.0491
  3132.6500      8.8910   4334.7607      0.0000      3.6789     -0.0763
  3132.6000      8.8910   4326.0161      0.0000      3.5271      0.2512
  3132.5500      8.8910   4326.0161      0.0000      3.5271     -0.3168
  3132.5000      8.9276   4313.5532      0.0000      3.6591      0.3613
  3132.4500      8.9276   4304.8062      0.0000      3.5469      0.1862
  3132.4000      8.9276   4304.8062      0.0000      3.5469     -0.3635
  3132.3500      8.8910   4305.7358      0.0000      3.5469      0.3128
  3132.3000      8.8910   4309.8247      0.0000      3.5172      0.1205
  3132.2500      8.8910   4309.8247      0.0000      3.5172      0.1474
  3132.2000      9.0007   4317.0347      0.0000      3.6278     -0.1047
  3132.1500      9.0007   4334.9331      0.0000      3.5873     -0.0351
  3132.1000      9.0007   4334.9331      0.0000      3.5873      0.1163
  3132.0500      8.9276   4356.2568      0.0000      3.5675     -0.1248
  3132.0000      8.9276   4369.8184      0.0000      3.5774     -0.0006
  3131.9500      8.9276   4369.8184      0.0000      3.5774      0.0620
  3131.9000      8.9459   4375.7261      0.0000      3.6079     -0.1682
  3131.8500      8.9459   4371.5371      0.0000      3.5980      0.3555
  3131.8000      8.9459   4371.5371      0.0000      3.5980     -0.1791
  3131.7500      8.9276   4356.3643      0.0000      3.5675      0.2209
  3131.7000      8.9276   4345.1929      0.0000      3.6377      0.1419
  3131.6500      8.9276   4345.1929      0.0000      3.6377     -0.1746
  3131.6000      8.8758   4348.0171      0.0000      3.5065     -0.3513
  3131.5500      8.8758   4356.3994      0.0000      3.5980      0.1456
  3131.5000      8.8758   4356.3994      0.0000      3.5980     -0.2472
  3131.4500      8.9459   4367.0918      0.0000      3.5362      0.3601
  3131.4000      8.9459   4383.6919      0.0000      3.5370     -0.1352
  3131.3500      8.9459   4383.6919      0.0000      3.5370     -0.1913
  3131.3000      8.8575   4398.0122      0.0000      3.6079      0.2402
  3131.2500      8.8575   4398.0122      0.0000      3.6079     -0.0452
  3131.2000      8.8575   4402.1152      0.0000      3.5271      0.0098
  3131.1500      8.8910   4397.3979      0.0000      3.5469     -0.0446
  3131.1000      8.8910   4397.3979      0.0000      3.5469      0.4599
  3131.0500      8.8910   4381.8594      0.0000      3.5675     -0.0064
  3131.0000      8.8910   4359.4629      0.0000      3.6484     -0.7462
  3130.9500      8.8910   4359.4629      0.0000      3.6484      0.2664
  3130.9000      8.8910   4349.5034      0.0000      3.5568     -0.4932
  3130.8500      8.8575   4359.0361      0.0000      3.6079      0.3384
  3130.8000      8.8575   4359.0361      0.0000      3.6079     -0.2451
  3130.7500      8.8575   4372.9058      0.0000      3.5370     -1.4438
  3130.7000      8.9642   4381.3413      0.0000      3.5774      1.3638
  3130.6500      8.9642   4381.3413      0.0000      3.5774      0.8124
  3130.6000      8.9642   4381.6099      0.0000      3.5774      1.7609
  3130.5500      8.8758   4369.2192      0.0000      3.5973     -0.8578
  3130.5000      8.8758   4369.2192      0.0000      3.5973     -0.5566
  3130.4500      8.8758   4353.9961      0.0000      3.5469      0.6070
  3130.4000      8.9093   4350.2480      0.0000      3.5370     -0.1599
  3130.3500      8.9093   4350.2480      0.0000      3.5370      0.0250
  3130.3000      8.9093   4353.8496      0.0000      3.5370      0.1852
  3130.2500      8.9093   4357.6128      0.0000      3.6278     -0.2637
  3130.2000      8.9093   4357.6128      0.0000      3.6278      0.4681
  3130.1500      8.9093   4365.1489      0.0000      3.4859     -0.0748
  3130.1000      8.8575   4376.0977      0.0000      3.5774      0.0101
  3130.0500      8.8575   4376.0977      0.0000      3.5774     -0.1498
  3130.0000      8.8575   4382.3232      0.0000      3.5568      0.0714
  3129.9500      8.9459   4380.6982      0.0000      3.5980      0.3784
  3129.9000      8.9459   4380.6982      0.0000      3.5980     -0.0793
  3129.8500      8.9459   4371.3052      0.0000      3.5057      0.2786
  3129.8000      8.8575   4355.0762      0.0000      3.5774      0.2740
  3129.7500      8.8575   4355.0762      0.0000      3.5774     -0.4227
  3129.7000      8.7843   4343.7271      0.0000      3.6079      0.0476
  3129.6500      8.7843   4343.7271      0.0000      3.6079      0.1944
  3129.6000      8.7843   4347.8232      0.0000      3.6079      0.1138
  3129.5500      8.7508   4358.2910      0.0000      3.5873      0.1486
  3129.5000      8.7508   4358.2910      0.0000      3.5873     -0.1712
