~Version Information
VERS.                      2.0: CWLS Log ASCII Standard - VERSION 2.0
WRAP.                       NO: One line per depth step
~Well Information Block
STRT.M               3135.0500: START DEPTH
STOP.M               3039.9000: STOP DEPTH
STEP.M                 -0.0500: STEP
NULL.                -999.2500: NULL VALUE
COMP.                  Statoil: COMPANY
WELL.                15/9-F-12: WELL
FLD.                     Volve: FIELD
LOC.                          : LOCATION
SRVC.          Halliburton Logging Services: SERVICE COMPANY
DATE.          Wed Nov 26 21-01-09 2014: LOG DATE
UWI.                          : UNIQUE WELL ID
SECT.                         : SECTION
TOWN.                         : TOWNSHIP
RANG.                         : RANGE
API.                          : API#
OS.                           : OTHER SERVICES
PDAT.FT                       : PERMANENT DATUM
EEL.FT                        : ELEVATION
LMF.FT                        : LOG MEASURED FROM
DMF.FT                        : DRILLING MEASURED FROM
EKB.FT                        : KB
EDF.FT                        : DF
EGL.FT                        : GL
DATE1.                        : DATE1
RUN1.                         : RUN NUMBER
TDD1.FT                       : DEPTH DRILLER
TDL1.FT                       : DEPTH LOGGER
BLI1.FT                       : BOTTOM LOGGED INTERVAL
TLI1.FT                       : TOP LOG INTERVAL
CDD1.IN_FT                    : CASING DRILLER
CDL1.FT                       : CASING LOGGER
BS1.IN                        : BIT SIZE
DFT1.                         : TYPE FLUID IN HOLE
DFDV1.GM/C3_CP                : DENSITY/VISCOSITY
DFPL1.C3                      : PH/FLUID LOSS
MSS1.                         : SOURCE OF SAMPLE
RMT1.OHHM_DEGF                : RM@MEASURED TEMP
RMFT1.OHMM_DEGF                : RMF@MEASURED TEMP
RMCT1.OHMM_DEGF                : RMC@MEASURED TEMP
RMFS1.                        : SOURCE OF RMF/RMC
RMBT1.OHMM_DEGF                : RM@BHT
TCS1.                         : TIME CIRCULATION STOPPED
TLOB1.                        : TIME LOGGER ON BOTTOM
BHT1.DEGF                     : MAXIMUM RECORDED TEMPERATURE
LUN1.                         : EQUIPMENT NUMBER
LUL1.                         : LOCATION
ENGI1.                        : RECORDED BY
WITN1.                        : WITNESSED BY
~Curve Information Block
DEPT.M             0 000 00 00: Depth
LSPD.M/MIN                   0: Line Speed
LTEN.LB                      0: Surface Line Tension
MINMK.                       0: Minute Mark Ticks
HVOLTA.V                     0: Head Voltage Apparent
CCL.                         0: Casing Collar Locator
~Parameter Information Block
SRFTEMP.DEGC           10.0000: Surface Temperature
MudWgt.LB/GAL           8.5000: Mud Weight
CASETHCK.IN             6.1840: Casing Thickness
BITSIZE.IN              8.5000: Borehole I.D.
~A  Depth       LSPD        LTEN       MINMK       HVOLTA       CCL     
# ...
  3045.4500      9.3025   4267.3345      0.0000      3.5675     -1.9997
  3045.4000      9.3025   4278.0952      0.0000      3.5774     -2.0131
  3045.3500      9.3025   4277.3779      0.0000      3.5675     -2.0061
  3045.3000      9.3208   4277.3779      0.0000      3.5675     -2.0061
  3045.2500      9.3208   4268.6431      0.0000      3.5774     -1.9988
  3045.2000      9.3208   4254.9531      0.0000      3.5675     -2.0076
  3045.1500      9.3208   4254.9531      0.0000      3.5675     -2.0079
  3045.1000      9.3208   4233.2070      0.0000      3.5774     -2.0070
  3045.0500      9.3208   4213.3491      0.0000      3.5675     -2.0171
  3045.0000      9.4092   4213.3491      0.0000      3.5675     -2.0143
  3044.9500      9.4092   4205.9961      0.0000      3.5675     -2.0186
  3044.9000      9.4092   4204.8853      0.0000      3.5774     -2.0085
  3044.8500      9.4092   4204.8853      0.0000      3.5774     -2.0116
  3044.8000      9.4092   4206.9287      0.0000      3.5980     -2.0031
  3044.7500      9.4092   4216.5405      0.0000      3.5675     -2.0049
  3044.7000      9.3939   4216.5405      0.0000      3.5675     -2.0119
  3044.6500      9.3939   4226.4736      0.0000      3.5576     -2.0150
  3044.6000      9.3939   4229.1987      0.0000      3.5774     -1.9915
  3044.5500      9.3939   4229.1987      0.0000      3.5774     -2.0287
  3044.5000      9.4092   4230.1846      0.0000      3.5774     -1.9515
  3044.4500      9.4092   4231.7871      0.0000      3.4760     -2.0046
  3044.4000      9.4092   4231.7871      0.0000      3.4760     -2.0381
  3044.3500      9.3574   4230.4087      0.0000      3.5774     -2.0024
  3044.3000      9.3574   4230.8232      0.0000      3.5370     -2.0128
  3044.2500      9.3574   4230.8232      0.0000      3.5370     -2.0156
  3044.2000      9.3391   4241.7676      0.0000      3.5675     -2.0082
  3044.1500      9.3391   4260.6870      0.0000      3.3646     -2.0046
  3044.1000      9.3391   4260.6870      0.0000      3.3646     -2.0027
  3044.0500      9.3939   4277.6665      0.0000      3.5675     -2.0116
  3044.0000      9.3939   4277.6665      0.0000      3.5675     -2.0018
  3043.9500      9.3939   4285.4844      0.0000      3.5774     -2.0021
  3043.9000      9.3208   4277.7446      0.0000      3.5873     -2.0034
  3043.8500      9.3208   4277.7446      0.0000      3.5873     -1.9954
  3043.8000      9.3208   4257.5195      0.0000      3.5675     -2.0055
  3043.7500      9.3574   4243.2173      0.0000      3.5774     -2.0262
  3043.7000      9.3574   4243.2173      0.0000      3.5774     -2.0183
  3043.6500      9.3574   4245.5542      0.0000      3.5675     -2.0040
  3043.6000      9.3574   4257.2300      0.0000      3.5774     -2.0058
  3043.5500      9.3574   4257.2300      0.0000      3.5774     -2.0183
  3043.5000      9.3574   4273.7378      0.0000      3.6079     -2.0143
  3043.4500      9.3391   4294.0181      0.0000      3.5675     -2.0165
  3043.4000      9.3391   4294.0181      0.0000      3.5675     -2.0101
  3043.3500      9.3391   4306.7681      0.0000      3.5469     -2.0134
  3043.3000      9.3391   4307.7178      0.0000      3.5370     -2.0024
  3043.2500      9.4275   4307.7178      0.0000      3.5370     -2.0104
  3043.2000      9.4275   4307.5820      0.0000      3.5271     -2.0006
  3043.1500      9.4275   4314.6826      0.0000      3.5774     -2.0122
  3043.1000      9.3756   4314.6826      0.0000      3.5774     -2.0131
  3043.0500      9.3756   4336.1182      0.0000      3.5675     -2.0098
  3043.0000      9.3756   4371.7593      0.0000      3.5568     -2.0012
  3042.9500      9.3756   4371.7593      0.0000      3.5568     -2.0037
  3042.9000      9.3756   4400.7109      0.0000      3.4966     -2.0040
  3042.8500      9.3756   4405.5225      0.0000      3.5675     -2.0107
  3042.8000      9.3391   4405.5225      0.0000      3.5675     -2.0006
  3042.7500      9.3391   4388.5308      0.0000      3.5469     -2.0061
  3042.7000      9.3391   4348.0654      0.0000      3.5675     -2.0101
  3042.6500      9.3025   4348.0654      0.0000      3.5675     -2.0223
  3042.6000      9.3025   4277.7583      0.0000      3.5469     -2.0159
  3042.5500      9.3025   4193.9722      0.0000      3.5675     -2.0204
  3042.5000      9.3391   4193.9722      0.0000      3.5675     -2.0177
  3042.4500      9.3391   4126.1992      0.0000      3.5370     -2.0034
  3042.4000      9.3391   4126.1992      0.0000      3.5370     -2.0296
  3042.3500      9.3756   4089.6511      0.0000      3.5576     -2.0031
  3042.3000      9.3756   4087.6724      0.0000      3.5774     -2.0003
  3042.2500      9.3756   4087.6724      0.0000      3.5774     -2.0137
  3042.2000      9.3756   4113.2769      0.0000      3.5568     -1.9963
  3042.1500      9.3756   4146.4697      0.0000      3.5675     -2.0143
  3042.1000      9.3756   4146.4697      0.0000      3.5675     -2.0238
  3042.0500      9.3756   4176.0474      0.0000      3.5370     -2.0018
  3042.0000      9.3939   4206.2681      0.0000      3.5675     -2.0098
  3041.9500      9.3939   4206.2681      0.0000      3.5675     -2.0024
  3041.9000      9.3939   4231.3042      0.0000      3.5469     -2.0125
  3041.8500      9.3939   4237.6387      0.0000      3.5675     -2.0162
  3041.8000      9.3939   4237.6387      0.0000      3.5675     -2.0119
  3041.7500      9.3939   4229.4077      0.0000      3.5675     -2.0049
  3041.7000      9.3208   4215.7261      0.0000      3.5675     -2.0156
  3041.6500      9.3208   4215.7261      0.0000      3.5675     -1.9939
  3041.6000      9.3208   4194.1406      0.0000      3.5370     -2.0046
  3041.5500      9.3939   4168.9067      0.0000      3.5576     -2.0113
  3041.5000      9.3939   4168.9067      0.0000      3.5576     -2.0165
  3041.4500      9.3939   4153.0718      0.0000      3.5370     -2.0241
  3041.4000      9.3574   4151.9482      0.0000      3.5370     -2.0116
  3041.3500      9.3574   4151.9482      0.0000      3.5370     -2.0034
  3041.3000      9.3574   4167.0269      0.0000      3.5675     -2.0037
  3041.2500      9.3574   4196.5664      0.0000      3.5774     -2.0009
  3041.2000      9.3574   4196.5664      0.0000      3.5774     -2.0192
  3041.1500      9.3574   4225.5679      1.0000      3.5675     -2.0024
  3041.1000      9.3756   4238.7124      0.0000      3.5675     -2.0137
  3041.0500      9.3756   4238.7124      0.0000      3.5675     -2.0073
  3041.0000      9.3756   4234.4053      0.0000      3.5774     -2.0183
  3040.9500      9.2842   4214.3516      0.0000      3.5576     -2.0043
  3040.9000      9.2842   4214.3516      0.0000      3.5576     -2.0107
  3040.8500      9.2842   4183.5859      0.0000      3.5370     -2.0171
  3040.8000      9.2842   4183.5859      0.0000      3.5370     -2.0043
  3040.7500      9.3025   4159.8794      0.0000      3.5980     -2.0165
  3040.7000      9.3025   4157.7529      0.0000      3.5774     -2.0073
  3040.6500      9.3025   4157.7529      0.0000      3.5774     -2.0174
  3040.6000      9.3574   4173.9277      0.0000      3.5774     -2.0003
  3040.5500      9.3574   4200.3242      0.0000      3.5881     -2.0098
  3040.5000      9.3574   4200.3242      0.0000      3.5881     -2.0140
  3040.4500      9.3574   4228.9868      0.0000      3.5370     -2.0134
  3040.4000      9.3574   4244.9087      0.0000      3.5370     -1.9963
  3040.3500      9.3574   4244.9087      0.0000      3.5370     -2.0159
  3040.3000      9.3939   -999.2500      0.0000      3.5469     -2.0131
  3040.2500      9.3939   -999.2500      0.0000      3.5675     -2.0085
  3040.2000      9.3939   -999.2500      0.0000      3.5675     -2.0171
  3040.1500      9.3756   -999.2500      0.0000      3.5675     -2.0189
  3040.1000      9.3756   -999.2500      0.0000      3.5370     -1.9988
  3040.0500      9.3756   -999.2500      0.0000      3.5370     -2.0217
  3040.0000      9.3756   -999.2500      0.0000      3.5370     -2.0168
  3039.9500      9.3756   -999.2500      0.0000      3.5980     -2.0134
  3039.9000      9.3756   -999.2500      0.0000      3.5980     -2.0122
