~Version Information
VERS.                      2.0: CWLS Log ASCII Standard - VERSION 2.0
WRAP.                       NO: One line per depth step
~Well Information Block
STRT.M               3785.6000: START DEPTH
STOP.M               3572.2000: STOP DEPTH
STEP.M                 -0.0500: STEP
NULL.                -999.2500: NULL VALUE
COMP.                  STATOIL: COMPANY
WELL.               15/9-F-1-C: WELL
FLD.                     VOLVE: FIELD
LOC.                          : LOCATION
SRVC.          Halliburton Logging Services: SERVICE COMPANY
DATE.          Wed Dec 03 05-47-41 2014: LOG DATE
UWI.                          : UNIQUE WELL ID
CTRY.                   NORWAY: COUNTRY
SECT.                         : SECTION
TOWN.                         : TOWNSHIP
RANG.                         : RANGE
API.                          : API#
OS.                   --NONE--: OTHER SERVICES
PDAT.FT                  M.S.L: PERMANENT DATUM
EEL.FT                   54.9M: ELEVATION
LMF.FT                   R.K.B: LOG MEASURED FROM
DMF.FT                   R.K.B: DRILLING MEASURED FROM
EKB.FT                   54.9M: KB
EDF.FT                   54.9M: DF
EGL.FT                    -91M: GL
DATE1.         03-DEC-14 @ 05:47: DATE1
RUN1.                    1 & 2: RUN NUMBER
TDD1.FT                  4094M: DEPTH DRILLER
TDL1.FT                  3782M: DEPTH LOGGER
BLI1.FT                  3772M: BOTTOM LOGGED INTERVAL
TLI1.FT                  3572M: TOP LOG INTERVAL
CDD1.IN_FT                    : CASING DRILLER
CDL1.FT                       : CASING LOGGER
BS1.IN                    8.5": BIT SIZE
DFT1.                SEA WATER: TYPE FLUID IN HOLE
DFDV1.GM/C3_CP          1.03SG: DENSITY/VISCOSITY
DFPL1.C3                      : PH/FLUID LOSS
MSS1.                         : SOURCE OF SAMPLE
RMT1.OHHM_DEGF                : RM@MEASURED TEMP
RMFT1.OHMM_DEGF                : RMF@MEASURED TEMP
RMCT1.OHMM_DEGF                : RMC@MEASURED TEMP
RMFS1.                        : SOURCE OF RMF/RMC
RMBT1.OHMM_DEGF                : RM@BHT
TCS1.                         : TIME CIRCULATION STOPPED
TLOB1.                36 HOURS: TIME LOGGER ON BOTTOM
BHT1.DEGF                 FULL: MAXIMUM RECORDED TEMPERATURE
LUN1.                 12030699: EQUIPMENT NUMBER
LUL1.                   NORWAY: LOCATION
ENGI1.              C.JAMIESON: RECORDED BY
WITN1.                A.ALBAWI: WITNESSED BY
~Curve Information Block
DEPT.M             0 000 00 00: Depth
LSPD.M/MIN                   0: Line Speed
LTEN.LB                      0: Surface Line Tension
MINMK.                       0: Minute Mark Ticks
HVOLTA.V                     0: Head Voltage Apparent
CCL.                         0: Casing Collar Locator
~Parameter Information Block
SRFTEMP.DEGC           12.0000: Surface Temperature
MudWgt.LB/GAL           8.5600: Mud Weight
CASETHCK.IN             0.4530: Casing Thickness
BITSIZE.IN             12.2500: Borehole I.D.
~Other Information
TOOL STRING DEPLOYED BY ALTUS INTERVENTION WIRELINE UNIT ON 7/16" CABLE
CABLE HEAD BUILT BY ALTUS
LOG CORRELATED TO SHLUMBERGER 4.5" HSD OX POWER JET PULS DATED 09.APRIL.2014
CORRELATION LOG IS SHALLOWER BY 1.4M, DEPTH SHIFTED 1.4M DOWN AS PER
CLIENTS REQUEST.
4.655" HSC GUN 10 AND 350 DEGREE PHASING, 39 GR MILLENIUM, 4 SHOTS PER FOOT.
ATTEMPT WAS MADE TO RUN 4 GUNS IN ONE STRING BUT AT 3600M PICK UP WEIGHT 
WAS TOO HIGH TO CONTINUE.  CLIENT D4ECIDED TO SPLIT UP ONTO TWO RUNS.
RUN #1 CCL TO TOP SHOT 3.25 M, CCL STOP DEPT: 3729.75 M
PERFORATION INTERVAL 3733M - 3742.6M
RUN #2 CCL TO TOP SHOT 3.25 M, CCL STOP DEPT: 3711.75 M
PERFORATION INTERVAL 3715M - 3724.6M

~A  Depth       LSPD        LTEN       MINMK       HVOLTA       CCL     
# ...
  3606.4000      9.5524   6191.7007      0.0000      3.4752      0.0027
  3606.3500      9.5524   6220.2285      0.0000      3.4859     -0.0015
  3606.3000      9.5524   6220.2285      0.0000      3.4859     -0.0107
  3606.2500      9.5524   6248.5229      0.0000      3.4958     -0.0082
  3606.2000      9.5524   6249.7720      0.0000      3.4653     -0.0250
  3606.1500      9.5524   6249.7720      0.0000      3.4653      0.0589
  3606.1000      9.5524   6218.3608      0.0000      3.4958     -0.1517
  3606.0500      9.5524   6174.3027      0.0000      3.5255      0.0562
  3606.0000      9.5524   6174.3027      0.0000      3.5255      0.3986
  3605.9500      9.5524   6122.0229      0.0000      3.5057      0.3918
  3605.9000      9.5524   6122.0229      0.0000      3.5057     -0.5563
  3605.8500      9.5524   6065.3159      0.0000      3.5057      0.8136
  3605.8000      9.5524   6025.1694      0.0000      3.5263      0.2850
  3605.7500      9.6073   6025.1694      0.0000      3.5263      0.9756
  3605.7000      9.6073   6009.4189      0.0000      3.5263     -0.4297
  3605.6500      9.6073   6011.3501      0.0000      3.4958     -0.0702
  3605.6000      9.6439   6011.3501      0.0000      3.4958     -0.1617
  3605.5500      9.6439   6029.0000      0.0000      3.5362      0.0162
  3605.5000      9.6439   6054.1035      0.0000      3.4859     -0.0031
  3605.4500      9.6591   6054.1035      0.0000      3.4859     -0.0128
  3605.4000      9.6591   6075.2661      0.0000      3.4554     -0.0165
  3605.3500      9.6591   6099.2310      0.0000      3.4348     -0.0156
  3605.3000      9.6256   6099.2310      0.0000      3.4348     -0.0052
  3605.2500      9.6256   6131.3521      0.0000      3.5461     -0.0104
  3605.2000      9.6256   6159.1494      0.0000      3.5156     -0.0153
  3605.1500      9.5707   6159.1494      0.0000      3.5156     -0.0159
  3605.1000      9.5707   6184.9780      0.0000      3.4248      0.0626
  3605.0500      9.5707   6222.6660      0.0000      3.4752      0.0275
  3605.0000      9.5707   6222.6660      0.0000      3.4752     -0.0140
  3604.9500      9.5189   6259.4932      0.0000      3.5263     -0.0195
  3604.9000      9.5189   6280.2822      0.0000      3.4958     -0.0128
  3604.8500      9.5189   6280.2822      0.0000      3.4958     -0.0137
  3604.8000      9.5189   6296.8818      0.0000      3.4950     -0.0613
  3604.7500      9.5189   6314.8535      0.0000      3.4348     -0.0900
  3604.7000      9.5189   6314.8535      0.0000      3.4348     -0.0104
  3604.6500      9.5006   6320.0293      0.0000      3.4554      0.0024
  3604.6000      9.5006   6306.6328      0.0000      3.4355     -0.0235
  3604.5500      9.5006   6306.6328      0.0000      3.4355      0.0623
  3604.5000      9.5524   6271.3853      0.0000      3.4760      0.2658
  3604.4500      9.5524   6203.8706      0.0000      3.4851     -0.5667
  3604.4000      9.5524   6203.8706      0.0000      3.4851     -0.3668
  3604.3500      9.5707   6116.7998      0.0000      3.5461     -0.2585
  3604.3000      9.5707   6116.7998      0.0000      3.5461     -0.7626
  3604.2500      9.5707   6038.6401      0.0000      3.5568      0.5411
  3604.2000      9.5707   5977.7891      0.0000      3.5263     -0.2100
  3604.1500      9.5707   5977.7891      0.0000      3.5263     -0.2100
  3604.1000      9.5707   5937.2080      0.0000      3.5263     -0.2100
  3604.0500      9.6073   5922.4956      0.0000      3.4760     -0.1627
  3604.0000      9.6256   5922.4956      0.0000      3.4760     -0.0662
  3603.9500      9.6256   5918.9609      0.0000      3.4042      0.0543
  3603.9000      9.6256   5917.0859      0.0000      3.5362      0.1141
  3603.8500      9.6073   5917.0859      0.0000      3.5362     -0.0259
  3603.8000      9.6073   5937.8232      0.0000      3.5164      0.0327
  3603.7500      9.6073   5986.6133      0.0000      3.4859     -0.0150
  3603.7000      9.5890   5986.6133      0.0000      3.4859      0.0128
  3603.6500      9.5890   6037.2837      0.0000      3.5057     -0.0092
  3603.6000      9.5890   6079.5352      0.0000      3.4447      0.0128
  3603.5500      9.5707   6079.5352      0.0000      3.4447      0.0125
  3603.5000      9.5707   6119.1265      0.0000      3.4958      0.0320
  3603.4500      9.5707   6150.6802      0.0000      3.5263     -0.0034
  3603.4000      9.5707   6150.6802      0.0000      3.5263      0.0027
  3603.3500      9.5341   6171.9707      0.0000      3.4859     -0.0171
  3603.3000      9.5341   6185.9897      0.0000      3.4958     -0.0079
  3603.2500      9.5341   6185.9897      0.0000      3.4958     -0.0162
  3603.2000      9.5341   6184.9028      0.0000      3.4653     -0.0208
  3603.1500      9.5341   6164.1953      0.0000      3.5156      0.0043
  3603.1000      9.5341   6164.1953      0.0000      3.5156      0.5319
  3603.0500      9.5524   6130.3701      0.0000      3.4958     -0.0137
  3603.0000      9.5524   6083.8740      0.0000      3.4958      0.2951
  3602.9500      9.5524   6083.8740      0.0000      3.4958      0.3839
  3602.9000      9.6073   6026.5029      0.0000      3.5164     -0.4852
  3602.8500      9.6073   5970.4570      0.0000      3.5263      0.4742
  3602.8000      9.6073   5970.4570      0.0000      3.5263     -0.8896
  3602.7500      9.6073   5916.0830      0.0000      3.5156      2.7469
  3602.7000      9.6073   5916.0830      0.0000      3.5156      5.9119
  3602.6500      9.6073   5862.0732      0.0000      3.5057      1.3837
  3602.6000      9.6073   5834.6777      0.0000      3.4653     -0.2551
  3602.5500      9.6591   5834.6777      0.0000      3.4653      0.0476
  3602.5000      9.6591   5853.6426      0.0000      3.4859     -0.0604
  3602.4500      9.6591   5897.6807      0.0000      3.4554     -0.0089
  3602.4000      9.6591   5897.6807      0.0000      3.4554      0.0018
  3602.3500      9.6591   5941.7856      0.0000      3.5461      0.0034
  3602.3000      9.6591   5984.5781      0.0000      3.5156     -0.0085
  3602.2500      9.5707   5984.5781      0.0000      3.5156     -0.0107
  3602.2000      9.5707   6026.4175      0.0000      3.4958     -0.0189
  3602.1500      9.5707   6066.8730      0.0000      3.4958     -0.0116
  3602.1000      9.5890   6066.8730      0.0000      3.4958     -0.0159
  3602.0500      9.5890   6109.7070      0.0000      3.5164     -0.0076
  3602.0000      9.5890   6145.1479      0.0000      3.5255     -0.0150
  3601.9500      9.5189   6145.1479      0.0000      3.5255     -0.0137
  3601.9000      9.5189   6164.5503      0.0000      3.4851     -0.0366
  3601.8500      9.5189   6179.8975      0.0000      3.5057      0.0012
  3601.8000      9.5189   6179.8975      0.0000      3.5057     -0.0256
  3601.7500      9.5341   6188.3501      0.0000      3.5164      0.0412
  3601.7000      9.5341   6166.4644      0.0000      3.4859      0.0589
  3601.6500      9.5341   6166.4644      0.0000      3.4859      0.1160
  3601.6000      9.6073   6121.0620      0.0000      3.5362      0.0479
  3601.5500      9.6073   6081.8687      0.0000      3.4851      0.2527
  3601.5000      9.6073   6081.8687      0.0000      3.4851     -0.1706
  3601.4500      9.6256   6052.9346      0.0000      3.4752     -0.0552
  3601.4000      9.6256   6029.9614      0.0000      3.4958      0.0381
  3601.3500      9.6256   6029.9614      0.0000      3.4958      0.1208
  3601.3000      9.6591   6027.4546      0.0000      3.5164      0.0589
  3601.2500      9.6591   6027.4546      0.0000      3.5164     -0.0555
  3601.2000      9.6591   6048.7759      0.0000      3.5164      0.0061
  3601.1500      9.6774   6081.5176      0.0000      3.5255      0.0128
  3601.1000      9.6774   6081.5176      0.0000      3.5255      0.0101
  3601.0500      9.6774   6124.3569      0.0000      3.5156     -0.0003
  3601.0000      9.6774   6172.0063      0.0000      3.4958      0.0073
  3600.9500      9.6073   6172.0063      0.0000      3.4958     -0.0073
  3600.9000      9.6073   6207.0200      0.0000      3.4760      0.0031
  3600.8500      9.6073   6230.9868      0.0000      3.4554     -0.0079
