~Version Information
VERS.             2.0 : CWLS log ASCII standard - Version 2.0
WRAP.             NO  : One line per depth step
#
~Well Information Block
#MNEM.UNIT                   Data Type:Information
#__________________________________________________________
 STRT .M           2450.13480  :START INDEX                  
  STOP.M           3113.3796 : STOP INDEX                    
 STEP .M              0.00000  :STEP                         
  NULL.              -999.25 : NULL VALUE                    
  COMP.              Statoil : COMPANY                       
  WELL.            15_9_F-12 : WELL                          
   FLD.                Volve : FIELD                         
   LOC.           Maersk Inspirer : LOCATION                      
  PROV.                      : PROVINCE                      
  CNTY.                      : COUNTY                        
  STAT.                      : STATE                         
  CTRY.                      : COUNTRY                       
  SRVC.              SLB D&M : SERVICE COMPANY               
  DATE.                      : LOG DATE                      
   UWI.                      : UNIQUE WELL ID                
   API.                      : API NUMBER                    
#
~Curve Information Block
#MNEM.UNIT                     : Curve Description
#---------                     --------------------
DEPT        .M                 : Bit Depth 2hz                                                   
TVDE        .M                 : SVY TVD_EXTR 2hz                                                
ARC_GR_RT   .GAPI              : ARC Gamma Ray, Real-Time                                        
ROP5        .M/HR              : 5ft ROP 2hz                                                     
SWOB        .KKGF              : Surface Weight on Bit 2hz                                       
RPM         .RPM               : SRF SRPM 2hz                                                    
TFLO        .LPM               : HSPM Total Pump Flow 2hz                                        
TRPM_RT     .RPM               : MWD TUR_RPM 2hz                                                 
SPPA        .BAR               : SRF PUMPRS 2hz                                                  
TQA         .KMN               : SRF STOR 2hz                                                    
SHKRSK_RT   .----              : MWD SHKRSK 2hz                                                  
SHK2_RT     .----              : ARC Shock Level, Real-Time                                      
SHK_ADN_RT  .----              : ADN Shock Level, Real-Time                                      
PDSHKRSK    .----              : PowerDrive Shock Risk 2hz                                       
ECD_ARC     .G/C3              : Equivalent Circulating Density                                  
ATMP        .DEGC              : ARC Annular Temperature                                         
APRS_ARC    .BAR               : ARC Annular Pressure                                            
#
~Parameter Information Block
#MNEM.UNIT                       Value:Description
#__________________________________________________________
#
~Other Information Block

#
~A    DEPT       TVDE  ARC_GR_RT       ROP5       SWOB        RPM       TFLO    TRPM_RT       SPPA        TQA  SHKRSK_RT    SHK2_RT SHK_ADN_RT   PDSHKRSK    ECD_ARC       ATMP   APRS_ARC
# ...
 3066.1355  2835.5381    63.6387     7.3840     7.5016   138.9286  3115.7107  2382.8125   207.3587    32.0539    -999.25    -999.25    -999.25     2.0000     1.4224    93.0000   395.1387
 3066.2881  2835.6238    67.9520     7.9952     7.0995   137.0363  3175.3810    -999.25   209.5394    28.3040     0.0000     1.0000     0.0000    -999.25     1.4223    93.0000   395.1387
 3066.4404  2835.7089    70.1617     8.5353     8.0755   138.2017  3166.1873    -999.25   206.3885    31.2428    -999.25    -999.25     0.0000    -999.25     1.4223    93.0000   395.1387
 3066.5928  2835.7946    72.4067     8.9808     8.4285   137.9180  3152.6960    -999.25   205.7741    27.0392    -999.25    -999.25    -999.25    -999.25     1.4222    93.0000   395.1387
 3066.7451  2835.8857    67.9520     9.1446     7.7452   138.4692  3346.3913    -999.25   228.5200    28.9970    -999.25    -999.25     0.0000    -999.25     1.4224    93.0000   395.2076
 3066.8977  2835.9712    65.7777     9.2351     7.3638   138.5867  3511.2549    -999.25   232.1250    30.0231    -999.25    -999.25    -999.25    -999.25     1.4224    93.0000   395.2076
 3067.0500  2836.0569    47.7997     9.3563     6.8054   139.4091  3445.0659  2617.1875   232.1818    31.9356     0.0000    -999.25    -999.25     0.0000     1.4223    93.0000   395.2076
 3067.2024  2836.1423    -999.25     9.4904     8.4268   136.1048  3477.0319    -999.25   232.2787    27.4482    -999.25     0.0000     0.0000    -999.25     1.4223    93.0000   395.2076
 3067.3547  2836.2277    37.4054     8.4737     9.1792   138.6993  3440.8245  2617.1875   232.3861    24.6517     0.0000    -999.25    -999.25     0.0000     1.4223    93.0000   395.2076
 3067.5071  2836.3188    35.7968     6.0458     9.4904   137.9953  3454.9890  2617.1875   232.1661    24.6986     0.0000     0.0000    -999.25     0.0000     1.4225    93.0000   395.2766
 3067.6597  2836.4045    51.5473     4.4803     8.9244   138.3226  3457.9519  2617.1875   232.2092    23.3137     0.0000     0.0000     0.0000     0.0000     1.4222    93.0000   395.2076
 3067.8120  2836.4900    49.6559     3.6962     9.2860   138.4848  3500.3466  2617.1875   232.1089    25.2087     0.0000     0.0000    -999.25     0.0000     1.4224    93.0000   395.2766
 3067.9644  2836.5754    63.6387     3.1040     8.9068   138.6241  3495.1516  2617.1875   232.0564    23.9384     0.0000     0.0000    -999.25     0.0000     1.4208    93.0000   394.8629
 3068.1167  2836.6668    61.5351     2.7260     8.8555   138.7026  3498.2806  2617.1875   232.0459    23.4311     0.0000     0.0000     0.0000     0.0000     1.4205    93.0000   394.7939
 3068.2693  2836.7522    63.6387     2.5933     9.1047   139.3065  3522.6071  2617.1875   232.0721    24.8959     0.0000     0.0000    -999.25     0.0000     1.4220    93.0000   395.2076
 3068.4216  2836.8376    70.1617     2.5514     8.3978   138.5106  3522.6071    -999.25   232.0017    24.4655    -999.25     0.0000    -999.25    -999.25     1.4222    93.0000   395.2766
 3068.5740  2836.9234    61.5351     2.5417     8.3573   138.6063  3522.6071  2617.1875   232.1801    27.2456     0.0000    -999.25     0.0000     0.0000     1.4224    93.0000   395.3455
 3068.7263  2837.0144    61.5351     2.5088     8.6689   139.4286  3522.6071    -999.25   232.1928    27.8801    -999.25     0.0000    -999.25    -999.25     1.4209    93.0000   394.9318
 3068.8789  2837.0999    57.4339     2.5450     8.9386   138.7897  3522.6071  2617.1875   232.1008    25.4347     0.0000    -999.25    -999.25     0.0000     1.4221    93.0000   395.2766
 3069.0313  2837.1853    55.4364     2.8355     9.0613   138.7656  3522.6071    -999.25   232.1578    29.6348    -999.25     0.0000     0.0000    -999.25     1.4223    93.0000   395.3455
 3069.1836  2837.2710    67.9520     3.3088     9.3879   138.4300  3522.6071  2617.1875   232.0516    27.4616     0.0000     0.0000    -999.25     0.0000     1.4222    93.0000   395.3455
 3069.3359  2837.3621    57.4339     3.7981     8.7838   139.3317  3522.6071    -999.25   232.0111    27.6463    -999.25    -999.25    -999.25    -999.25     1.4222    93.0000   395.3455
 3069.4883  2837.4475    59.4668     4.5727     8.6100   138.9371  3522.6071  2617.1875   232.0420    28.3133     0.0000     0.0000     0.0000     0.0000     1.4221    93.0000   395.3455
 3069.6409  2837.5330    65.7777     5.6106     8.4377   139.0829  3522.6071  2617.1875   232.0728    28.4855    -999.25    -999.25    -999.25     0.0000     1.4221    93.0000   395.3455
 3069.7932  2837.6187    55.4364     5.9638     9.2492   138.6909  3522.6071    -999.25   232.2528    27.1961     0.0000     0.0000    -999.25    -999.25     1.4220    93.0000   395.3455
 3069.9456  2837.7098    63.6387     5.7150     9.3406   137.8889  3522.6071  2617.1875   232.0309    27.2435     0.0000     0.0000     0.0000     0.0000     1.4220    93.0000   395.3455
 3070.0979  2837.7952    61.5351     5.3820     8.7538   137.3862  3522.6071  2617.1875   231.9387    26.4334     0.0000    -999.25    -999.25     0.0000     1.4222    93.0000   395.4145
 3070.2505  2837.8809    70.1617     5.2610     8.3242   135.0817  3522.6071    -999.25   231.9665    30.0983    -999.25     0.0000    -999.25    -999.25     1.4227    93.0000   395.5524
 3070.4028  2837.9660    61.5351     5.2476     8.8719   135.2200  3522.6071  2617.1875   231.9839    24.8083     0.0000     0.0000    -999.25     0.0000     1.4226    93.0000   395.5524
 3070.5552  2838.0574    63.6387     5.1673     8.8203   137.2222  3522.6071  2578.1250   231.7755    26.9321    -999.25    -999.25    -999.25     0.0000     1.4223    93.0000   395.4834
 3070.7075  2838.1429    65.7777     5.0689     8.4586   137.5983  3522.6071    -999.25   231.9925    27.2682     0.0000     0.0000    -999.25    -999.25     1.4223    93.0000   395.4834
 3070.8601  2838.2286    59.4668     5.0123     8.5736   138.6771  3522.6071  2617.1875   231.9826    27.2684     0.0000     0.0000    -999.25     0.0000     1.4222    93.0000   395.4834
 3071.0125  2838.3140    61.5351     4.8990     8.2773   137.7892  3522.6071  2617.1875   231.9128    28.0914     0.0000    -999.25    -999.25     0.0000     1.4222    93.0000   395.4834
 3071.1648  2838.3994    70.1617     4.8027     8.1129   138.5608  3522.6071    -999.25   231.8956    26.5555    -999.25     0.0000    -999.25    -999.25     1.4224    93.0000   395.5524
 3071.3171  2838.4908    65.7777     4.8630     8.0338   138.3770  3522.6071  2617.1875   231.9975    26.9677     0.0000     0.0000    -999.25     0.0000     1.4226    93.0000   395.6213
 3071.4695  2838.5762    70.1617     5.0558     8.0504   139.0703  3522.6071    -999.25   231.9996    27.9195    -999.25    -999.25    -999.25     0.0000     1.4223    93.0000   395.5524
 3071.6221  2838.6617    55.4364     5.1740     7.9212   138.6633  3522.6071  2617.1875   231.9392    28.1547     0.0000     0.0000    -999.25    -999.25     1.4223    93.0000   395.5524
 3071.7744  2838.7471    67.9520     5.2562     8.0857   138.7428  3522.6071  2617.1875   231.9740    28.3624    -999.25    -999.25    -999.25     0.0000     1.4225    93.0000   395.6213
 3071.9268  2838.8382    55.4364     5.3176     7.8564   139.0514  3522.6071    -999.25   231.9433    26.2819     0.0000     0.0000    -999.25    -999.25     1.4224    93.0000   395.6213
 3072.0791  2838.9239    61.5351     5.3740     8.3259   138.9461  3522.6071  2617.1875   232.0418    25.5271     0.0000    -999.25    -999.25     0.0000     1.4226    93.0000   395.6903
 3072.2317  2839.0093    63.6387     5.2372     8.2296   138.8781  3522.6071  2617.1875   231.9471    25.9795    -999.25     0.0000    -999.25     0.0000     1.4226    93.0000   395.6903
 3072.3840  2839.0948    59.4668     4.9543     8.4125   138.3265  3522.6071  2617.1875   231.9839    25.7720     0.0000     0.0000    -999.25     0.0000     1.4225    93.0000   395.6903
 3072.5364  2839.1861    57.4339     4.7958     8.8166   138.7841  3522.6071  2617.1875   231.9197    25.1754     0.0000     0.0000    -999.25     0.0000     1.4225    93.0000   395.6903
