~Version Information
VERS.                      2.0: CWLS Log ASCII Standard - VERSION 2.0
WRAP.                       NO: One line per depth step
~Well Information Block
STRT.M               3169.9500: START DEPTH
STOP.M               3076.7000: STOP DEPTH
STEP.M                 -0.0500: STEP
NULL.                -999.2500: NULL VALUE
COMP.                  Statoil: COMPANY
WELL.                15/9-F-12: WELL
FLD.                     Volve: FIELD
LOC.                          : LOCATION
SRVC.          Halliburton Logging Services: SERVICE COMPANY
DATE.          Wed Nov 26 07-57-02 2014: LOG DATE
UWI.                          : UNIQUE WELL ID
SECT.                         : SECTION
TOWN.                         : TOWNSHIP
RANG.                         : RANGE
API.                          : API#
OS.                           : OTHER SERVICES
PDAT.FT                       : PERMANENT DATUM
EEL.FT                        : ELEVATION
LMF.FT                        : LOG MEASURED FROM
DMF.FT                        : DRILLING MEASURED FROM
EKB.FT                        : KB
EDF.FT                        : DF
EGL.FT                        : GL
DATE1.                        : DATE1
RUN1.                         : RUN NUMBER
TDD1.FT                       : DEPTH DRILLER
TDL1.FT                       : DEPTH LOGGER
BLI1.FT                       : BOTTOM LOGGED INTERVAL
TLI1.FT                       : TOP LOG INTERVAL
CDD1.IN_FT                    : CASING DRILLER
CDL1.FT                       : CASING LOGGER
BS1.IN                        : BIT SIZE
DFT1.                         : TYPE FLUID IN HOLE
DFDV1.GM/C3_CP                : DENSITY/VISCOSITY
DFPL1.C3                      : PH/FLUID LOSS
MSS1.                         : SOURCE OF SAMPLE
RMT1.OHHM_DEGF                : RM@MEASURED TEMP
RMFT1.OHMM_DEGF                : RMF@MEASURED TEMP
RMCT1.OHMM_DEGF                : RMC@MEASURED TEMP
RMFS1.                        : SOURCE OF RMF/RMC
RMBT1.OHMM_DEGF                : RM@BHT
TCS1.                         : TIME CIRCULATION STOPPED
TLOB1.                        : TIME LOGGER ON BOTTOM
BHT1.DEGF                     : MAXIMUM RECORDED TEMPERATURE
LUN1.                         : EQUIPMENT NUMBER
LUL1.                         : LOCATION
ENGI1.                        : RECORDED BY
WITN1.                        : WITNESSED BY
~Curve Information Block
DEPT.M             0 000 00 00: Depth
LSPD.M/MIN                   0: Line Speed
LTEN.LB                      0: Surface Line Tension
MINMK.                       0: Minute Mark Ticks
GR.GAPI                      0: Gamma Ray
CCL.                         0: Casing Collar Locator
ACCX.                        0: X Axis Accelerometer
ACCY.                        0: Y Axis Accelerometer
ACCZ.                        0: Z Axis Accelerometer
RB.DEG                       0: Relative Bearing
DEVI.DEG                     0: Deviation
TOTG.GEE                     0: Total G
RBRef.DEG                    0: RB Reference
IntTemp.DEGF                 0: Internal Electronics Temperature
~Parameter Information Block
~A  Depth       LSPD        LTEN       MINMK         GR         CCL         ACCX        ACCY        ACCZ         RB         DEVI        TOTG       RBRef      IntTemp   
# ...
  3153.1500     14.1427   4680.9805      0.0000     17.2933    361.0000   1560.4000  -2502.1001   2135.8999    301.9492      0.0247   3641.0742     58.0508    225.1400
  3153.1000     14.1427   4678.0742      0.0000     16.8547    360.0000   1553.0000  -2502.3999   2124.6001    301.8239      0.0248   3631.4927     58.1761    225.1400
  3153.0500     14.1427   4672.2778      0.0000     16.1655    370.0000   1568.7000  -2482.5000   2124.8999    302.2889      0.0248   3624.7517     57.7111    225.1400
  3153.0000     14.1427   4671.1221      0.0000     15.6016    369.0000   1559.5000  -2453.0000   2122.7000    302.4463      0.0250   3599.3201     57.5538    225.1400
  3152.9500     14.1061   4677.8555      0.0000     15.5389    369.0000   1560.0000  -2467.8000   2101.5000    302.2987      0.0250   3597.2126     57.7013    225.1400
  3152.9000     14.1061   4674.7432      0.0000     15.2256    373.0000   1560.2000  -2440.8000   2081.8000    302.5874      0.0252   3567.2988     57.4126    225.1400
  3152.8500     14.1061   4660.3501      0.0000     14.5364    363.0000   1564.5000  -2422.3000   2060.7000    302.8574      0.0254   3544.2463     57.1426    225.1400
  3152.8000     14.1061   4644.2007      0.0000     14.3484    360.0000   1584.5000  -2405.8000   2061.8000    303.3696      0.0254   3542.5320     56.6304    225.1400
  3152.7500     14.1061   4640.0874      0.0000     14.2231    362.0000   1592.0000  -2425.3000   2075.3999    303.2814      0.0252   3567.0476     56.7186    225.1400
  3152.7000     14.1610   4650.9805      0.0000     14.2231    367.0000   1589.4000  -2435.8999   2092.8000    303.1241      0.0251   3583.2405     56.8760    225.1400
  3152.6500     14.1610   4664.9263      0.0000     14.9124    385.0000   1593.8000  -2454.1001   2097.7000    303.0015      0.0250   3600.4375     56.9985    225.1400
  3152.6000     14.1610   4668.8306      0.0000     15.7896    361.0000   1603.0000  -2445.5000   2102.3999    303.2444      0.0250   3601.4114     56.7556    225.1400
  3152.5500     14.1610   4665.7510      0.0000     17.2307    360.0000   1603.4000  -2467.0000   2111.5000    303.0214      0.0249   3621.5208     56.9786    225.1400
  3152.5000     14.1610   4670.6089      0.0000     17.7946    377.0000   1587.9000  -2460.1001   2144.8000    302.8407      0.0248   3629.5574     57.1593    225.1400
  3152.4500     14.1427   4712.7363      0.0000     19.1730    367.0000   1584.5000  -2468.3000   2182.8999    302.6980      0.0246   3656.2546     57.3020    225.1400
  3152.4000     14.1427   4745.0200      0.0000     19.9249    368.0000   1589.1000  -2442.1001   2191.8999    303.0525      0.0247   3646.0276     56.9475    225.1400
  3152.3500     14.1427   4760.9336      0.0000     20.8648    352.0000   1598.1000  -2439.7000   2198.6001    303.2264      0.0246   3652.3831     56.7736    225.1400
  3152.3000     14.1427   4760.0493      0.0000     21.3034    370.0000   1613.8000  -2434.0000   2205.0000    303.5453      0.0246   3659.3350     56.4547    225.1400
  3152.2500     14.1244   4754.3623      1.0000     20.8648    350.0000   1622.2000  -2438.3000   2195.8999    303.6358      0.0246   3660.4395     56.3642    225.1400
  3152.2000     14.1244   4753.0923      0.0000     19.4237    372.0000   1643.1000  -2458.3000   2191.6001    303.7583      0.0245   3680.5063     56.2417    225.1400
  3152.1500     14.1244   4752.8296      0.0000     18.8597    374.0000   1633.0000  -2445.5000   2191.0000    303.7333      0.0245   3667.1025     56.2667    225.1421
  3152.1000     14.1244   4747.0356      0.0000     17.7319    369.0000   1652.0000  -2460.1001   2203.2000    303.8820      0.0244   3692.5989     56.1180    225.1449
  3152.0500     14.1244   4728.0273      0.0000     16.6667    365.0000   1669.6000  -2453.3999   2180.7000    304.2363      0.0244   3682.6875     55.7637    225.1477
  3152.0000     14.1427   4720.5581      0.0000     15.9775    363.0000   1678.2000  -2480.5000   2137.6001    304.0806      0.0245   3679.4795     55.9194    225.1505
  3151.9500     14.1427   4720.0527      0.0000     14.9124    368.0000   1707.4000  -2458.3999   2120.3000    304.7806      0.0245   3668.0537     55.2194    225.1534
  3151.9000     14.1427   4716.2900      0.0000     14.6617    369.0000   1711.4000  -2420.8000   2127.1001    305.2586      0.0247   3648.7969     54.7414    225.1562
  3151.8500     14.1427   4700.4082      0.0000     14.4111    368.0000   1707.3000  -2415.3000   2103.2000    305.2553      0.0248   3629.3247     54.7447    225.1604
  3151.8000     14.1427   4678.6104      0.0000     14.5991    365.0000   1711.7000  -2392.3999   2109.0000    305.5827      0.0249   3619.5823     54.4173    225.1618
  3151.7500     14.0909   4667.5586      0.0000     14.6617    361.0000   1721.7000  -2382.8000   2111.2000    305.8501      0.0249   3619.2751     54.1499    225.1590
  3151.7000     14.0909   4683.1348      0.0000     13.9725    378.0000   1731.0000  -2371.3999   2094.8999    306.1275      0.0250   3606.7305     53.8725    225.1562
  3151.6500     14.0909   4695.2739      0.0000     13.3459    367.0000   1745.4000  -2357.1001   2098.8999    306.5194      0.0250   3606.6221     53.4806    225.1534
  3151.6000     14.0909   4692.1025      0.0000     12.6567    370.0000   1757.0000  -2316.8000   2080.5000    307.1757      0.0252   3575.3450     52.8243    225.1505
  3151.5500     14.1244   4677.2915      0.0000     11.7169    374.0000   1760.6000  -2299.1001   2105.7000    307.4441      0.0251   3580.4395     52.5559    225.1477
  3151.5000     14.1244   4665.4819      0.0000     10.8397    369.0000   1755.0000  -2289.3999   2127.2000    307.4729      0.0251   3584.1814     52.5271    225.1435
  3151.4500     14.1244   4664.4878      0.0000     10.4637    351.0000   1779.6000  -2311.6001   2125.8000    307.5911      0.0249   3609.6394     52.4089    225.1407
  3151.4000     14.1244   4667.0933      0.0000      9.4612    369.0000   1795.4000  -2297.7000   2128.0000    308.0037      0.0249   3609.8850     51.9963    225.1400
  3151.3500     14.1244   4660.8140      0.0000      8.8346    362.0000   1806.5000  -2293.8000   2136.7000    308.2225      0.0249   3618.0723     51.7775    225.1400
  3151.3000     14.1427   4632.9209      0.0000      9.3359    364.0000   1840.0000  -2275.6001   2151.5000    308.9583      0.0248   3632.2043     51.0418    225.1400
  3151.2500     14.1427   4618.6118      0.0000     10.0878    392.0000   1833.8000  -2285.5000   2146.0000    308.7422      0.0248   3632.0310     51.2577    225.1400
  3151.2000     14.1427   4617.1138      0.0000     10.9650    352.0000   1853.9000  -2274.3000   2120.0000    309.1853      0.0249   3619.9153     50.8147    225.1400
  3151.1500     14.1427   4623.2402      0.0000     11.8422    370.0000   1869.8000  -2257.3000   2131.8000    309.6361      0.0248   3624.3796     50.3639    225.1393
  3151.1000     14.1427   4628.6313      0.0000     12.5314    380.0000   1891.6000  -2240.8999   2127.8000    310.1685      0.0248   3623.1638     49.8314    225.1358
  3151.0500     14.1427   4633.8633      0.0000     13.2206    369.0000   1907.5000  -2231.5000   2114.3000    310.5240      0.0249   3617.7913     49.4760    225.1379
  3151.0000     14.1427   4647.0649      0.0000     13.9098    368.0000   1920.2000  -2232.3000   2092.5000    310.7018      0.0249   3612.3245     49.2982    225.1400
  3150.9500     14.1427   4682.7056      0.0000     13.7845    362.0000   1929.9000  -2209.2000   2110.6001    311.1396      0.0249   3613.8223     48.8604    225.1435
  3150.9000     14.1427   4698.7632      0.0000     12.7820    357.0000   1942.6000  -2212.5000   2138.1001    311.2835      0.0247   3638.7253     48.7165    225.1548
  3150.8500     14.1427   4700.1436      0.0000     12.1554    380.0000   1945.8000  -2216.8999   2119.7000    311.2738      0.0248   3632.3423     48.7262    225.1534
  3150.8000     14.1976   4686.7202      0.0000     10.9023    351.0000   1948.0000  -2208.3000   2179.1001    311.4164      0.0246   3663.3005     48.5836    225.1498
