~Version Information
VERS.                      2.0: CWLS Log ASCII Standard - VERSION 2.0
WRAP.                       NO: One line per depth step
~Well Information Block
STRT.M               3779.4000: START DEPTH
STOP.M               3680.8000: STOP DEPTH
STEP.M                 -0.0500: STEP
NULL.                -999.2500: NULL VALUE
COMP.                  STATOIL: COMPANY
WELL.               15/9-F-1-C: WELL
FLD.                     VOLVE: FIELD
LOC.                          : LOCATION
SRVC.          Halliburton Logging Services: SERVICE COMPANY
DATE.          Thu Dec 04 05-18-20 2014: LOG DATE
UWI.                          : UNIQUE WELL ID
CTRY.                   NORWAY: COUNTRY
SECT.                         : SECTION
TOWN.                         : TOWNSHIP
RANG.                         : RANGE
API.                          : API#
OS.                   --NONE--: OTHER SERVICES
PDAT.FT                  M.S.L: PERMANENT DATUM
EEL.FT                   54.9M: ELEVATION
LMF.FT                   R.K.B: LOG MEASURED FROM
DMF.FT                   R.K.B: DRILLING MEASURED FROM
EKB.FT                   54.9M: KB
EDF.FT                   54.9M: DF
EGL.FT                    -91M: GL
DATE1.         03-DEC-14 @ 05:47: DATE1
RUN1.                    1 & 2: RUN NUMBER
TDD1.FT                  4094M: DEPTH DRILLER
TDL1.FT                  3782M: DEPTH LOGGER
BLI1.FT                  3772M: BOTTOM LOGGED INTERVAL
TLI1.FT                  3572M: TOP LOG INTERVAL
CDD1.IN_FT                    : CASING DRILLER
CDL1.FT                       : CASING LOGGER
BS1.IN                    8.5": BIT SIZE
DFT1.                SEA WATER: TYPE FLUID IN HOLE
DFDV1.GM/C3_CP          1.03SG: DENSITY/VISCOSITY
DFPL1.C3                      : PH/FLUID LOSS
MSS1.                         : SOURCE OF SAMPLE
RMT1.OHHM_DEGF                : RM@MEASURED TEMP
RMFT1.OHMM_DEGF                : RMF@MEASURED TEMP
RMCT1.OHMM_DEGF                : RMC@MEASURED TEMP
RMFS1.                        : SOURCE OF RMF/RMC
RMBT1.OHMM_DEGF                : RM@BHT
TCS1.                         : TIME CIRCULATION STOPPED
TLOB1.                36 HOURS: TIME LOGGER ON BOTTOM
BHT1.DEGF                 FULL: MAXIMUM RECORDED TEMPERATURE
LUN1.                 12030699: EQUIPMENT NUMBER
LUL1.                   NORWAY: LOCATION
ENGI1.              C.JAMIESON: RECORDED BY
WITN1.                A.ALBAWI: WITNESSED BY
~Curve Information Block
DEPT.M             0 000 00 00: Depth
LSPD.M/MIN                   0: Line Speed
LTEN.LB                      0: Surface Line Tension
MINMK.                       0: Minute Mark Ticks
HVOLTA.V                     0: Head Voltage Apparent
CCL.                         0: Casing Collar Locator
~Parameter Information Block
SRFTEMP.DEGC           10.0000: Surface Temperature
MudWgt.LB/GAL           8.5000: Mud Weight
CASETHCK.IN             0.4530: Casing Thickness
BITSIZE.IN              8.5000: Borehole I.D.
~Other Information
TOOL STRING DEPLOYED BY ALTUS INTERVENTION WIRELINE UNIT ON 7/16" CABLE
CABLE HEAD BUILT BY ALTUS
LOG CORRELATED TO SHLUMBERGER 4.5" HSD OX POWER JET PULS DATED 09.APRIL.2014
CORRELATION LOG IS SHALLOWER BY 1.4M, DEPTH SHIFTED 1.4M DOWN AS PER
CLIENTS REQUEST.
4.655" HSC GUN 10 AND 350 DEGREE PHASING, 39 GR MILLENIUM, 4 SHOTS PER FOOT.
ATTEMPT WAS MADE TO RUN 4 GUNS IN ONE STRING BUT AT 3600M PICK UP WEIGHT 
WAS TOO HIGH TO CONTINUE.  CLIENT D4ECIDED TO SPLIT UP ONTO TWO RUNS.
RUN #1 CCL TO TOP SHOT 3.25 M, CCL STOP DEPT: 3729.75 M
PERFORATION INTERVAL 3733M - 3742.6M
RUN #2 CCL TO TOP SHOT 3.25 M, CCL STOP DEPT: 3711.75 M
PERFORATION INTERVAL 3715M - 3724.6M

~A  Depth       LSPD        LTEN       MINMK       HVOLTA       CCL     
# ...
  3717.8000      9.2141   6919.8530      0.0000      3.4950     -0.0140
  3717.7500      9.2141   6938.0850      0.0000      3.4851     -0.0067
  3717.7000      9.2690   6938.0850      0.0000      3.4851     -0.0110
  3717.6500      9.2690   6964.8857      0.0000      3.4546     -0.0061
  3717.6000      9.2690   7002.6543      0.0000      3.5156     -0.0162
  3717.5500      9.2507   7002.6543      0.0000      3.5156     -0.0095
  3717.5000      9.2507   7029.9478      0.0000      3.4851     -0.0177
  3717.4500      9.2507   7043.8149      0.0000      3.4851     -0.0067
  3717.4000      9.2507   7043.8149      0.0000      3.4851     -0.0012
  3717.3500      9.2507   7053.8433      0.0000      3.4851     -0.0757
  3717.3000      9.2507   7049.9453      0.0000      3.4851      0.2200
  3717.2500      9.2324   7049.9453      0.0000      3.4851      0.0656
  3717.2000      9.2324   7022.8960      0.0000      3.4851      0.4510
  3717.1500      9.2324   6979.1182      0.0000      3.4645      0.1706
  3717.1000      9.1775   6979.1182      0.0000      3.4645     -0.2014
  3717.0500      9.1775   6918.2793      0.0000      3.4851      0.2725
  3717.0000      9.1775   6918.2793      0.0000      3.4851      0.2646
  3716.9500      9.1958   6837.0752      0.0000      3.4851      1.0751
  3716.9000      9.1958   6746.5283      0.0000      3.4851      0.0330
  3716.8500      9.1958   6746.5283      0.0000      3.4851     -0.3647
  3716.8000      9.2141   6661.6606      0.0000      3.4950     -0.4089
  3716.7500      9.2141   6593.4521      0.0000      3.4752      0.1883
  3716.7000      9.2141   6593.4521      0.0000      3.4752      0.0620
  3716.6500      9.2141   6552.9419      0.0000      3.4851     -0.1102
  3716.6000      9.2141   6541.4878      0.0000      3.4546     -0.0089
  3716.5500      9.2141   6541.4878      0.0000      3.4546     -0.0208
  3716.5000      9.2141   6552.4209      0.0000      3.4546      0.0037
  3716.4500      9.2690   6587.5894      0.0000      3.5255     -0.0165
  3716.4000      9.2690   6587.5894      0.0000      3.5255     -0.0122
  3716.3500      9.1775   6642.3198      0.0000      3.4851     -0.0092
  3716.3000      9.1775   6694.7163      0.0000      3.4546     -0.0122
  3716.2500      9.1775   6694.7163      0.0000      3.4546     -0.0092
  3716.2000      9.0891   6736.3560      0.0000      3.5156     -0.0101
  3716.1500      9.0891   6775.8003      0.0000      3.4851     -0.0107
  3716.1000      9.0891   6775.8003      0.0000      3.4851     -0.0092
  3716.0500      8.9825   6805.5146      0.0000      3.4950      0.0165
  3716.0000      8.9825   6812.9131      0.0000      3.4851     -0.0146
  3715.9500      8.9825   6812.9131      0.0000      3.4851     -0.0092
  3715.9000      8.5527   6806.1338      0.0000      3.5461     -0.0021
  3715.8500      8.5527   6788.1777      0.0000      3.4950      0.0006
  3715.8000      7.9278   6788.1777      0.0000      3.4950      0.1221
  3715.7500      7.9278   6754.5068      0.0000      3.4546      0.3027
  3715.7000      7.1415   6727.5620      0.0000      3.4851     -0.0143
  3715.6500      7.1415   6727.5620      0.0000      3.4851     -0.0018
  3715.6000      6.2850   6726.7998      0.0000      3.4851     -0.0998
  3715.5500      6.2850   6726.7998      0.0000      3.4851     -0.0180
  3715.5000      5.6053   6731.2285      0.0000      3.4447     -0.0278
  3715.4500      5.2487   6725.8516      0.0000      3.5156     -0.0244
  3715.4000      5.2487   6725.8516      0.0000      3.5156     -0.0220
  3715.3500      5.0353   6731.0723      0.0000      3.4950      0.0308
  3715.3000      5.0170   6760.4536      0.0000      3.4950      0.0073
  3715.2500      5.0170   6760.4536      0.0000      3.4950      0.0119
  3715.2000      5.0353   6805.9653      0.0000      3.4950     -0.0067
  3715.1500      5.0353   6858.2363      0.0000      3.5255     -0.0122
  3715.1000      5.0536   6858.2363      0.0000      3.5255     -0.0183
  3715.0500      5.0536   6904.3979      0.0000      3.4950     -0.0104
  3715.0000      5.0536   6938.5889      0.0000      3.4851     -0.0195
  3714.9500      5.0536   6938.5889      0.0000      3.4851     -0.0079
  3714.9000      5.0536   6973.8813      0.0000      3.5255     -0.0046
  3714.8500      5.0170   7012.7139      0.0000      3.4851     -0.0104
  3714.8000      4.9804   7012.7139      0.0000      3.4851     -0.0070
  3714.7500      4.9804   7043.8896      0.0000      3.4752     -0.0180
  3714.7000      4.9804   7073.5791      0.0000      3.4546     -0.0177
  3714.6500      4.9804   7073.5791      0.0000      3.4546     -0.0073
  3714.6000      4.9286   7109.0059      0.0000      3.4851     -0.0156
  3714.5500      4.9103   7130.1978      0.0000      3.4950     -0.0143
  3714.5000      4.9103   7130.1978      0.0000      3.4950     -0.0089
  3714.4500      4.9621   7108.9341      0.0000      3.4851      0.0143
  3714.4000      4.9621   7027.5884      0.0000      3.4851      0.0134
  3714.3500      4.9621   7027.5884      0.0000      3.4851     -0.8249
  3714.3000      4.9621   6886.6289      0.0000      3.5156      1.5463
  3714.2500      4.9621   6730.6836      0.0000      3.4950      0.3299
  3714.2000      5.0170   6730.6836      0.0000      3.4950      0.2515
  3714.1500      5.0170   6629.4243      0.0000      3.4851      0.0925
  3714.1000      4.9987   6604.3755      0.0000      3.4851     -0.0323
  3714.0500      5.0170   6604.3755      0.0000      3.4851      0.0000
  3714.0000      5.0170   6624.1216      1.0000      3.5255     -0.0027
  3713.9500      5.0170   6624.1216      1.0000      3.5255     -0.0082
  3713.9000      5.0170   6661.3047      0.0000      3.4851     -0.0089
  3713.8500      5.0170   6700.8438      0.0000      3.4851     -0.0049
  3713.8000      5.0170   6700.8438      0.0000      3.4851     -0.0104
  3713.7500      5.0170   6730.7261      0.0000      3.4950     -0.0168
  3713.7000      4.9804   6760.9507      0.0000      3.4851     -0.0064
  3713.6500      4.9804   6760.9507      0.0000      3.4851     -0.0125
  3713.6000      4.8920   6807.2061      0.0000      3.4851     -0.0162
  3713.5500      4.7671   6858.4976      0.0000      3.5156     -0.0150
  3713.5000      4.7671   6858.4976      0.0000      3.5156     -0.0116
  3713.4500      4.6970   6902.5942      0.0000      3.4851     -0.0137
  3713.4000      4.6055   6946.2480      0.0000      3.4447     -0.0125
  3713.3500      4.6055   6946.2480      0.0000      3.4447     -0.0073
  3713.3000      4.5690   6987.2358      0.0000      3.4950     -0.0073
  3713.2500      4.5537   7013.2065      0.0000      3.5355     -0.0055
  3713.2000      4.5537   7013.2065      0.0000      3.5355     -0.0067
  3713.1500      4.5354   7016.8301      0.0000      3.4851     -0.0122
  3713.1000      4.4988   6982.8555      0.0000      3.4950     -0.0113
  3713.0500      4.4105   6982.8555      0.0000      3.4950      0.0354
  3713.0000      3.9807   6903.6094      0.0000      3.4447      0.0372
  3712.9500      3.5174   6815.8242      0.0000      3.4851     -0.0360
  3712.9000      3.1059   6815.8242      0.0000      3.4851     -0.0909
  3712.8500      2.7859   6768.6909      0.0000      3.4851      0.0089
  3712.8000      0.7650   6770.4932      0.0000      3.5156     -0.0113
  3712.7500      0.8748   6770.4932      0.0000      3.5156     -0.0165
  3712.7000      0.6401   6805.7593      0.0000      3.5255     -0.0037
  3712.6500      0.6949   6857.7451      0.0000      3.4851     -0.0101
  3712.6000      1.1582   6857.7451      0.0000      3.4851     -0.0134
  3712.5500      1.6063   6898.7700      0.0000      3.4851     -0.0043
  3712.5000      1.5697   6909.9634      0.0000      3.4851     -0.0122
  3712.4500      1.5514   6909.9634      0.0000      3.4851     -0.0183
  3712.4000      1.5331   6889.3774      0.0000      3.4851     -0.0082
  3712.3500      1.5179   6889.3774      0.0000      3.4851     -0.0076
  3712.3000      1.5179   6824.6978      0.0000      3.4851     -0.0012
  3712.2500      1.5179   6721.6118      0.0000      3.5156      0.2206
