~Version Information
VERS.                      2.0: CWLS Log ASCII Standard - VERSION 2.0
WRAP.                       NO: One line per depth step
~Well Information Block
STRT.M               3779.4000: START DEPTH
STOP.M               3680.8000: STOP DEPTH
STEP.M                 -0.0500: STEP
NULL.                -999.2500: NULL VALUE
COMP.                  STATOIL: COMPANY
WELL.               15/9-F-1-C: WELL
FLD.                     VOLVE: FIELD
LOC.                          : LOCATION
SRVC.          Halliburton Logging Services: SERVICE COMPANY
DATE.          Thu Dec 04 05-18-20 2014: LOG DATE
UWI.                          : UNIQUE WELL ID
CTRY.                   NORWAY: COUNTRY
SECT.                         : SECTION
TOWN.                         : TOWNSHIP
RANG.                         : RANGE
API.                          : API#
OS.                   --NONE--: OTHER SERVICES
PDAT.FT                  M.S.L: PERMANENT DATUM
EEL.FT                   54.9M: ELEVATION
LMF.FT                   R.K.B: LOG MEASURED FROM
DMF.FT                   R.K.B: DRILLING MEASURED FROM
EKB.FT                   54.9M: KB
EDF.FT                   54.9M: DF
EGL.FT                    -91M: GL
DATE1.         03-DEC-14 @ 05:47: DATE1
RUN1.                    1 & 2: RUN NUMBER
TDD1.FT                  4094M: DEPTH DRILLER
TDL1.FT                  3782M: DEPTH LOGGER
BLI1.FT                  3772M: BOTTOM LOGGED INTERVAL
TLI1.FT                  3572M: TOP LOG INTERVAL
CDD1.IN_FT                    : CASING DRILLER
CDL1.FT                       : CASING LOGGER
BS1.IN                    8.5": BIT SIZE
DFT1.                SEA WATER: TYPE FLUID IN HOLE
DFDV1.GM/C3_CP          1.03SG: DENSITY/VISCOSITY
DFPL1.C3                      : PH/FLUID LOSS
MSS1.                         : SOURCE OF SAMPLE
RMT1.OHHM_DEGF                : RM@MEASURED TEMP
RMFT1.OHMM_DEGF                : RMF@MEASURED TEMP
RMCT1.OHMM_DEGF                : RMC@MEASURED TEMP
RMFS1.                        : SOURCE OF RMF/RMC
RMBT1.OHMM_DEGF                : RM@BHT
TCS1.                         : TIME CIRCULATION STOPPED
TLOB1.                36 HOURS: TIME LOGGER ON BOTTOM
BHT1.DEGF                 FULL: MAXIMUM RECORDED TEMPERATURE
LUN1.                 12030699: EQUIPMENT NUMBER
LUL1.                   NORWAY: LOCATION
ENGI1.              C.JAMIESON: RECORDED BY
WITN1.                A.ALBAWI: WITNESSED BY
~Curve Information Block
DEPT.M             0 000 00 00: Depth
LSPD.M/MIN                   0: Line Speed
LTEN.LB                      0: Surface Line Tension
MINMK.                       0: Minute Mark Ticks
HVOLTA.V                     0: Head Voltage Apparent
CCL.                         0: Casing Collar Locator
~Parameter Information Block
SRFTEMP.DEGC           10.0000: Surface Temperature
MudWgt.LB/GAL           8.5000: Mud Weight
CASETHCK.IN             0.4530: Casing Thickness
BITSIZE.IN              8.5000: Borehole I.D.
~Other Information
TOOL STRING DEPLOYED BY ALTUS INTERVENTION WIRELINE UNIT ON 7/16" CABLE
CABLE HEAD BUILT BY ALTUS
LOG CORRELATED TO SHLUMBERGER 4.5" HSD OX POWER JET PULS DATED 09.APRIL.2014
CORRELATION LOG IS SHALLOWER BY 1.4M, DEPTH SHIFTED 1.4M DOWN AS PER
CLIENTS REQUEST.
4.655" HSC GUN 10 AND 350 DEGREE PHASING, 39 GR MILLENIUM, 4 SHOTS PER FOOT.
ATTEMPT WAS MADE TO RUN 4 GUNS IN ONE STRING BUT AT 3600M PICK UP WEIGHT 
WAS TOO HIGH TO CONTINUE.  CLIENT D4ECIDED TO SPLIT UP ONTO TWO RUNS.
RUN #1 CCL TO TOP SHOT 3.25 M, CCL STOP DEPT: 3729.75 M
PERFORATION INTERVAL 3733M - 3742.6M
RUN #2 CCL TO TOP SHOT 3.25 M, CCL STOP DEPT: 3711.75 M
PERFORATION INTERVAL 3715M - 3724.6M

~A  Depth       LSPD        LTEN       MINMK       HVOLTA       CCL     
# ...
  3745.8000      9.4275   6922.3188      0.0000      3.4546     -0.0156
  3745.7500      9.4275   6922.3188      0.0000      3.4546      0.0055
  3745.7000      9.4275   6941.3428      0.0000      3.4851      0.0516
  3745.6500      9.4275   6941.3428      0.0000      3.4851     -0.0388
  3745.6000      9.4275   6962.3198      0.0000      3.4851     -0.0290
  3745.5500      9.4275   6971.8569      0.0000      3.4851      0.2655
  3745.5000      9.4458   6971.8569      0.0000      3.4851     -0.5173
  3745.4500      9.4458   6965.5547      0.0000      3.4950      0.0116
  3745.4000      9.4458   6959.9829      0.0000      3.5255     -0.3561
  3745.3500      9.3756   6959.9829      0.0000      3.5255     -0.0012
  3745.3000      9.3756   6964.1294      0.0000      3.5355     -0.0308
  3745.2500      9.3756   6981.0400      0.0000      3.4950      0.0089
  3745.2000      9.3756   6981.0400      0.0000      3.4950     -0.0266
  3745.1500      9.3756   7019.2373      0.0000      3.4851     -0.0064
  3745.1000      9.3756   7068.9639      0.0000      3.4851     -0.0089
  3745.0500      9.3756   7068.9639      0.0000      3.4851     -0.0061
  3745.0000      9.3756   7108.6743      0.0000      3.4645     -0.0061
  3744.9500      9.3756   7140.1743      0.0000      3.4950     -0.0137
  3744.9000      9.3756   7140.1743      0.0000      3.4950     -0.0119
  3744.8500      9.3574   7169.6157      0.0000      3.4950     -0.0027
  3744.8000      9.3574   7181.3682      0.0000      3.4447     -0.0037
  3744.7500      9.3574   7181.3682      0.0000      3.4447     -0.0290
  3744.7000      9.4092   7166.3057      0.0000      3.4851      0.2023
  3744.6500      9.4092   7130.9668      0.0000      3.5156      0.0919
  3744.6000      9.4092   7130.9668      0.0000      3.5156     -1.4145
  3744.5500      9.4458   7068.8154      0.0000      3.4447     -0.0684
  3744.5000      9.4458   6975.1729      0.0000      3.4546      1.0211
  3744.4500      9.4458   6975.1729      0.0000      3.4546     -0.5438
  3744.4000      9.4640   6870.7070      0.0000      3.5255     -0.0281
  3744.3500      9.4640   6770.9199      0.0000      3.4851      1.3705
  3744.3000      9.4640   6770.9199      0.0000      3.4851      0.1880
  3744.2500      9.5006   6679.1147      0.0000      3.4950      0.3757
  3744.2000      9.5006   6614.7764      0.0000      3.4851      0.0687
  3744.1500      9.5006   6614.7764      0.0000      3.4851     -0.0986
  3744.1000      9.5006   6595.2402      0.0000      3.4447     -0.0073
  3744.0500      9.4640   6595.2402      0.0000      3.4447     -0.1114
  3744.0000      9.4640   6610.1899      0.0000      3.4653      0.0278
  3743.9500      9.4640   6642.4663      0.0000      3.4546      0.0229
  3743.9000      9.4458   6642.4663      0.0000      3.4546     -0.0223
  3743.8500      9.4458   6677.5376      0.0000      3.5156     -0.0247
  3743.8000      9.4458   6698.2344      0.0000      3.5156     -0.0043
  3743.7500      9.4275   6698.2344      0.0000      3.5156     -0.0089
  3743.7000      9.4275   6711.3394      0.0000      3.4851     -0.0180
  3743.6500      9.4275   6742.5991      0.0000      3.4950     -0.0204
  3743.6000      9.3756   6742.5991      0.0000      3.4950     -0.0052
  3743.5500      9.3756   6787.0649      0.0000      3.4851     -0.0140
  3743.5000      9.3756   6821.8325      0.0000      3.5156     -0.0159
  3743.4500      9.4275   6821.8325      0.0000      3.5156     -0.0037
  3743.4000      9.4275   6846.8208      0.0000      3.4950      0.0018
  3743.3500      9.4275   6864.9194      0.0000      3.5255     -0.0009
  3743.3000      9.4092   6864.9194      0.0000      3.5255     -0.1117
  3743.2500      9.4092   6867.1167      0.0000      3.4752      0.2795
  3743.2000      9.4092   6855.0767      0.0000      3.4851      0.8746
  3743.1500      9.4092   6855.0767      0.0000      3.4851     -0.6598
  3743.1000      9.4458   6838.2510      0.0000      3.5255      0.1492
  3743.0500      9.4458   6819.7642      0.0000      3.4752     -0.2020
  3743.0000      9.4458   6819.7642      0.0000      3.4752      0.1578
  3742.9500      9.4640   6806.6035      0.0000      3.4447      0.5304
  3742.9000      9.4640   6803.0991      0.0000      3.4851      0.2594
  3742.8500      9.4640   6803.0991      0.0000      3.4851     -0.1163
  3742.8000      9.3939   6797.1924      0.0000      3.4950     -0.1541
  3742.7500      9.3939   6782.6616      0.0000      3.4950      0.0024
  3742.7000      9.3939   6782.6616      0.0000      3.4950     -0.2734
  3742.6500      9.4092   6763.6646      0.0000      3.4851     -0.4153
  3742.6000      9.4092   6734.5796      0.0000      3.4851     -0.2060
  3742.5500      9.4092   6734.5796      0.0000      3.4851      0.1563
  3742.5000      9.3939   6698.0698      0.0000      3.4645      0.2832
  3742.4500      9.3939   6698.0698      0.0000      3.4645      1.9449
  3742.4000      9.3939   6674.1313      0.0000      3.4950     -1.8573
  3742.3500      9.3939   6662.1714      0.0000      3.4447      0.6030
  3742.3000      9.3939   6662.1714      0.0000      3.4447     -3.3142
  3742.2500      9.3939   6640.9336      0.0000      3.4851      0.3250
  3742.2000      9.4823   6612.0532      0.0000      3.4950      0.0818
  3742.1500      9.4823   6612.0532      0.0000      3.4950      0.0052
  3742.1000      9.4823   6592.0205      0.0000      3.4851     -0.0702
  3742.0500      9.4640   6582.6885      0.0000      3.4851     -0.0769
  3742.0000      9.4640   6582.6885      0.0000      3.4851     -0.0027
  3741.9500      9.4640   6589.0723      0.0000      3.4950     -0.0153
  3741.9000      9.4640   6618.1357      0.0000      3.4546     -0.0101
  3741.8500      9.4823   6618.1357      0.0000      3.4546     -0.0278
  3741.8000      9.4823   6651.9194      0.0000      3.4851     -0.0076
  3741.7500      9.4823   6669.8911      0.0000      3.4851      0.0067
  3741.7000      9.4640   6669.8911      0.0000      3.4851     -0.0668
  3741.6500      9.4640   6675.4175      0.0000      3.4950     -0.0125
  3741.6000      9.4640   6674.8506      0.0000      3.4851     -0.0024
  3741.5500      9.3939   6674.8506      0.0000      3.4851     -0.0308
  3741.5000      9.3939   6670.5918      0.0000      3.4851     -0.0070
  3741.4500      9.3939   6677.8511      0.0000      3.5355     -0.0876
  3741.4000      9.3939   6677.8511      0.0000      3.5355     -0.0311
  3741.3500      9.3939   6706.7559      0.0000      3.4950      0.0168
  3741.3000      9.3939   6749.2520      0.0000      3.4851     -0.1117
  3741.2500      9.4092   6749.2520      0.0000      3.4851      0.0015
  3741.2000      9.4092   6797.4346      0.0000      3.4950     -0.0345
  3741.1500      9.4092   6829.5229      0.0000      3.4851     -0.1431
  3741.1000      9.3025   6829.5229      0.0000      3.4851     -0.2664
  3741.0500      9.3025   6813.7231      0.0000      3.4851      0.2017
  3741.0000      9.3025   6766.2290      0.0000      3.5255     -0.0204
  3740.9500      9.3756   6766.2290      0.0000      3.5255      0.1285
  3740.9000      9.3756   6735.3091      0.0000      3.4546      0.0333
  3740.8500      9.3756   6735.3091      0.0000      3.4546     -0.0266
  3740.8000      9.3939   6725.3457      0.0000      3.4950      0.1651
  3740.7500      9.3939   6707.2695      0.0000      3.5156     -0.0345
  3740.7000      9.3939   6707.2695      0.0000      3.5156     -0.2832
  3740.6500      9.3939   6679.0977      0.0000      3.5255      0.0653
  3740.6000      9.3939   6658.1953      0.0000      3.4950      0.3522
  3740.5500      9.3939   6658.1953      0.0000      3.4950      0.2353
  3740.5000      9.3939   6649.0146      1.0000      3.5156      0.0980
  3740.4500      9.5189   6652.7109      0.0000      3.4851      0.3235
  3740.4000      9.5189   6652.7109      0.0000      3.4851     -0.0186
  3740.3500      9.5189   6669.3911      0.0000      3.4851     -0.0098
  3740.3000      9.4640   6692.3618      0.0000      3.4645      0.0003
  3740.2500      9.4640   6692.3618      0.0000      3.4645     -0.0104
