~Version Information
VERS.             2.0 : CWLS log ASCII standard - Version 2.0
WRAP.             NO  : One line per depth step
#
~Well Information Block
#MNEM.UNIT                   Data Type:Information
#__________________________________________________________
 STRT .M           2450.13480  :START INDEX                  
  STOP.M           3113.3796 : STOP INDEX                    
 STEP .M              0.00000  :STEP                         
  NULL.              -999.25 : NULL VALUE                    
  COMP.              Statoil : COMPANY                       
  WELL.            15_9_F-12 : WELL                          
   FLD.                Volve : FIELD                         
   LOC.           Maersk Inspirer : LOCATION                      
  PROV.                      : PROVINCE                      
  CNTY.                      : COUNTY                        
  STAT.                      : STATE                         
  CTRY.                      : COUNTRY                       
  SRVC.              SLB D&M : SERVICE COMPANY               
  DATE.                      : LOG DATE                      
   UWI.                      : UNIQUE WELL ID                
   API.                      : API NUMBER                    
#
~Curve Information Block
#MNEM.UNIT                     : Curve Description
#---------                     --------------------
DEPT        .M                 : Bit Depth 2hz                                                   
TVDE        .M                 : SVY TVD_EXTR 2hz                                                
ARC_GR_RT   .GAPI              : ARC Gamma Ray, Real-Time                                        
ROP5        .M/HR              : 5ft ROP 2hz                                                     
SWOB        .KKGF              : Surface Weight on Bit 2hz                                       
RPM         .RPM               : SRF SRPM 2hz                                                    
TFLO        .LPM               : HSPM Total Pump Flow 2hz                                        
TRPM_RT     .RPM               : MWD TUR_RPM 2hz                                                 
SPPA        .BAR               : SRF PUMPRS 2hz                                                  
TQA         .KMN               : SRF STOR 2hz                                                    
SHKRSK_RT   .----              : MWD SHKRSK 2hz                                                  
SHK2_RT     .----              : ARC Shock Level, Real-Time                                      
SHK_ADN_RT  .----              : ADN Shock Level, Real-Time                                      
PDSHKRSK    .----              : PowerDrive Shock Risk 2hz                                       
ECD_ARC     .G/C3              : Equivalent Circulating Density                                  
ATMP        .DEGC              : ARC Annular Temperature                                         
APRS_ARC    .BAR               : ARC Annular Pressure                                            
#
~Parameter Information Block
#MNEM.UNIT                       Value:Description
#__________________________________________________________
#
~Other Information Block

#
~A    DEPT       TVDE  ARC_GR_RT       ROP5       SWOB        RPM       TFLO    TRPM_RT       SPPA        TQA  SHKRSK_RT    SHK2_RT SHK_ADN_RT   PDSHKRSK    ECD_ARC       ATMP   APRS_ARC
# ...
 2725.3691  2616.2163    19.0399     9.0155     2.2164   150.1468  3256.7499  2382.8125   191.7811    30.5265     0.0000    -999.25     0.0000    -999.25     1.3830    81.0000   354.2528
 2725.5215  2616.3452    22.6591     9.0182     2.1918   149.0000  3256.7499    -999.25   191.5554    31.0733    -999.25     0.0000     0.0000    -999.25     1.3816    81.0000   353.9080
 2725.6741  2616.4735    17.9035     9.0243     3.5480   149.0092  3256.7499    -999.25   191.6826    29.7462    -999.25    -999.25     0.0000    -999.25     1.3832    81.0000   354.3217
 2725.8264  2616.6110    13.7074     9.0089     6.0798   149.4956  3256.7499  2343.7500   191.7828    27.3214     0.0000    -999.25    -999.25     0.0000     1.3817    81.0000   353.9770
 2725.9788  2616.7399    19.0399     8.7502     6.1506   148.9592  3256.7499    -999.25   191.5816    31.0103    -999.25     0.0000     0.0000    -999.25     1.3819    81.0000   354.0459
 2726.1311  2616.8685    19.0399     8.7205     6.1157   149.6748  3256.7499  2343.7500   191.5365    32.5081    -999.25    -999.25     0.0000     0.0000     1.3830    81.0000   354.3217
 2726.2837  2616.9974    16.8020     8.7032     6.0729   150.0441  3256.7499    -999.25   191.3696    31.5636     0.0000     0.0000     0.0000    -999.25     1.3826    81.0000   354.2528
 2726.4360  2617.1346    19.0399     8.4488     6.0224   147.5152  3256.7499    -999.25   191.2213    30.9172    -999.25    -999.25     0.0000     0.0000     1.3828    81.0000   354.3217
 2726.5884  2617.2638    20.2114     8.5625     6.3152   145.8955  3256.7499  2343.7500   191.3048    30.0874     0.0000     0.0000    -999.25    -999.25     1.3822    81.0000   354.1838
 2726.7407  2617.3920    20.2114     8.6088     5.9021   146.6279  3256.7499    -999.25   191.2244    30.9121    -999.25    -999.25     0.0000    -999.25     1.3822    81.0000   354.1838
 2726.8933  2617.5209    17.9035     8.5924     5.1338   144.6608  3256.7499  2343.7500   191.1344    29.1076    -999.25    -999.25    -999.25     0.0000     1.3832    82.0000   354.4596
 2727.0457  2617.6584    22.6591     8.4273     6.1950   147.2089  3256.7499    -999.25   191.2357    31.0387     0.0000     0.0000    -999.25    -999.25     1.3820    81.0000   354.1838
 2727.1980  2617.7870    16.8020     8.0707     5.8305   146.3234  3256.7499  2343.7500   191.0723    30.9398    -999.25    -999.25     0.0000     0.0000     1.3822    81.0000   354.2528
 2727.3503  2617.9159    14.7039     7.8565     5.6603   148.2133  3256.7499    -999.25   191.0402    30.8965     0.0000     0.0000    -999.25    -999.25     1.3824    82.0000   354.3217
 2727.5027  2618.0445    17.9035     7.9667     5.1207   147.1250  3256.7499    -999.25   191.0842    30.6267    -999.25    -999.25    -999.25    -999.25     1.3826    82.0000   354.3907
 2727.6553  2618.1820    19.0399     8.0132     5.7080   146.7018  3256.7499  2343.7500   191.1325    32.4507     0.0000    -999.25     0.0000     0.0000     1.3820    82.0000   354.2528
 2727.8076  2618.3106    16.8020     8.0730     5.6677   143.0238  3256.7499    -999.25   190.9572    30.9173    -999.25     0.0000     0.0000    -999.25     1.3828    82.0000   354.4596
 2727.9600  2618.4395    16.8020     8.3432     5.7172   143.1818  3256.7499    -999.25   190.8904    30.6709    -999.25    -999.25     0.0000    -999.25     1.3832    82.0000   354.5975
 2728.1123  2618.5684    14.7039     8.2839     5.6451   145.4126  3256.7499  2382.8125   190.8020    30.0564     0.0000     0.0000     0.0000     0.0000     1.3824    82.0000   354.3907
 2728.2649  2618.6970    17.9035     8.2888     5.5784   145.4961  3256.7499    -999.25   190.8676    29.4330    -999.25    -999.25     0.0000    -999.25     1.3820    82.0000   354.3217
 2728.4172  2618.8342    19.0399     8.1440     5.9072   145.1778  3256.7499  2382.8125   190.6611    30.6895     0.0000    -999.25     0.0000     0.0000     1.3833    82.0000   354.6664
 2728.5696  2618.9631    16.8020     8.1090     5.3427   147.0286  3256.7499    -999.25   190.6669    30.3664    -999.25     0.0000     0.0000    -999.25     1.3827    82.0000   354.5286
 2728.7219  2619.0920    15.7355     8.3601     5.6874   144.8492  3256.7499    -999.25   190.8105    28.1686    -999.25    -999.25     0.0000    -999.25     1.3832    82.0000   354.6664
 2728.8745  2619.2205    20.2114     8.5823     5.7118   147.3590  3256.7499  2343.7500   190.6329    33.4147     0.0000    -999.25     0.0000     0.0000     1.3826    82.0000   354.5286
 2729.0269  2619.3581    17.9035     8.6707     5.3317   142.7631  3256.7499    -999.25   190.6760    29.5571    -999.25     0.0000     0.0000    -999.25     1.3822    82.0000   354.4596
 2729.1792  2619.4867    15.7355     8.6306     5.3969   147.0000  3256.7499    -999.25   190.7131    31.3045    -999.25    -999.25     0.0000     0.0000     1.3825    82.0000   354.5286
 2729.3315  2619.6155    17.9035     8.5859     5.7469   146.3030  3256.7499  2382.8125   190.6229    27.3147     0.0000     0.0000     0.0000    -999.25     1.3829    82.0000   354.6664
 2729.4839  2619.7441    19.0399     8.3666     5.2482   148.5909  3256.7499    -999.25   190.6147    31.2602    -999.25    -999.25     0.0000    -999.25     1.3834    82.0000   354.8043
 2729.6365  2619.8816    21.4178     8.4417     4.9578   142.6288  3256.7499  2343.7500   190.6468    30.5285     0.0000    -999.25    -999.25     0.0000     1.3833    82.0000   354.8043
 2729.7888  2620.0105    15.7355     8.4188     5.1485   145.9925  3256.7499    -999.25   190.6052    30.5968    -999.25     0.0000     0.0000    -999.25     1.3822    82.0000   354.5286
 2729.9412  2620.1391    15.7355     8.4896     5.1637   144.3629  3256.7499    -999.25   190.6719    29.7940    -999.25    -999.25     0.0000     0.0000     1.3829    82.0000   354.7354
 2730.0935  2620.2680    15.7355     8.5619     5.9712   146.9845  3256.7499  2343.7500   190.4040    31.9911     0.0000     0.0000     0.0000    -999.25     1.3823    82.0000   354.5975
 2730.2461  2620.4052    22.6591     8.3879     5.2203   146.7171  3256.7499    -999.25   190.4906    28.9020    -999.25    -999.25     0.0000    -999.25     1.3823    82.0000   354.5975
 2730.3984  2620.5341    17.9035     8.3776     4.5313   147.9068  3256.7499  2382.8125   190.6115    30.4749     0.0000    -999.25    -999.25     0.0000     1.3827    82.0000   354.7354
 2730.5508  2620.6627    15.7355     8.4085     4.3094   146.5909  3256.7499    -999.25   190.4021    30.3073    -999.25     0.0000    -999.25    -999.25     1.3824    82.0000   354.6664
 2730.7031  2620.7916    15.7355     8.4823     3.7087   145.6789  3256.7499    -999.25   190.4179    29.5923    -999.25    -999.25     0.0000    -999.25     1.3826    82.0000   354.7354
 2730.8557  2620.9291    12.7457     8.6385     4.7685   146.4182  3256.7499  2343.7500   190.5731    30.7005     0.0000    -999.25     0.0000     0.0000     1.3823    82.0000   354.6664
 2731.0081  2619.8293    17.9035     6.4864     6.7027   146.4747  3323.7139  2460.9375   201.2005    28.1147     0.0000     0.0000     0.0000     0.0000     1.3836    82.0000   355.0112
 2731.1604  2619.9543    17.9035     6.3965     6.4114   147.8846  3503.8615    -999.25   223.7467    28.6452     0.0000     0.0000    -999.25    -999.25     1.3830    82.0000   354.8733
 2731.3127  2620.0796    15.7355     6.3350     6.2240   148.2081  3536.4344  2578.1250   223.4030    28.9866    -999.25    -999.25     0.0000     0.0000     1.3823    82.0000   354.7354
 2731.4651  2620.2132    19.0399     6.3678     5.9233   147.2087  3476.9492    -999.25   223.3354    28.4738     0.0000     0.0000     0.0000    -999.25     1.3831    82.0000   354.9422
 2731.6177  2620.3382    19.0399     6.3990     6.7603   148.4584  3497.4979    -999.25   223.3198    30.5214    -999.25    -999.25     0.0000    -999.25     1.3836    82.0000   355.0801
 2731.7700  2620.4636    22.6591     6.4000     6.6634   146.7189  3490.3171  2578.1250   222.6597    29.0474     0.0000    -999.25     0.0000     0.0000     1.3827    82.0000   354.8733
