~Version Information
VERS.                      2.0: CWLS Log ASCII Standard - VERSION 2.0
WRAP.                       NO: One line per depth step
~Well Information Block
STRT.M               3169.8000: START DEPTH
STOP.M               3077.9500: STOP DEPTH
STEP.M                 -0.0500: STEP
NULL.                -999.2500: NULL VALUE
COMP.                  Statoil: COMPANY
WELL.                15/9-F-12: WELL
FLD.                     Volve: FIELD
LOC.                          : LOCATION
SRVC.          Halliburton Logging Services: SERVICE COMPANY
DATE.          Wed Nov 26 07-41-16 2014: LOG DATE
UWI.                          : UNIQUE WELL ID
SECT.                         : SECTION
TOWN.                         : TOWNSHIP
RANG.                         : RANGE
API.                          : API#
OS.                           : OTHER SERVICES
PDAT.FT                       : PERMANENT DATUM
EEL.FT                        : ELEVATION
LMF.FT                        : LOG MEASURED FROM
DMF.FT                        : DRILLING MEASURED FROM
EKB.FT                        : KB
EDF.FT                        : DF
EGL.FT                        : GL
DATE1.                        : DATE1
RUN1.                         : RUN NUMBER
TDD1.FT                       : DEPTH DRILLER
TDL1.FT                       : DEPTH LOGGER
BLI1.FT                       : BOTTOM LOGGED INTERVAL
TLI1.FT                       : TOP LOG INTERVAL
CDD1.IN_FT                    : CASING DRILLER
CDL1.FT                       : CASING LOGGER
BS1.IN                        : BIT SIZE
DFT1.                         : TYPE FLUID IN HOLE
DFDV1.GM/C3_CP                : DENSITY/VISCOSITY
DFPL1.C3                      : PH/FLUID LOSS
MSS1.                         : SOURCE OF SAMPLE
RMT1.OHHM_DEGF                : RM@MEASURED TEMP
RMFT1.OHMM_DEGF                : RMF@MEASURED TEMP
RMCT1.OHMM_DEGF                : RMC@MEASURED TEMP
RMFS1.                        : SOURCE OF RMF/RMC
RMBT1.OHMM_DEGF                : RM@BHT
TCS1.                         : TIME CIRCULATION STOPPED
TLOB1.                        : TIME LOGGER ON BOTTOM
BHT1.DEGF                     : MAXIMUM RECORDED TEMPERATURE
LUN1.                         : EQUIPMENT NUMBER
LUL1.                         : LOCATION
ENGI1.                        : RECORDED BY
WITN1.                        : WITNESSED BY
~Curve Information Block
DEPT.M             0 000 00 00: Depth
LSPD.M/MIN                   0: Line Speed
LTEN.LB                      0: Surface Line Tension
MINMK.                       0: Minute Mark Ticks
GR.GAPI                      0: Gamma Ray
CCL.                         0: Casing Collar Locator
ACCX.                        0: X Axis Accelerometer
ACCY.                        0: Y Axis Accelerometer
ACCZ.                        0: Z Axis Accelerometer
RB.DEG                       0: Relative Bearing
DEVI.DEG                     0: Deviation
TOTG.GEE                     0: Total G
RBRef.DEG                    0: RB Reference
IntTemp.DEGF                 0: Internal Electronics Temperature
~Parameter Information Block
~A  Depth       LSPD        LTEN       MINMK         GR         CCL         ACCX        ACCY        ACCZ         RB         DEVI        TOTG       RBRef      IntTemp   
# ...
  3129.0000      9.6256   4727.9854      0.0000     16.4788    363.0000  -1746.4000   2346.6001   2198.3999    126.6576      0.0246   3659.1538   -126.6576    224.6049
  3128.9500      9.6256   4782.2627      0.0000     16.9174    374.0000  -1754.9000   2320.8000   2214.1001    127.0952      0.0246   3656.2312   -127.0952    224.5937
  3128.9000      9.6256   4783.7783      0.0000     16.2908    368.0000  -1817.6000   2383.8999   2234.1001    127.3236      0.0241   3738.6965   -127.3236    224.5761
  3128.8500      9.6256   4705.3267      0.0000     16.1028    365.0000  -1877.6000   2368.5000   2237.1001    128.4052      0.0239   3760.2913   -128.4052    224.5656
  3128.8000      9.6256   4605.0864      0.0000     15.7269    366.0000  -1939.9000   2346.6001   2242.3000    129.5800      0.0238   3781.2239   -129.5800    224.5564
  3128.7500      9.6256   4555.5244      0.0000     14.5364    367.0000  -1966.1000   2344.8000   2198.3999    129.9796      0.0239   3767.8374   -129.9796    224.5536
  3128.7000      9.6256   4514.2041      0.0000     13.8472    378.0000  -2011.7000   2279.3000   2182.7000    131.4315      0.0240   3742.5024   -131.4315    224.5550
  3128.6500      9.6073   4493.8394      0.0000     14.5364    365.0000  -2054.1001   2220.2000   2167.6001    132.7746      0.0242   3721.1699   -132.7746    224.5599
  3128.6000      9.6073   4452.5669      0.0000     14.4738    365.0000  -2074.3000   2087.0000   2139.5000    134.8251      0.0247   3638.0969   -134.8251    224.5599
  3128.5500      9.6073   4422.0415      0.0000     14.3484    369.0000  -2094.5000   2028.6000   2095.3000    135.9157      0.0251   3590.6030   -135.9157    224.5677
  3128.5000      9.6774   4476.6582      0.0000     15.1003    373.0000  -2098.3999   1981.6000   2095.8000    136.6398      0.0252   3566.8472   -136.6398    224.5796
  3128.4500      9.6774   4536.0713      0.0000     14.7870    382.0000  -2148.6001   1912.3000   2115.1001    138.3302      0.0252   3570.2971   -138.3302    224.5894
  3128.4000      9.6774   4598.0010      0.0000     14.0978    359.0000  -2166.3999   1872.6000   2136.8000    139.1604      0.0252   3572.9307   -139.1604    224.5923
  3128.3500      9.6591   4584.7183      0.0000     14.8497    369.0000  -2205.1001   1822.8000   2148.1001    140.4219      0.0252   3577.6250   -140.4219    224.5965
  3128.3000      9.6591   4569.3018      0.0000     16.2282    371.0000  -2247.2000   1805.5000   2164.3000    141.2201      0.0250   3604.7097   -141.2201    224.5965
  3128.2500      9.6591   4604.6938      0.0000     16.5414    375.0000  -2260.8000   1775.9000   2204.3999    141.8497      0.0248   3622.7637   -141.8497    224.5887
  3128.2000      9.6439   4682.0620      0.0000     18.6718    383.0000  -2295.6001   1712.8000   2210.7000    143.2725      0.0249   3618.1016   -143.2725    224.5719
  3128.1500      9.6439   4702.4761      0.0000     19.8623    367.0000  -2348.6001   1699.7000   2193.7000    144.1064      0.0248   3635.5498   -144.1064    224.5613
  3128.1000      9.6439   4703.1045      0.0000     20.3009    354.0000  -2374.3999   1687.0000   2184.2000    144.6064      0.0247   3640.6694   -144.6064    224.5585
  3128.0500      9.6439   4696.3457      0.0000     20.2382    369.0000  -2399.7000   1654.4000   2175.8999    145.4169      0.0247   3637.3259   -145.4169    224.5564
  3128.0000      9.6439   4737.9282      0.0000     21.3034    366.0000  -2474.3000   1585.5000   2157.0000    147.3488      0.0247   3645.3560   -147.3488    224.5578
  3127.9500      9.6439   4799.1738      0.0000     21.5540    367.0000  -2520.3999   1550.6000   2145.3000    148.3994      0.0246   3655.0085   -148.3994    224.5684
  3127.9000      9.6439   4834.7065      0.0000     20.4262    367.0000  -2544.0000   1553.6000   2149.3999    148.5879      0.0245   3674.9868   -148.5879    224.5789
  3127.8500      9.5890   4806.2905      0.0000     19.6116    372.0000  -2538.0000   1490.2000   2160.5000    149.5805      0.0247   3651.0137   -149.5805    224.5873
  3127.8000      9.5890   4732.5127      0.0000     18.7971    397.0000  -2558.8000   1440.9000   2171.7000    150.6155      0.0246   3652.3870   -150.6155    224.5937
  3127.7500      9.5890   4675.5869      0.0000     17.2933    365.0000  -2568.1001   1412.2000   2184.7000    151.1936      0.0246   3655.4563   -151.1936    224.5993
  3127.7000      9.5890   4654.1270      0.0000     16.3535    365.0000  -2564.8999   1405.4000   2225.2000    151.2801      0.0245   3674.9661   -151.2801    224.6007
  3127.6500      9.5890   4597.8672      0.0000     16.2908    367.0000  -2581.7000   1305.7000   2243.5000    153.1719      0.0246   3661.0544   -153.1719    224.6056
  3127.6000      9.5890   4515.5479      0.0000     15.8522    367.0000  -2600.3999   1276.9000   2235.2000    153.8471      0.0246   3659.0535   -153.8471    224.6042
  3127.5500      9.5890   4470.6035      0.0000     15.5389    375.0000  -2617.7000   1223.8000   2254.1001    154.9435      0.0246   3664.8337   -154.9435    224.6000
  3127.5000      9.6957   4455.8750      0.0000     15.0377    367.0000  -2633.3999   1194.0000   2241.8000    155.6102      0.0246   3658.7017   -155.6102    224.5958
  3127.4500      9.6957   4506.2056      0.0000     14.2231    363.0000  -2666.5000   1059.4000   2222.8000    158.3321      0.0248   3629.5166   -158.3321    224.5838
  3127.4000      9.6957   4525.4126      0.0000     13.1580    364.0000  -2705.0000    922.4000   2203.0000    161.1707      0.0249   3608.4700   -161.1707    224.5648
  3127.3500      9.6774   4512.7319      0.0000     12.9073    371.0000  -2766.3000    847.7000   2155.5000    162.9629      0.0249   3607.9346   -162.9629    224.5599
  3127.3000      9.6774   4505.3057      0.0000     12.6567    369.0000  -2823.6001    705.1000   2148.8000    165.9790      0.0249   3617.6270   -165.9790    224.5817
  3127.2500      9.6774   4531.8765      0.0000     12.8447    366.0000  -2865.7000    595.7000   2123.8999    168.2570      0.0249   3616.3582   -168.2570    224.6049
  3127.2000      9.6774   4583.9736      0.0000     12.9700    369.0000  -2879.1001    538.6000   2116.8999    169.4040      0.0249   3613.9414   -169.4040    224.6190
  3127.1500      9.6774   4623.2139      0.0000     13.7219    375.0000  -2916.6001    435.8000   2121.5000    171.5017      0.0248   3632.8005   -171.5017    224.6499
  3127.1000      9.6774   4612.8511      0.0000     14.4738    360.0000  -2922.6001    412.8000   2154.5000    171.9605      0.0246   3654.2942   -171.9605    224.6745
  3127.0500      9.6957   4598.4355      0.0000     15.2883    373.0000  -2920.6001    368.4000   2183.3999    172.8108      0.0246   3665.0864   -172.8108    224.6612
  3127.0000      9.6957   4626.9053      0.0000     16.1028    360.0000  -2921.2000    357.1000   2198.2000    173.0305      0.0245   3673.2837   -173.0305    224.6394
  3126.9500      9.6957   4675.4937      0.0000     17.2307    358.0000  -2927.3999    356.4000   2205.6001    173.0586      0.0244   3682.5757   -173.0586    224.6246
  3126.9000      9.6073   4682.4858      0.0000     17.7946    365.0000  -2924.6001    334.5000   2222.5000    173.4752      0.0244   3688.4526   -173.4752    224.6176
  3126.8500      9.6073   4632.2603      0.0000     18.2332    382.0000  -2919.2000    256.6000   2232.3000    174.9766      0.0244   3683.8479   -174.9766    224.6127
  3126.8000      9.6073   4577.5317      0.0000     18.1079    374.0000  -2929.8999    202.4000   2226.5000    176.0482      0.0244   3685.4553   -176.0482    224.6204
  3126.7500      9.5890   4574.8364      0.0000     17.6693    366.0000  -2924.1001    109.7000   2185.0000    177.8515      0.0246   3651.9338   -177.8515    224.6316
  3126.7000      9.5890   4596.4648      0.0000     16.4788    369.0000  -2916.3999    -17.9000   2185.5000    180.3517      0.0247   3644.4641    179.6483    224.6323
  3126.6500      9.5890   4591.9795      0.0000     15.4763    369.0000  -2916.3999    -46.4000   2186.8000    180.9115      0.0247   3645.4954    179.0885    224.6323
