~Version Information
VERS.                      2.0: CWLS Log ASCII Standard - VERSION 2.0
WRAP.                       NO: One line per depth step
~Well Information Block
STRT.M               3169.9500: START DEPTH
STOP.M               3076.7000: STOP DEPTH
STEP.M                 -0.0500: STEP
NULL.                -999.2500: NULL VALUE
COMP.                  Statoil: COMPANY
WELL.                15/9-F-12: WELL
FLD.                     Volve: FIELD
LOC.                          : LOCATION
SRVC.          Halliburton Logging Services: SERVICE COMPANY
DATE.          Wed Nov 26 07-57-02 2014: LOG DATE
UWI.                          : UNIQUE WELL ID
SECT.                         : SECTION
TOWN.                         : TOWNSHIP
RANG.                         : RANGE
API.                          : API#
OS.                           : OTHER SERVICES
PDAT.FT                       : PERMANENT DATUM
EEL.FT                        : ELEVATION
LMF.FT                        : LOG MEASURED FROM
DMF.FT                        : DRILLING MEASURED FROM
EKB.FT                        : KB
EDF.FT                        : DF
EGL.FT                        : GL
DATE1.                        : DATE1
RUN1.                         : RUN NUMBER
TDD1.FT                       : DEPTH DRILLER
TDL1.FT                       : DEPTH LOGGER
BLI1.FT                       : BOTTOM LOGGED INTERVAL
TLI1.FT                       : TOP LOG INTERVAL
CDD1.IN_FT                    : CASING DRILLER
CDL1.FT                       : CASING LOGGER
BS1.IN                        : BIT SIZE
DFT1.                         : TYPE FLUID IN HOLE
DFDV1.GM/C3_CP                : DENSITY/VISCOSITY
DFPL1.C3                      : PH/FLUID LOSS
MSS1.                         : SOURCE OF SAMPLE
RMT1.OHHM_DEGF                : RM@MEASURED TEMP
RMFT1.OHMM_DEGF                : RMF@MEASURED TEMP
RMCT1.OHMM_DEGF                : RMC@MEASURED TEMP
RMFS1.                        : SOURCE OF RMF/RMC
RMBT1.OHMM_DEGF                : RM@BHT
TCS1.                         : TIME CIRCULATION STOPPED
TLOB1.                        : TIME LOGGER ON BOTTOM
BHT1.DEGF                     : MAXIMUM RECORDED TEMPERATURE
LUN1.                         : EQUIPMENT NUMBER
LUL1.                         : LOCATION
ENGI1.                        : RECORDED BY
WITN1.                        : WITNESSED BY
~Curve Information Block
DEPT.M             0 000 00 00: Depth
LSPD.M/MIN                   0: Line Speed
LTEN.LB                      0: Surface Line Tension
MINMK.                       0: Minute Mark Ticks
GR.GAPI                      0: Gamma Ray
CCL.                         0: Casing Collar Locator
ACCX.                        0: X Axis Accelerometer
ACCY.                        0: Y Axis Accelerometer
ACCZ.                        0: Z Axis Accelerometer
RB.DEG                       0: Relative Bearing
DEVI.DEG                     0: Deviation
TOTG.GEE                     0: Total G
RBRef.DEG                    0: RB Reference
IntTemp.DEGF                 0: Internal Electronics Temperature
~Parameter Information Block
~A  Depth       LSPD        LTEN       MINMK         GR         CCL         ACCX        ACCY        ACCZ         RB         DEVI        TOTG       RBRef      IntTemp   
# ...
  3133.9500      9.1410   4414.1157      0.0000     23.4337    523.0000  -1967.5000   2191.3000   2131.7000    131.9197      0.0248   3635.5188   -131.9197    225.6898
  3133.9000      9.0891   4455.1143      0.0000     23.9976    547.0000  -1956.1000   2177.7000   2159.5000    131.9315      0.0247   3637.6016   -131.9315    225.6898
  3133.8500      9.0891   4424.7012      0.0000     24.9375    512.0000  -1964.2000   2173.6001   2179.7000    132.1029      0.0246   3651.5354   -132.1029    225.6877
  3133.8000      9.0891   4384.0918      0.0000     25.8773    493.0000  -1970.8000   2166.2000   2195.3999    132.2958      0.0246   3660.0896   -132.2958    225.6856
  3133.7500      9.1257   4381.8652      0.0000     26.6919    580.0000  -1987.3000   2194.2000   2167.5000    132.1673      0.0245   3669.0505   -132.1673    225.6835
  3133.7000      9.1257   4421.5737      0.0000     27.3811    533.0000  -2007.2000   2157.3000   2165.3000    132.9358      0.0246   3656.6814   -132.9358    225.6807
  3133.6500      9.1257   4433.6719      0.0000     27.1931    525.0000  -2006.2000   2148.3999   2144.3999    133.0397      0.0247   3638.5315   -133.0397    225.6800
  3133.6000      9.0891   4418.9810      0.0000     26.4412    566.0000  -2007.3000   2139.1001   2149.3000    133.1794      0.0247   3636.5496   -133.1794    225.6800
  3133.5500      9.0891   4397.5342      0.0000     24.9375    510.0000  -2024.8000   2123.3999   2146.7000    133.6384      0.0248   3635.5142   -133.6384    225.6800
  3133.5000      9.0891   4400.5801      0.0000     22.1806    536.0000  -2047.6000   2085.6001   2173.5000    134.4733      0.0247   3642.3201   -134.4733    225.6800
  3133.4500      9.1074   4427.7422      0.0000     20.1129    531.0000  -2044.9000   2054.3999   2193.3999    134.8672      0.0248   3634.9937   -134.8672    225.6800
  3133.4000      9.1074   4445.3828      0.0000     19.3610    519.0000  -2057.6001   2070.0000   2168.6001    134.8279      0.0248   3636.1304   -134.8279    225.6800
  3133.3500      9.1074   4412.9375      0.0000     19.9249    528.0000  -2115.3999   1965.2000   2232.3000    137.1080      0.0247   3649.6699   -137.1080    225.6800
  3133.3000      9.1410   4369.1411      0.0000     20.9274    549.0000  -2156.3000   1909.1000   2243.2000    138.4796      0.0247   3650.5122   -138.4796    225.6800
  3133.2500      9.1410   4360.3228      0.0000     22.4312    510.0000  -2205.2000   1875.1000   2211.0000    139.6252      0.0247   3642.4480   -139.6252    225.6800
  3133.2000      9.1410   4395.9795      0.0000     23.9350    522.0000  -2280.5000   1758.1000   2148.0000    142.3704      0.0251   3592.4226   -142.3704    225.6800
  3133.1500      9.1410   4427.8691      0.0000     24.1229    535.0000  -2365.3000   1672.9000   2110.5000    144.7295      0.0251   3584.3337   -144.7295    225.6800
  3133.1000      9.1410   4397.5571      0.0000     23.4337    542.0000  -2445.5000   1566.9000   2129.8000    147.3512      0.0250   3601.6238   -147.3512    225.6800
  3133.0500      9.1410   4360.0933      0.0000     23.0578    518.0000  -2526.1001   1451.3000   2075.3000    150.1217      0.0252   3576.9155   -150.1217    225.6800
  3133.0000      9.1410   4377.3481      0.0000     24.6868    498.0000  -2610.0000   1357.3000   2058.8000    152.5238      0.0251   3590.6853   -152.5238    225.6800
  3132.9500      9.1410   4418.1201      0.0000     26.1906    541.0000  -2646.3999   1257.3000   2077.6001    154.5877      0.0251   3591.7485   -154.5877    225.6800
  3132.9000      9.1410   4432.7734      0.0000     27.5691    535.0000  -2666.3000   1242.0000   2126.8000    155.0232      0.0248   3629.7380   -155.0232    225.6800
  3132.8500      9.1257   4415.3042      0.0000     29.5114    504.0000  -2658.5000   1211.5000   2148.1001    155.5009      0.0248   3626.2500   -155.5009    225.6807
  3132.8000      9.1257   4393.8428      0.0000     29.4488    523.0000  -2671.7000   1185.2000   2152.3000    156.0773      0.0248   3629.7485   -156.0773    225.6842
  3132.7500      9.1257   4412.5527      0.0000     27.2558    523.0000  -2665.5000   1162.7000   2176.6001    156.4330      0.0248   3632.4026   -156.4330    225.6863
  3132.7000      9.1074   4448.9341      0.0000     25.1254    541.0000  -2683.5000   1134.2000   2178.1001    157.0883      0.0247   3637.5405   -157.0883    225.6884
  3132.6500      9.1074   4463.2129      0.0000     23.6843    507.0000  -2703.2000   1065.5000   2193.6001    158.4875      0.0247   3640.6677   -158.4875    225.6913
  3132.6000      9.1074   4431.9888      0.0000     24.0603    554.0000  -2729.0000    987.5000   2192.3000    160.1071      0.0247   3637.1384   -160.1071    225.6891
  3132.5500      9.1257   4395.3530      0.0000     26.8172    535.0000  -2760.2000    919.4000   2163.7000    161.5775      0.0248   3625.6858   -161.5775    225.6870
  3132.5000      9.1257   4393.1636      0.0000     30.6392    530.0000  -2771.8999    825.7000   2158.0000    163.4121      0.0249   3608.6250   -163.4121    225.6849
  3132.4500      9.1257   4445.4512      0.0000     35.3385    498.0000  -2827.3999    725.0000   2136.0000    165.6181      0.0249   3616.9478   -165.6181    225.6821
  3132.4000      9.1074   4475.7139      0.0000     37.9701    536.0000  -2841.8999    634.2000   2128.8000    167.4200      0.0250   3606.9924   -167.4200    225.6800
  3132.3500      9.1074   4467.3408      0.0000     38.7220    551.0000  -2859.5000    557.5000   2126.6001    168.9678      0.0250   3606.9343   -168.9678    225.6800
  3132.3000      9.1074   4440.3628      0.0000     38.4087    523.0000  -2879.1001    518.8000   2113.3000    169.7852      0.0249   3608.9346   -169.7852    225.6800
  3132.2500      9.1074   4442.8760      0.0000     36.0904    520.0000  -2879.6001    453.3000   2130.8000    171.0540      0.0249   3610.8013   -171.0540    225.6800
  3132.2000      9.1074   4477.6602      0.0000     34.3360    529.0000  -2906.8999    435.4000   2146.7000    171.4815      0.0247   3639.7749   -171.4815    225.6800
  3132.1500      9.1074   4491.8037      0.0000     33.1455    528.0000  -2885.6001    415.0000   2162.5000    171.8160      0.0248   3629.7822   -171.8160    225.6800
  3132.1000      9.1257   4426.7676      0.0000     31.6418    521.0000  -2887.0000    419.0000   2213.0000    171.7421      0.0246   3661.6526   -171.7421    225.6800
  3132.0500      9.1257   4354.1094      0.0000     30.3260    511.0000  -2887.1001    378.6000   2228.0000    172.5291      0.0245   3666.4246   -172.5291    225.6800
  3132.0000      9.1257   4315.8745      0.0000     29.5741    512.0000  -2886.8000    348.5000   2253.8999    173.1165      0.0245   3679.0122   -173.1165    225.6800
  3131.9500      9.1410   4315.3169      0.0000     28.3209    534.0000  -2883.1001    269.2000   2259.3000    174.6657      0.0245   3672.7607   -174.6657    225.6793
  3131.9000      9.1410   4304.5674      0.0000     26.5039    521.0000  -2879.7000    155.2000   2288.3999    176.9151      0.0244   3681.5122   -176.9151    225.6716
  3131.8500      9.1410   4264.5625      0.0000     25.8147    513.0000  -2889.3000     20.2000   2269.7000    179.5994      0.0245   3674.2346   -179.5994    225.6652
  3131.8000      9.2507   4234.1167      0.0000     25.5640    525.0000  -2866.1001   -163.5000   2212.8000    183.2650      0.0248   3624.6028    176.7350    225.6589
  3131.7500      9.2507   4274.2549      0.0000     24.8748    522.0000  -2821.5000   -411.3000   2185.8000    188.2938      0.0251   3592.7361    171.7062    225.6505
  3131.7000      9.2507   4353.3916      0.0000     24.6242    537.0000  -2790.6001   -605.4000   2144.3999    192.2402      0.0252   3571.0515    167.7598    225.6484
  3131.6500      9.1410   4415.9673      0.0000     23.9976    521.0000  -2780.5000   -745.4000   2144.2000    195.0071      0.0251   3589.4839    164.9929    225.6547
  3131.6000      9.1410   4420.7813      0.0000     23.8096    495.0000  -2781.5000   -861.2000   2128.1001    197.2034      0.0250   3606.5520    162.7966    225.6610
