~Version Information
VERS.                      2.0: CWLS Log ASCII Standard - VERSION 2.0
WRAP.                       NO: One line per depth step
~Well Information Block
STRT.M               3779.9000: START DEPTH
STOP.M               3659.5000: STOP DEPTH
STEP.M                 -0.0500: STEP
NULL.                -999.2500: NULL VALUE
COMP.                  STATOIL: COMPANY
WELL.               15/9-F-1-C: WELL
FLD.                     VOLVE: FIELD
LOC.                          : LOCATION
SRVC.          Halliburton Logging Services: SERVICE COMPANY
DATE.          Wed Dec 03 07-18-31 2014: LOG DATE
UWI.                          : UNIQUE WELL ID
CTRY.                   NORWAY: COUNTRY
SECT.                         : SECTION
TOWN.                         : TOWNSHIP
RANG.                         : RANGE
API.                          : API#
OS.                   --NONE--: OTHER SERVICES
PDAT.FT                  M.S.L: PERMANENT DATUM
EEL.FT                   54.9M: ELEVATION
LMF.FT                   R.K.B: LOG MEASURED FROM
DMF.FT                   R.K.B: DRILLING MEASURED FROM
EKB.FT                   54.9M: KB
EDF.FT                   54.9M: DF
EGL.FT                    -91M: GL
DATE1.         03-DEC-14 @ 05:47: DATE1
RUN1.                    1 & 2: RUN NUMBER
TDD1.FT                  4094M: DEPTH DRILLER
TDL1.FT                  3782M: DEPTH LOGGER
BLI1.FT                  3772M: BOTTOM LOGGED INTERVAL
TLI1.FT                  3572M: TOP LOG INTERVAL
CDD1.IN_FT                    : CASING DRILLER
CDL1.FT                       : CASING LOGGER
BS1.IN                    8.5": BIT SIZE
DFT1.                SEA WATER: TYPE FLUID IN HOLE
DFDV1.GM/C3_CP          1.03SG: DENSITY/VISCOSITY
DFPL1.C3                      : PH/FLUID LOSS
MSS1.                         : SOURCE OF SAMPLE
RMT1.OHHM_DEGF                : RM@MEASURED TEMP
RMFT1.OHMM_DEGF                : RMF@MEASURED TEMP
RMCT1.OHMM_DEGF                : RMC@MEASURED TEMP
RMFS1.                        : SOURCE OF RMF/RMC
RMBT1.OHMM_DEGF                : RM@BHT
TCS1.                         : TIME CIRCULATION STOPPED
TLOB1.                36 HOURS: TIME LOGGER ON BOTTOM
BHT1.DEGF                 FULL: MAXIMUM RECORDED TEMPERATURE
LUN1.                 12030699: EQUIPMENT NUMBER
LUL1.                   NORWAY: LOCATION
ENGI1.              C.JAMIESON: RECORDED BY
WITN1.                A.ALBAWI: WITNESSED BY
~Curve Information Block
DEPT.M             0 000 00 00: Depth
LSPD.M/MIN                   0: Line Speed
LTEN.LB                      0: Surface Line Tension
MINMK.                       0: Minute Mark Ticks
HVOLTA.V                     0: Head Voltage Apparent
CCL.                         0: Casing Collar Locator
~Parameter Information Block
SRFTEMP.DEGC           12.0000: Surface Temperature
MudWgt.LB/GAL           8.5600: Mud Weight
CASETHCK.IN             0.4530: Casing Thickness
BITSIZE.IN             12.2500: Borehole I.D.
~Other Information
TOOL STRING DEPLOYED BY ALTUS INTERVENTION WIRELINE UNIT ON 7/16" CABLE
CABLE HEAD BUILT BY ALTUS
LOG CORRELATED TO SHLUMBERGER 4.5" HSD OX POWER JET PULS DATED 09.APRIL.2014
CORRELATION LOG IS SHALLOWER BY 1.4M, DEPTH SHIFTED 1.4M DOWN AS PER
CLIENTS REQUEST.
4.655" HSC GUN 10 AND 350 DEGREE PHASING, 39 GR MILLENIUM, 4 SHOTS PER FOOT.
ATTEMPT WAS MADE TO RUN 4 GUNS IN ONE STRING BUT AT 3600M PICK UP WEIGHT 
WAS TOO HIGH TO CONTINUE.  CLIENT D4ECIDED TO SPLIT UP ONTO TWO RUNS.
RUN #1 CCL TO TOP SHOT 3.25 M, CCL STOP DEPT: 3729.75 M
PERFORATION INTERVAL 3733M - 3742.6M
RUN #2 CCL TO TOP SHOT 3.25 M, CCL STOP DEPT: 3711.75 M
PERFORATION INTERVAL 3715M - 3724.6M

~A  Depth       LSPD        LTEN       MINMK       HVOLTA       CCL     
# ...
  3757.5000      9.7841   6417.9312      0.0000      3.4454      0.0241
  3757.4500      9.7688   6409.8677      0.0000      3.4554      0.0711
  3757.4000      9.7688   6409.8677      0.0000      3.4554      0.0052
  3757.3500      9.7688   6417.0581      0.0000      3.4859     -0.1346
  3757.3000      9.8024   6448.9048      0.0000      3.4554     -0.0122
  3757.2500      9.8024   6448.9048      0.0000      3.4554     -0.0076
  3757.2000      9.8024   6486.9282      0.0000      3.4958     -0.0046
  3757.1500      9.8024   6516.5161      0.0000      3.4859     -0.0104
  3757.1000      9.8024   6516.5161      0.0000      3.4859     -0.0119
  3757.0500      9.8024   6543.8062      0.0000      3.4859     -0.0134
  3757.0000      9.7688   6570.3926      0.0000      3.4859     -0.0143
  3756.9500      9.7688   6570.3926      0.0000      3.4859     -0.0098
  3756.9000      9.7688   6596.5200      0.0000      3.4859     -0.0061
  3756.8500      9.7506   6628.7383      0.0000      3.4958     -0.0128
  3756.8000      9.7506   6628.7383      0.0000      3.4958     -0.0143
  3756.7500      9.7506   6661.3086      0.0000      3.4859     -0.0073
  3756.7000      9.7506   6661.3086      0.0000      3.4859     -0.0027
  3756.6500      9.7140   6688.7739      0.0000      3.5263      0.0098
  3756.6000      9.7140   6727.9238      0.0000      3.4958     -0.0089
  3756.5500      9.7140   6727.9238      0.0000      3.4958     -0.0052
  3756.5000      9.7323   6779.6187      0.0000      3.4554     -0.0055
  3756.4500      9.7323   6811.9194      0.0000      3.4653     -0.0012
  3756.4000      9.7323   6811.9194      0.0000      3.4653     -0.0183
  3756.3500      9.7323   6812.3843      0.0000      3.4859     -0.0174
  3756.3000      9.7323   6795.6626      0.0000      3.4859      0.0455
  3756.2500      9.7323   6795.6626      0.0000      3.4859     -0.0827
  3756.2000      9.7323   6763.5405      0.0000      3.4554      0.0928
  3756.1500      9.7506   6712.7793      0.0000      3.4958     -0.2838
  3756.1000      9.7506   6712.7793      0.0000      3.4958     -0.0150
  3756.0500      9.7506   6657.8408      0.0000      3.4248     -0.0241
  3756.0000      9.7506   6612.3721      0.0000      3.4859     -0.3000
  3755.9500      9.7506   6612.3721      0.0000      3.4859     -0.2170
  3755.9000      9.7506   6577.4243      0.0000      3.4653      0.0775
  3755.8500      9.7688   6551.7666      0.0000      3.4653      0.0348
  3755.8000      9.7688   6551.7666      0.0000      3.4653     -0.0125
  3755.7500      9.7688   6530.2666      0.0000      3.5263      0.0339
  3755.7000      9.7688   6515.3955      0.0000      3.4760      0.1263
  3755.6500      9.7688   6515.3955      0.0000      3.4760     -0.0125
  3755.6000      9.7688   6527.1011      0.0000      3.4958     -0.0146
  3755.5500      9.7688   6566.6582      0.0000      3.4958     -0.0113
  3755.5000      9.7506   6566.6582      0.0000      3.4958      0.0110
  3755.4500      9.7506   6605.8560      0.0000      3.5263     -0.0015
  3755.4000      9.7506   6634.4175      0.0000      3.4958     -0.0165
  3755.3500      9.7688   6634.4175      0.0000      3.4958     -0.0189
  3755.3000      9.7688   6663.2305      0.0000      3.4653     -0.0211
  3755.2500      9.7688   6684.9263      0.0000      3.4958     -0.0168
  3755.2000      9.7506   6684.9263      0.0000      3.4958      0.0040
  3755.1500      9.7506   6690.1626      0.0000      3.5263     -0.0342
  3755.1000      9.7506   6690.1626      0.0000      3.5263      0.0687
  3755.0500      9.7323   6689.2207      0.0000      3.4859     -0.1053
  3755.0000      9.7323   6681.4727      0.0000      3.5362      0.0311
  3754.9500      9.7323   6681.4727      0.0000      3.5362     -0.0220
  3754.9000      9.7323   6656.9619      0.0000      3.5164      0.0696
  3754.8500      9.7841   6621.9146      0.0000      3.4859      0.5725
  3754.8000      9.7841   6621.9146      0.0000      3.4859      0.6967
  3754.7500      9.7841   6578.4873      0.0000      3.4958     -0.1053
  3754.7000      9.7841   6520.8188      0.0000      3.4958     -0.2133
  3754.6500      9.7841   6520.8188      0.0000      3.4958      0.9277
  3754.6000      9.7841   6466.2402      1.0000      3.4958     -0.0702
  3754.5500      9.7841   6439.7354      0.0000      3.5164      0.0247
  3754.5000      9.7841   6439.7354      0.0000      3.5164     -0.0043
  3754.4500      9.7841   6441.7388      0.0000      3.4760     -0.0037
  3754.4000      9.7841   6468.0698      0.0000      3.4149     -0.1096
  3754.3500      9.8024   6468.0698      0.0000      3.4149     -0.0128
  3754.3000      9.8024   6517.2661      0.0000      3.4859     -0.0131
  3754.2500      9.8024   6567.4238      0.0000      3.4454     -0.0040
  3754.2000      9.7688   6567.4238      0.0000      3.4454     -0.0058
  3754.1500      9.7688   6601.9502      0.0000      3.4859     -0.0156
  3754.1000      9.7688   6635.0420      0.0000      3.4653     -0.0037
  3754.0500      9.7688   6635.0420      0.0000      3.4653     -0.0146
  3754.0000      9.7688   6674.8398      0.0000      3.4554     -0.0156
  3753.9500      9.7688   6709.4058      0.0000      3.4859     -0.0079
  3753.9000      9.7323   6709.4058      0.0000      3.4859     -0.0131
  3753.8500      9.7323   6736.8657      0.0000      3.4958     -0.0003
  3753.8000      9.7323   6761.3115      0.0000      3.4859     -0.0201
  3753.7500      9.7140   6761.3115      0.0000      3.4859     -0.0351
  3753.7000      9.7140   6776.7617      0.0000      3.4958     -0.0482
  3753.6500      9.7140   6776.7617      0.0000      3.4958      0.1678
  3753.6000      9.7140   6783.5850      0.0000      3.4859     -1.0413
  3753.5500      9.7323   6782.9727      0.0000      3.4859      0.6439
  3753.5000      9.7323   6782.9727      0.0000      3.4859      0.6989
  3753.4500      9.7323   6758.7637      0.0000      3.4958      0.5240
  3753.4000      9.7323   6705.2637      0.0000      3.4958      0.5475
  3753.3500      9.7323   6705.2637      0.0000      3.4958      0.2197
  3753.3000      9.7323   6637.6743      0.0000      3.4859      0.4749
  3753.2500      9.7323   6559.0845      0.0000      3.4958      0.1828
  3753.2000      9.7323   6559.0845      0.0000      3.4958      1.2720
  3753.1500      9.7323   6470.9468      0.0000      3.4653      0.4221
  3753.1000      9.7841   6399.4878      0.0000      3.4958      0.7806
  3753.0500      9.7841   6399.4878      0.0000      3.4958      0.3781
  3753.0000      9.7841   6363.9648      0.0000      3.5065     -0.0662
  3752.9500      9.7841   6356.3394      0.0000      3.4859     -0.0519
  3752.9000      9.7841   6356.3394      0.0000      3.4859      0.0543
  3752.8500      9.7841   6371.9160      0.0000      3.4958     -0.0076
  3752.8000      9.7841   6406.6787      0.0000      3.4653     -0.0168
  3752.7500      9.7841   6406.6787      0.0000      3.4653     -0.0143
  3752.7000      9.7841   6438.3887      0.0000      3.4958     -0.0089
  3752.6500      9.7841   6460.7183      0.0000      3.4554     -0.0134
  3752.6000      9.7688   6460.7183      0.0000      3.4554     -0.0085
  3752.5500      9.7688   6489.6221      0.0000      3.4554     -0.0101
  3752.5000      9.7688   6521.6885      0.0000      3.4859     -0.0159
  3752.4500      9.7688   6521.6885      0.0000      3.4859     -0.0110
  3752.4000      9.7506   6546.8682      0.0000      3.4958     -0.0131
  3752.3500      9.7506   6576.4263      0.0000      3.4958     -0.0128
  3752.3000      9.7506   6576.4263      0.0000      3.4958     -0.0266
  3752.2500      9.7506   6615.3564      0.0000      3.4958     -0.0092
  3752.2000      9.7506   6651.6738      0.0000      3.4958     -0.0317
  3752.1500      9.7506   6651.6738      0.0000      3.4958      0.0073
  3752.1000      9.7688   6681.7759      0.0000      3.4554     -0.0290
  3752.0500      9.7688   6681.7759      0.0000      3.4554      0.0003
  3752.0000      9.7688   6703.3022      0.0000      3.4554     -0.0354
  3751.9500      9.7506   6707.1382      0.0000      3.4958     -0.0064
