~Version Information
VERS.             2.0 : CWLS log ASCII standard - Version 2.0
WRAP.             NO  : One line per depth step
#
~Well Information Block
#MNEM.UNIT                   Data Type:Information
#__________________________________________________________
 STRT .M           2450.13480  :START INDEX                  
  STOP.M           3113.3796 : STOP INDEX                    
 STEP .M              0.00000  :STEP                         
  NULL.              -999.25 : NULL VALUE                    
  COMP.              Statoil : COMPANY                       
  WELL.            15_9_F-12 : WELL                          
   FLD.                Volve : FIELD                         
   LOC.           Maersk Inspirer : LOCATION                      
  PROV.                      : PROVINCE                      
  CNTY.                      : COUNTY                        
  STAT.                      : STATE                         
  CTRY.                      : COUNTRY                       
  SRVC.              SLB D&M : SERVICE COMPANY               
  DATE.                      : LOG DATE                      
   UWI.                      : UNIQUE WELL ID                
   API.                      : API NUMBER                    
#
~Curve Information Block
#MNEM.UNIT                     : Curve Description
#---------                     --------------------
DEPT        .M                 : Bit Depth 2hz                                                   
TVDE        .M                 : SVY TVD_EXTR 2hz                                                
ARC_GR_RT   .GAPI              : ARC Gamma Ray, Real-Time                                        
ROP5        .M/HR              : 5ft ROP 2hz                                                     
SWOB        .KKGF              : Surface Weight on Bit 2hz                                       
RPM         .RPM               : SRF SRPM 2hz                                                    
TFLO        .LPM               : HSPM Total Pump Flow 2hz                                        
TRPM_RT     .RPM               : MWD TUR_RPM 2hz                                                 
SPPA        .BAR               : SRF PUMPRS 2hz                                                  
TQA         .KMN               : SRF STOR 2hz                                                    
SHKRSK_RT   .----              : MWD SHKRSK 2hz                                                  
SHK2_RT     .----              : ARC Shock Level, Real-Time                                      
SHK_ADN_RT  .----              : ADN Shock Level, Real-Time                                      
PDSHKRSK    .----              : PowerDrive Shock Risk 2hz                                       
ECD_ARC     .G/C3              : Equivalent Circulating Density                                  
ATMP        .DEGC              : ARC Annular Temperature                                         
APRS_ARC    .BAR               : ARC Annular Pressure                                            
#
~Parameter Information Block
#MNEM.UNIT                       Value:Description
#__________________________________________________________
#
~Other Information Block

#
~A    DEPT       TVDE  ARC_GR_RT       ROP5       SWOB        RPM       TFLO    TRPM_RT       SPPA        TQA  SHKRSK_RT    SHK2_RT SHK_ADN_RT   PDSHKRSK    ECD_ARC       ATMP   APRS_ARC
# ...
 2856.4331  2711.9943    25.2467     6.6486     9.3894   147.4277  3532.2215  2617.1875   222.4839    30.3466    -999.25     0.0000     0.0000     0.0000     1.3839    82.0000   367.5596
 2856.5857  2712.1066    22.6591     6.8020     9.8990   147.4029  3519.8963  2617.1875   222.7229    31.1682     0.0000     0.0000    -999.25     0.0000     1.3844    83.0000   367.6975
 2856.7380  2712.2113    20.2114     6.7678     9.5593   147.1488  3532.6293  2617.1875   222.4092    30.8019     0.0000     0.0000     0.0000     0.0000     1.3843    83.0000   367.6975
 2856.8904  2712.3161    25.2467     6.9831     9.4597   148.5000  3522.9100  2617.1875   222.6281    31.7531     0.0000     0.0000    -999.25    -999.25     1.3838    83.0000   367.5596
 2857.0427  2712.4212    23.9354     6.9492     9.6034   145.8334  3534.4758  2617.1875   222.5914    32.0922     0.0000     0.0000     0.0000     0.0000     1.3837    83.0000   367.5596
 2857.1953  2712.5331    22.6591     7.0213     9.6401   146.2969  3531.0652    -999.25   222.6109    28.3194    -999.25    -999.25     0.0000    -999.25     1.3842    84.0000   367.6975
 2857.3477  2712.6379    19.0399     7.0013    10.3062   148.1377  3536.0067  2617.1875   222.5650    30.7644    -999.25     0.0000    -999.25     1.0000     1.3836    84.0000   367.5596
 2857.5000  2712.7427    19.0399     6.9583     9.2989   148.0317  3527.8821  2617.1875   222.6243    30.1556    -999.25    -999.25     0.0000     1.0000     1.3841    84.0000   367.6975
 2857.6523  2712.8474    20.2114     6.7733    10.2051   145.9126  3523.2122  2617.1875   222.6680    30.4029     0.0000     0.0000     0.0000     0.0000     1.3845    84.0000   367.8354
 2857.8047  2712.9525    20.2114     6.5815    10.0061   147.5957  3526.6019  2617.1875   222.5478    30.6442     0.0000     0.0000    -999.25     0.0000     1.3848    84.0000   367.9044
 2857.9573  2713.0644    26.5930     6.4937    10.3543   147.3626  3535.2667  2617.1875   222.5328    30.3453     0.0000     0.0000     0.0000     0.0000     1.3837    85.0000   367.6286
 2858.1096  2713.1695    23.9354     6.3820     9.4901   144.0476  3531.8378  2617.1875   222.6029    29.3215    -999.25     0.0000     0.0000    -999.25     1.3839    85.0000   367.6975
 2858.2620  2713.2743    23.9354     6.4728     9.3961   147.0833  3534.3002    -999.25   222.6558    31.9623    -999.25    -999.25    -999.25     0.0000     1.3849    85.0000   367.9733
 2858.4143  2713.3790    25.2467     6.4618     9.4629   144.5369  3531.0823  2617.1875   222.4652    31.0323     0.0000     0.0000     0.0000     0.0000     1.3846    85.0000   367.9044
 2858.5669  2713.4910    25.2467     6.5381     9.2491   145.5000  3521.1107  2617.1875   222.6101    31.6011     0.0000     0.0000     0.0000    -999.25     1.3840    85.0000   367.7665
 2858.7192  2713.5957    19.0399     6.5562     9.8376   147.4535  3533.2028  2617.1875   222.5607    31.3589     0.0000     0.0000    -999.25     1.0000     1.3847    85.0000   367.9733
 2858.8716  2713.7008    21.4178     6.6093     9.3681   145.7516  3522.7513  2617.1875   222.6626    29.9545     0.0000     0.0000     0.0000     1.0000     1.3847    86.0000   367.9733
 2859.0239  2713.8059    25.2467     6.7277     9.2966   144.6125  3534.7923  2617.1875   222.4141    31.8814     0.0000     0.0000    -999.25     0.0000     1.3857    86.0000   368.2491
 2859.1765  2713.9175    26.5930     6.8360     9.1714   145.9108  3533.1905  2617.1875   222.5195    31.2232     0.0000     0.0000     0.0000     0.0000     1.3856    86.0000   368.2491
 2859.3289  2714.0226    15.7355     6.8857     9.6271   144.3860  3532.5831  2617.1875   222.4762    30.6730     0.0000     0.0000     0.0000     1.0000     1.3858    86.0000   368.3181
 2859.4812  2714.1274    25.2467     6.8729     9.8502   147.3225  3536.1864  2617.1875   222.4461    32.7135     0.0000     0.0000     0.0000     1.0000     1.3858    86.0000   368.3181
 2859.6335  2714.2321    23.9354     6.8518     9.8462   146.4798  3527.3451    -999.25   222.4780    32.1292    -999.25     0.0000    -999.25     0.0000     1.3854    86.0000   368.2491
 2859.7859  2714.3440    21.4178     6.8083     9.0454   147.2468  3529.5125  2617.1875   222.4734    31.2305     0.0000     0.0000     0.0000     0.0000     1.3851    86.0000   368.1802
 2859.9385  2714.4488    19.0399     6.7824     9.0967   145.5355  3523.6082  2617.1875   222.5485    30.1152     0.0000     0.0000     0.0000     0.0000     1.3848    86.0000   368.1112
 2860.0908  2714.1544    23.9354     6.5665     9.5802   148.1791  3535.7237  2617.1875   222.6950    31.0025     0.0000    -999.25    -999.25     0.0000     1.3853    86.0000   368.2491
 2860.2432  2714.2577    19.0399     6.6079    10.3463   148.5467  3544.7618    -999.25   223.0257    32.6285     0.0000     0.0000     0.0000     0.0000     1.3860    86.0000   368.4560
 2860.3955  2714.3679    20.2114     6.3470     9.9062   147.2117  3544.7618  2617.1875   222.8609    29.4224     0.0000     0.0000     0.0000     1.0000     1.3860    86.0000   368.4560
 2860.5481  2714.4711    20.2114     6.3308     9.7744   148.9086  3544.7618  2617.1875   219.0404    30.4941     0.0000     0.0000    -999.25     1.0000     1.3859    86.0000   368.4560
 2860.7004  2714.5741    20.2114     6.2584     9.9057   148.9661  3125.1987  2500.0000   190.5098    29.4617    -999.25     0.0000    -999.25     0.0000     1.3861    86.0000   368.5249
 2860.8528  2714.6777    17.9035     6.2335     9.7039   146.6927  3263.3103    -999.25   197.3648    30.7423    -999.25     0.0000    -999.25    -999.25     1.3863    87.0000   368.5939
 2861.0051  2714.7876    20.2114     6.2916    10.6472   146.8403  3166.4272    -999.25   188.3452    34.1140     0.0000    -999.25    -999.25    -999.25     1.3865    87.0000   368.6628
 2861.1577  2714.8908    25.2467     6.3535     9.9723   145.8333  3220.6774  2304.6875   193.3232    32.6849     0.0000    -999.25     0.0000    -999.25     1.3852    87.0000   368.3181
 2861.3101  2714.9941    22.6591     6.2236     9.6779   145.8001  3275.7564  2500.0000   197.8405    28.8624    -999.25     0.0000     0.0000     0.0000     1.3859    87.0000   368.5249
 2861.4624  2715.0974    22.6591     6.1062    10.0866   146.3545  3415.7011  2617.1875   215.6398    29.6376     0.0000     0.0000    -999.25     0.0000     1.3864    87.0000   368.6628
 2861.6147  2715.2007    25.2467     6.1777    10.6184   146.6278  3383.4015  2617.1875   222.1111    31.3121     0.0000     0.0000     0.0000     0.0000     1.3866    87.0000   368.7318
 2861.7671  2715.3105    19.0399     5.9610    10.2319   145.8792  3413.3789  2617.1875   222.1573    31.0806     0.0000     0.0000    -999.25     0.0000     1.3855    87.0000   368.4560
 2861.9197  2715.4138    21.4178     6.1284    10.3258   145.9473  3429.4537  2617.1875   222.0970    30.3936     0.0000     0.0000     0.0000     0.0000     1.3852    87.0000   368.3870
 2862.0720  2715.5171    22.6591     6.0490    10.4805   146.8351  3498.8026  2617.1875   222.0955    31.0344     0.0000     0.0000     0.0000     0.0000     1.3857    87.0000   368.5249
 2862.2244  2715.6204    23.9354     6.0815    11.0834   147.1488  3444.5375  2617.1875   221.9527    30.3681     0.0000     0.0000    -999.25     0.0000     1.3856    87.0000   368.5249
 2862.3767  2715.7302    21.4178     6.0426     9.9478   147.0947  3492.2899  2617.1875   222.0598    31.3847     0.0000     0.0000     0.0000     0.0000     1.3858    87.0000   368.5939
 2862.5293  2715.8338    22.6591     6.0701    10.8192   146.8312  3472.7597  2617.1875   222.1436    31.8703     0.0000     0.0000    -999.25     0.0000     1.3868    87.0000   368.8697
 2862.6816  2715.9368    15.7355     5.9307    10.0720   146.6985  3463.4909  2617.1875   222.1083    29.0098     0.0000     0.0000     0.0000     0.0000     1.3870    87.0000   368.9386
 2862.8340  2716.0401    19.0399     5.8268    10.0911   147.2332  3446.4062  2617.1875   221.8246    31.0650     0.0000     0.0000     0.0000     1.0000     1.3867    87.0000   368.8697
