~Version Information
VERS.                      2.0: CWLS Log ASCII Standard - VERSION 2.0
WRAP.                       NO: One line per depth step
~Well Information Block
STRT.M               3785.6000: START DEPTH
STOP.M               3572.2000: STOP DEPTH
STEP.M                 -0.0500: STEP
NULL.                -999.2500: NULL VALUE
COMP.                  STATOIL: COMPANY
WELL.               15/9-F-1-C: WELL
FLD.                     VOLVE: FIELD
LOC.                          : LOCATION
SRVC.          Halliburton Logging Services: SERVICE COMPANY
DATE.          Wed Dec 03 05-47-41 2014: LOG DATE
UWI.                          : UNIQUE WELL ID
CTRY.                   NORWAY: COUNTRY
SECT.                         : SECTION
TOWN.                         : TOWNSHIP
RANG.                         : RANGE
API.                          : API#
OS.                   --NONE--: OTHER SERVICES
PDAT.FT                  M.S.L: PERMANENT DATUM
EEL.FT                   54.9M: ELEVATION
LMF.FT                   R.K.B: LOG MEASURED FROM
DMF.FT                   R.K.B: DRILLING MEASURED FROM
EKB.FT                   54.9M: KB
EDF.FT                   54.9M: DF
EGL.FT                    -91M: GL
DATE1.         03-DEC-14 @ 05:47: DATE1
RUN1.                    1 & 2: RUN NUMBER
TDD1.FT                  4094M: DEPTH DRILLER
TDL1.FT                  3782M: DEPTH LOGGER
BLI1.FT                  3772M: BOTTOM LOGGED INTERVAL
TLI1.FT                  3572M: TOP LOG INTERVAL
CDD1.IN_FT                    : CASING DRILLER
CDL1.FT                       : CASING LOGGER
BS1.IN                    8.5": BIT SIZE
DFT1.                SEA WATER: TYPE FLUID IN HOLE
DFDV1.GM/C3_CP          1.03SG: DENSITY/VISCOSITY
DFPL1.C3                      : PH/FLUID LOSS
MSS1.                         : SOURCE OF SAMPLE
RMT1.OHHM_DEGF                : RM@MEASURED TEMP
RMFT1.OHMM_DEGF                : RMF@MEASURED TEMP
RMCT1.OHMM_DEGF                : RMC@MEASURED TEMP
RMFS1.                        : SOURCE OF RMF/RMC
RMBT1.OHMM_DEGF                : RM@BHT
TCS1.                         : TIME CIRCULATION STOPPED
TLOB1.                36 HOURS: TIME LOGGER ON BOTTOM
BHT1.DEGF                 FULL: MAXIMUM RECORDED TEMPERATURE
LUN1.                 12030699: EQUIPMENT NUMBER
LUL1.                   NORWAY: LOCATION
ENGI1.              C.JAMIESON: RECORDED BY
WITN1.                A.ALBAWI: WITNESSED BY
~Curve Information Block
DEPT.M             0 000 00 00: Depth
LSPD.M/MIN                   0: Line Speed
LTEN.LB                      0: Surface Line Tension
MINMK.                       0: Minute Mark Ticks
HVOLTA.V                     0: Head Voltage Apparent
CCL.                         0: Casing Collar Locator
~Parameter Information Block
SRFTEMP.DEGC           12.0000: Surface Temperature
MudWgt.LB/GAL           8.5600: Mud Weight
CASETHCK.IN             0.4530: Casing Thickness
BITSIZE.IN             12.2500: Borehole I.D.
~Other Information
TOOL STRING DEPLOYED BY ALTUS INTERVENTION WIRELINE UNIT ON 7/16" CABLE
CABLE HEAD BUILT BY ALTUS
LOG CORRELATED TO SHLUMBERGER 4.5" HSD OX POWER JET PULS DATED 09.APRIL.2014
CORRELATION LOG IS SHALLOWER BY 1.4M, DEPTH SHIFTED 1.4M DOWN AS PER
CLIENTS REQUEST.
4.655" HSC GUN 10 AND 350 DEGREE PHASING, 39 GR MILLENIUM, 4 SHOTS PER FOOT.
ATTEMPT WAS MADE TO RUN 4 GUNS IN ONE STRING BUT AT 3600M PICK UP WEIGHT 
WAS TOO HIGH TO CONTINUE.  CLIENT D4ECIDED TO SPLIT UP ONTO TWO RUNS.
RUN #1 CCL TO TOP SHOT 3.25 M, CCL STOP DEPT: 3729.75 M
PERFORATION INTERVAL 3733M - 3742.6M
RUN #2 CCL TO TOP SHOT 3.25 M, CCL STOP DEPT: 3711.75 M
PERFORATION INTERVAL 3715M - 3724.6M

~A  Depth       LSPD        LTEN       MINMK       HVOLTA       CCL     
# ...
  3774.4000      9.2842   6765.4160      0.0000      3.4554     -0.1215
  3774.3500      9.2842   6765.4678      0.0000      3.4958      0.0110
  3774.3000      9.2690   6767.5854      0.0000      3.4851     -0.0311
  3774.2500      9.2690   6767.5854      0.0000      3.4851     -0.0070
  3774.2000      9.2690   6756.1470      0.0000      3.5156      0.0009
  3774.1500      9.2690   6756.1470      0.0000      3.5156      0.0385
  3774.1000      9.3208   6751.7148      0.0000      3.5156      0.0308
  3774.0500      9.3208   6769.3862      0.0000      3.4958     -0.0266
  3774.0000      9.3208   6769.3862      0.0000      3.4958     -0.0470
  3773.9500      9.3574   6799.9663      0.0000      3.4958     -0.0046
  3773.9000      9.3574   6837.4321      0.0000      3.5255     -0.0027
  3773.8500      9.3574   6837.4321      0.0000      3.5255     -0.0073
  3773.8000      9.3391   6874.4614      0.0000      3.5561     -0.0092
  3773.7500      9.3391   6898.3306      0.0000      3.4752     -0.0015
  3773.7000      9.3391   6898.3306      0.0000      3.4752     -0.0153
  3773.6500      9.3391   6918.5796      0.0000      3.4554     -0.0107
  3773.6000      9.3391   6951.8628      0.0000      3.4859     -0.0070
  3773.5500      9.3391   6951.8628      0.0000      3.4859     -0.0128
  3773.5000      9.2690   6988.8408      0.0000      3.5057     -0.0494
  3773.4500      9.2690   7023.7617      0.0000      3.5156     -0.0012
  3773.4000      9.2690   7023.7617      0.0000      3.5156     -0.0204
  3773.3500      9.2690   7067.8779      0.0000      3.5156     -0.0104
  3773.3000      9.2690   7112.9058      0.0000      3.5164     -0.0043
  3773.2500      9.2690   7112.9058      0.0000      3.5164     -0.0174
  3773.2000      9.2690   7144.2847      0.0000      3.4760     -0.0168
  3773.1500      9.2690   7170.2256      0.0000      3.5156     -0.0046
  3773.1000      9.2690   7170.2256      0.0000      3.5156     -0.0037
  3773.0500      9.2324   7190.9468      0.0000      3.4950     -0.0397
  3773.0000      9.2324   7186.6670      0.0000      3.5156      0.0009
  3772.9500      9.2324   7186.6670      0.0000      3.5156      0.0949
  3772.9000      9.2324   7158.5132      0.0000      3.4958     -0.0778
  3772.8500      9.2690   7124.1694      0.0000      3.4859      0.0638
  3772.8000      9.2690   7124.1694      0.0000      3.4859     -0.2017
  3772.7500      9.2690   7083.0225      0.0000      3.5156     -0.0754
  3772.7000      9.2507   7083.0225      0.0000      3.5156     -0.3317
  3772.6500      9.2507   7035.9146      0.0000      3.5461      0.0031
  3772.6000      9.2507   6994.4248      0.0000      3.5561      0.0711
  3772.5500      9.2690   6994.4248      0.0000      3.5561     -0.0836
  3772.5000      9.2690   6955.0176      0.0000      3.4752     -0.2316
  3772.4500      9.2690   6916.0664      0.0000      3.4958     -0.0232
  3772.4000      9.3208   6916.0664      0.0000      3.4958      0.0623
  3772.3500      9.3208   6890.9829      0.0000      3.4752     -0.0415
  3772.3000      9.3208   6875.2896      0.0000      3.5156     -0.0656
  3772.2500      9.2842   6875.2896      0.0000      3.5156     -0.0897
  3772.2000      9.2842   6853.1650      0.0000      3.5156     -0.0113
  3772.1500      9.2842   6834.5576      0.0000      3.5362      0.0076
  3772.1000      9.3208   6834.5576      0.0000      3.5362     -0.0433
  3772.0500      9.3208   6833.4907      0.0000      3.5362      0.0119
  3772.0000      9.3208   6840.8452      0.0000      3.5057      0.0296
  3771.9500      9.3025   6840.8452      0.0000      3.5057     -0.0101
  3771.9000      9.3025   6852.2915      0.0000      3.5156     -0.0323
  3771.8500      9.3025   6870.7280      0.0000      3.5362      0.0293
  3771.8000      9.2842   6870.7280      0.0000      3.5362      0.0107
  3771.7500      9.2842   6886.1758      0.0000      3.4859     -0.0171
  3771.7000      9.2842   6899.5049      0.0000      3.5164     -0.0534
  3771.6500      9.2842   6899.5049      0.0000      3.5164     -0.0330
  3771.6000      9.2842   6924.0439      0.0000      3.5156      0.0323
  3771.5500      9.2842   6949.7339      0.0000      3.5156     -0.0482
  3771.5000      9.2690   6949.7339      0.0000      3.5156     -0.0043
  3771.4500      9.2690   6959.5386      0.0000      3.4851     -0.0156
  3771.4000      9.2690   6961.2998      0.0000      3.4958      0.0302
  3771.3500      9.2842   6961.2998      0.0000      3.4958     -0.0208
  3771.3000      9.2842   6959.1069      0.0000      3.5164      0.0803
  3771.2500      9.2842   6939.8291      0.0000      3.4851      0.0079
  3771.2000      9.2842   6939.8291      0.0000      3.4851     -0.0137
  3771.1500      9.2842   6907.5317      0.0000      3.4950     -0.0565
  3771.1000      9.2842   6907.5317      0.0000      3.4950     -0.0024
  3771.0500      9.2842   6875.6089      0.0000      3.5461      0.0040
  3771.0000      9.3025   6844.4341      0.0000      3.5263      0.0458
  3770.9500      9.3025   6844.4341      0.0000      3.5263      0.0601
  3770.9000      9.3025   6822.2349      0.0000      3.5164     -0.0107
  3770.8500      9.3391   6820.0449      0.0000      3.4851      0.0320
  3770.8000      9.3391   6820.0449      0.0000      3.4851     -0.0616
  3770.7500      9.3391   6827.4199      0.0000      3.5461     -0.0012
  3770.7000      9.3025   6837.7427      0.0000      3.4851     -0.0305
  3770.6500      9.3025   6837.7427      0.0000      3.4851      0.0204
  3770.6000      9.3025   6863.0938      0.0000      3.4958     -0.0250
  3770.5500      9.3025   6898.7529      0.0000      3.5263     -0.0195
  3770.5000      9.3025   6898.7529      0.0000      3.5263     -0.0143
  3770.4500      9.3025   6926.9385      0.0000      3.5156     -0.0012
  3770.4000      9.3025   6952.2803      0.0000      3.5561     -0.0079
  3770.3500      9.3025   6952.2803      0.0000      3.5561     -0.0317
  3770.3000      9.3025   6979.1709      0.0000      3.5759     -0.0012
  3770.2500      9.2324   6993.7632      0.0000      3.4752      0.0101
  3770.2000      9.2324   6993.7632      0.0000      3.4752     -0.0180
  3770.1500      9.2324   6997.5605      0.0000      3.4859     -0.0153
  3770.1000      9.2690   7001.1216      0.0000      3.4554     -0.0058
  3770.0500      9.2690   7001.1216      0.0000      3.4554     -0.0317
  3770.0000      9.2690   6994.8359      0.0000      3.4950      0.0696
  3769.9500      9.2690   6972.8506      0.0000      3.5156      0.0705
  3769.9000      9.2690   6972.8506      0.0000      3.5156     -0.0769
  3769.8500      9.2690   6945.5547      0.0000      3.4752     -0.2820
  3769.8000      9.2690   6911.0591      0.0000      3.5362      0.0146
  3769.7500      9.2690   6911.0591      0.0000      3.5362     -0.0128
  3769.7000      9.2690   6867.1152      0.0000      3.4454     -0.0610
  3769.6500      9.2690   6830.7290      0.0000      3.5561     -0.2817
  3769.6000      9.3574   6830.7290      0.0000      3.5561     -0.1855
  3769.5500      9.3574   6803.8599      0.0000      3.5561     -0.0403
  3769.5000      9.3574   6803.8599      0.0000      3.5561     -0.2231
  3769.4500      9.3391   6771.9141      0.0000      3.4752     -0.1648
  3769.4000      9.3391   6745.3354      0.0000      3.4859     -0.1163
  3769.3500      9.3391   6745.3354      0.0000      3.4859     -0.0021
  3769.3000      9.3391   6742.8125      0.0000      3.5362     -0.0824
  3769.2500      9.3391   6758.7261      0.0000      3.4851      0.0156
  3769.2000      9.3391   6758.7261      0.0000      3.4851      0.0180
  3769.1500      9.3208   6786.4077      0.0000      3.5156     -0.0168
  3769.1000      9.3208   6826.2612      0.0000      3.5263     -0.0128
  3769.0500      9.3208   6826.2612      0.0000      3.5263     -0.0107
  3769.0000      9.2690   6863.0596      0.0000      3.5164     -0.0140
  3768.9500      9.2690   6886.3022      0.0000      3.4851     -0.0021
  3768.9000      9.2690   6886.3022      0.0000      3.4851      0.0018
  3768.8500      9.2842   6907.7036      0.0000      3.5057     -0.0113
