~Version Information
VERS.             2.0 : CWLS log ASCII standard - Version 2.0
WRAP.             NO  : One line per depth step
#
~Well Information Block
#MNEM.UNIT                   Data Type:Information
#__________________________________________________________
 STRT .M           2450.13480  :START INDEX                  
  STOP.M           3113.3796 : STOP INDEX                    
 STEP .M              0.00000  :STEP                         
  NULL.              -999.25 : NULL VALUE                    
  COMP.              Statoil : COMPANY                       
  WELL.            15_9_F-12 : WELL                          
   FLD.                Volve : FIELD                         
   LOC.           Maersk Inspirer : LOCATION                      
  PROV.                      : PROVINCE                      
  CNTY.                      : COUNTY                        
  STAT.                      : STATE                         
  CTRY.                      : COUNTRY                       
  SRVC.              SLB D&M : SERVICE COMPANY               
  DATE.                      : LOG DATE                      
   UWI.                      : UNIQUE WELL ID                
   API.                      : API NUMBER                    
#
~Curve Information Block
#MNEM.UNIT                     : Curve Description
#---------                     --------------------
DEPT        .M                 : Bit Depth 2hz                                                   
TVDE        .M                 : SVY TVD_EXTR 2hz                                                
ARC_GR_RT   .GAPI              : ARC Gamma Ray, Real-Time                                        
ROP5        .M/HR              : 5ft ROP 2hz                                                     
SWOB        .KKGF              : Surface Weight on Bit 2hz                                       
RPM         .RPM               : SRF SRPM 2hz                                                    
TFLO        .LPM               : HSPM Total Pump Flow 2hz                                        
TRPM_RT     .RPM               : MWD TUR_RPM 2hz                                                 
SPPA        .BAR               : SRF PUMPRS 2hz                                                  
TQA         .KMN               : SRF STOR 2hz                                                    
SHKRSK_RT   .----              : MWD SHKRSK 2hz                                                  
SHK2_RT     .----              : ARC Shock Level, Real-Time                                      
SHK_ADN_RT  .----              : ADN Shock Level, Real-Time                                      
PDSHKRSK    .----              : PowerDrive Shock Risk 2hz                                       
ECD_ARC     .G/C3              : Equivalent Circulating Density                                  
ATMP        .DEGC              : ARC Annular Temperature                                         
APRS_ARC    .BAR               : ARC Annular Pressure                                            
#
~Parameter Information Block
#MNEM.UNIT                       Value:Description
#__________________________________________________________
#
~Other Information Block

#
~A    DEPT       TVDE  ARC_GR_RT       ROP5       SWOB        RPM       TFLO    TRPM_RT       SPPA        TQA  SHKRSK_RT    SHK2_RT SHK_ADN_RT   PDSHKRSK    ECD_ARC       ATMP   APRS_ARC
# ...
 2476.3477    -999.25    88.1362    -999.25    -999.25    -999.25    -999.25    -999.25    -999.25    -999.25    -999.25    -999.25     0.0000    -999.25     1.3912    51.0000   325.9153
 2476.5000    -999.25    93.1716    -999.25    -999.25    -999.25    -999.25    -999.25    -999.25    -999.25    -999.25    -999.25     0.0000    -999.25     1.3912    51.0000   325.9153
 2476.6523    -999.25    93.1716    -999.25    -999.25    -999.25    -999.25    -999.25    -999.25    -999.25    -999.25    -999.25    -999.25    -999.25     1.3911    51.0000   325.9153
 2476.8047    -999.25    88.1362    -999.25    -999.25    -999.25    -999.25    -999.25    -999.25    -999.25    -999.25    -999.25     0.0000    -999.25     1.3907    51.0000   325.8463
 2476.9573    -999.25    90.6364    -999.25    -999.25    -999.25    -999.25    -999.25    -999.25    -999.25    -999.25    -999.25     0.0000    -999.25     1.3909    51.0000   325.9153
 2477.1096    -999.25   106.3719    -999.25    -999.25    -999.25    -999.25    -999.25    -999.25    -999.25    -999.25    -999.25     0.0000    -999.25     1.3908    51.0000   325.9153
 2477.2620    -999.25    85.6710    -999.25    -999.25    -999.25    -999.25    -999.25    -999.25    -999.25    -999.25    -999.25     0.0000    -999.25     1.3899    51.0000   325.7085
 2477.4143    -999.25    95.7417    -999.25    -999.25    -999.25    -999.25    -999.25    -999.25    -999.25    -999.25    -999.25    -999.25    -999.25     1.3895    51.0000   325.6395
 2477.5669    -999.25    85.6710    -999.25    -999.25    -999.25    -999.25    -999.25    -999.25    -999.25    -999.25    -999.25     0.0000    -999.25     1.3894    51.0000   325.6395
 2477.7192    -999.25    83.2408    -999.25    -999.25    -999.25    -999.25    -999.25    -999.25    -999.25    -999.25    -999.25     0.0000    -999.25     1.3896    51.0000   325.7085
 2477.8716    -999.25    88.1362    -999.25    -999.25    -999.25    -999.25    -999.25    -999.25    -999.25    -999.25    -999.25     0.0000    -999.25     1.3895    51.0000   325.7085
 2478.0239    -999.25    90.6364    -999.25    -999.25    -999.25    -999.25    -999.25    -999.25    -999.25    -999.25    -999.25     0.0000    -999.25     1.3894    51.0000   325.7085
 2478.1765    -999.25    80.8455    -999.25    -999.25    -999.25    -999.25    -999.25    -999.25    -999.25    -999.25    -999.25    -999.25    -999.25     1.3894    51.0000   325.7085
 2478.3289    -999.25    73.8694    -999.25    -999.25    -999.25    -999.25    -999.25    -999.25    -999.25    -999.25    -999.25     0.0000    -999.25     1.3896    51.0000   325.7774
 2478.4812    -999.25    93.1716    -999.25    -999.25    -999.25    -999.25    -999.25    -999.25    -999.25    -999.25    -999.25    -999.25    -999.25     1.3892    51.0000   325.7085
 2478.6335    -999.25    83.2408    -999.25    -999.25    -999.25    -999.25    -999.25    -999.25    -999.25    -999.25    -999.25    -999.25    -999.25     1.3891    51.0000   325.7085
 2478.7859    -999.25    98.3468    -999.25    -999.25    -999.25    -999.25    -999.25    -999.25    -999.25    -999.25    -999.25    -999.25    -999.25     1.3893    51.0000   325.7774
 2478.9385    -999.25    95.7417    -999.25    -999.25    -999.25    -999.25    -999.25    -999.25    -999.25    -999.25    -999.25     0.0000    -999.25     1.3892    51.0000   325.7774
 2479.0908    -999.25   100.9869    -999.25    -999.25    -999.25    -999.25    -999.25    -999.25    -999.25    -999.25    -999.25    -999.25    -999.25     1.3894    51.0000   325.8463
 2479.2432    -999.25   100.9869    -999.25    -999.25    -999.25    -999.25    -999.25    -999.25    -999.25    -999.25    -999.25    -999.25    -999.25     1.3894    52.0000   325.8463
 2479.3955    -999.25   100.9869    -999.25    -999.25    -999.25    -999.25    -999.25    -999.25    -999.25    -999.25    -999.25     0.0000    -999.25     1.3893    52.0000   325.8463
 2479.5481    -999.25    98.3468    -999.25    -999.25    -999.25    -999.25    -999.25    -999.25    -999.25    -999.25    -999.25    -999.25    -999.25     1.3895    52.0000   325.9153
 2479.7004    -999.25   109.1169    -999.25    -999.25    -999.25    -999.25    -999.25    -999.25    -999.25    -999.25    -999.25    -999.25    -999.25     1.3891    52.0000   325.8463
 2479.8528    -999.25    98.3468    -999.25    -999.25    -999.25    -999.25    -999.25    -999.25    -999.25    -999.25    -999.25     0.0000    -999.25     1.3893    52.0000   325.9153
 2480.0051  2395.1558    90.6364    -999.25    -2.5692    69.9009  2481.3332    -999.25   118.4231    25.0088     0.0000     0.0000    -999.25     0.0000     1.3892    52.0000   325.9153
 2480.1577  2395.2985   100.9869    -999.25    -2.7614    69.4273  2481.3332  1679.6875   118.3900    22.1720    -999.25     0.0000    -999.25    -999.25     1.3894    52.0000   325.9842
 2480.3101  2395.4417   106.3719    10.0603    -2.6940    69.8349  2481.3332  1679.6875   118.2862    24.0217     0.0000    -999.25     0.0000     0.0000     1.3894    52.0000   325.9842
 2480.4624  2395.5844    90.6364    10.3875    -2.3360    70.2157  2481.3332    -999.25   118.2710    26.0562    -999.25     0.0000    -999.25     0.0000     1.3890    52.0000   325.9153
 2480.6147  2395.7274    88.1362    12.5309    -2.1020    69.6028  2481.3332  1679.6875   118.2614    24.7315     0.0000    -999.25    -999.25    -999.25     1.3895    52.0000   326.0532
 2480.7671  2395.8800    93.1716    15.0460    -2.3862    69.0000  2481.3332    -999.25   118.1793    24.3441    -999.25     0.0000     0.0000     0.0000     1.3894    52.0000   326.0532
 2480.9197  2396.0227    98.3468    15.0658    -2.4475    69.2877  2481.3332  1679.6875   118.0379    24.0647     0.0000    -999.25    -999.25    -999.25     1.3899    52.0000   326.1911
 2481.0720  2396.1659   100.9869    15.0800    -1.9502    69.3472  2481.3332    -999.25   118.0466    22.1731    -999.25     0.0000    -999.25    -999.25     1.3892    52.0000   326.0532
 2481.2244  2396.3086    95.7417    15.0594    -0.5881    69.1918  2481.3332    -999.25   118.1797    22.5914     0.0000    -999.25     0.0000     0.0000     1.3897    52.0000   326.1911
 2481.3767  2396.4610   106.3719    14.8110    -0.2563    68.9605  2481.3332  1679.6875   117.8462    25.9902    -999.25     0.0000    -999.25    -999.25     1.3899    52.0000   326.2600
 2481.5293  2396.6040    98.3468    14.1780     0.4617    68.5570  2481.3332    -999.25   117.8828    27.8492     0.0000    -999.25    -999.25     0.0000     1.3896    52.0000   326.1911
 2481.6816  2396.7469   109.1169    13.5943    -2.4767    66.9870  2481.3332  1679.6875   118.0416    25.0193    -999.25     0.0000     0.0000    -999.25     1.3898    52.0000   326.2600
 2481.8340  2396.8899    95.7417    14.2317    -2.4910    68.5206  2481.3332    -999.25   118.0926    25.7745    -999.25    -999.25    -999.25     0.0000     1.3897    52.0000   326.2600
 2481.9863  2397.0423    98.3468    14.7915    -2.1071    68.9589  2481.3332  1679.6875   117.7897    26.6427     0.0000    -999.25    -999.25    -999.25     1.3899    52.0000   326.3290
 2482.1389  2397.1852    95.7417    14.7914    -0.2009    61.2603  2481.3332    -999.25   117.8284    24.8506    -999.25     0.0000    -999.25     0.0000     1.3901    52.0000   326.3979
 2482.2913  2397.3282    98.3468    14.1519    -0.2727    62.4340  2481.3332  1679.6875   117.6683    23.9906     0.0000    -999.25     0.0000    -999.25     1.3900    52.0000   326.3979
 2482.4436  2397.4710    95.7417    13.5129    -1.0623    65.4000  2481.3332    -999.25   117.6205    25.5226     0.0000     0.0000    -999.25     0.0000     1.3899    52.0000   326.3979
 2482.5959  2397.6237    90.6364    12.9345    -1.2225    61.9633  2481.3332  1679.6875   117.7704    24.4181    -999.25     0.0000    -999.25     0.0000     1.3901    52.0000   326.4669
 2482.7483  2397.7665   106.3719    12.6207    -1.3832    66.6808  2481.3332  1679.6875   117.7795    25.3190     0.0000    -999.25    -999.25    -999.25     1.3901    52.0000   326.4669
