~Version Information
VERS.                      2.0: CWLS Log ASCII Standard - VERSION 2.0
WRAP.                       NO: One line per depth step
~Well Information Block
STRT.M               3169.9500: START DEPTH
STOP.M               3076.7000: STOP DEPTH
STEP.M                 -0.0500: STEP
NULL.                -999.2500: NULL VALUE
COMP.                  Statoil: COMPANY
WELL.                15/9-F-12: WELL
FLD.                     Volve: FIELD
LOC.                          : LOCATION
SRVC.          Halliburton Logging Services: SERVICE COMPANY
DATE.          Wed Nov 26 07-57-02 2014: LOG DATE
UWI.                          : UNIQUE WELL ID
SECT.                         : SECTION
TOWN.                         : TOWNSHIP
RANG.                         : RANGE
API.                          : API#
OS.                           : OTHER SERVICES
PDAT.FT                       : PERMANENT DATUM
EEL.FT                        : ELEVATION
LMF.FT                        : LOG MEASURED FROM
DMF.FT                        : DRILLING MEASURED FROM
EKB.FT                        : KB
EDF.FT                        : DF
EGL.FT                        : GL
DATE1.                        : DATE1
RUN1.                         : RUN NUMBER
TDD1.FT                       : DEPTH DRILLER
TDL1.FT                       : DEPTH LOGGER
BLI1.FT                       : BOTTOM LOGGED INTERVAL
TLI1.FT                       : TOP LOG INTERVAL
CDD1.IN_FT                    : CASING DRILLER
CDL1.FT                       : CASING LOGGER
BS1.IN                        : BIT SIZE
DFT1.                         : TYPE FLUID IN HOLE
DFDV1.GM/C3_CP                : DENSITY/VISCOSITY
DFPL1.C3                      : PH/FLUID LOSS
MSS1.                         : SOURCE OF SAMPLE
RMT1.OHHM_DEGF                : RM@MEASURED TEMP
RMFT1.OHMM_DEGF                : RMF@MEASURED TEMP
RMCT1.OHMM_DEGF                : RMC@MEASURED TEMP
RMFS1.                        : SOURCE OF RMF/RMC
RMBT1.OHMM_DEGF                : RM@BHT
TCS1.                         : TIME CIRCULATION STOPPED
TLOB1.                        : TIME LOGGER ON BOTTOM
BHT1.DEGF                     : MAXIMUM RECORDED TEMPERATURE
LUN1.                         : EQUIPMENT NUMBER
LUL1.                         : LOCATION
ENGI1.                        : RECORDED BY
WITN1.                        : WITNESSED BY
~Curve Information Block
DEPT.M             0 000 00 00: Depth
LSPD.M/MIN                   0: Line Speed
LTEN.LB                      0: Surface Line Tension
MINMK.                       0: Minute Mark Ticks
GR.GAPI                      0: Gamma Ray
CCL.                         0: Casing Collar Locator
ACCX.                        0: X Axis Accelerometer
ACCY.                        0: Y Axis Accelerometer
ACCZ.                        0: Z Axis Accelerometer
RB.DEG                       0: Relative Bearing
DEVI.DEG                     0: Deviation
TOTG.GEE                     0: Total G
RBRef.DEG                    0: RB Reference
IntTemp.DEGF                 0: Internal Electronics Temperature
~Parameter Information Block
~A  Depth       LSPD        LTEN       MINMK         GR         CCL         ACCX        ACCY        ACCZ         RB         DEVI        TOTG       RBRef      IntTemp   
# ...
  3165.1500      8.7843   4754.1128      0.0000     20.3009    359.0000  -2386.1001  -1598.4000   2185.6001    213.8173      0.0249   3609.0447    146.1827    225.0275
  3165.1000      8.7660   4766.5161      0.0000     22.3685    376.0000  -2383.5000  -1629.2000   2164.3999    214.3539      0.0249   3608.3225    145.6461    225.0289
  3165.0500      8.7660   4714.5156      0.0000     25.9400    381.0000  -2350.5000  -1677.7000   2154.3999    215.5178      0.0250   3602.9109    144.4822    225.0352
  3165.0000      8.7660   4678.3428      0.0000     27.8823    358.0000  -2333.7000  -1733.1000   2185.2000    216.5991      0.0247   3636.6042    143.4009    225.0430
  3164.9500      8.7843   4707.3926      0.0000     30.2633    350.0000  -2284.2000  -1733.6000   2171.3000    217.1968      0.0250   3596.8711    142.8032    225.0542
  3164.9000      8.7843   4785.4160      0.0000     32.0177    373.0000  -2246.3999  -1742.7000   2163.8999    217.8034      0.0252   3572.9229    142.1966    225.0662
  3164.8500      8.7843   4841.0947      0.0000     34.9626    394.0000  -2220.8000  -1767.6000   2116.1001    218.5173      0.0254   3540.3730    141.4827    225.0831
  3164.8000      8.8026   4818.8467      0.0000     37.5315    333.0000  -2224.6001  -1778.1000   2080.7000    218.6350      0.0255   3527.0098    141.3650    225.0999
  3164.7500      8.8026   4802.9399      0.0000     41.9175    384.0000  -2219.6001  -1805.3000   2097.2000    219.1230      0.0254   3547.3906    140.8770    225.1161
  3164.7000      8.8209   4863.1787      0.0000     44.4864    301.0000  -2202.2000  -1832.5000   2131.3999    219.7646      0.0252   3570.7991    140.2354    225.1309
  3164.6500      8.8209   4908.7197      0.0000     45.8022    441.0000  -2179.3000  -1873.9000   2162.1001    220.6910      0.0250   3596.5994    139.3090    225.1337
  3164.6000      8.8209   4906.7593      0.0000     46.2408    305.0000  -2165.3999  -1902.0000   2155.8000    221.2948      0.0250   3599.1714    138.7052    225.1295
  3164.5500      8.8209   4855.1963      0.0000     45.3636    353.0000  -2143.1001  -1882.2000   2143.6001    221.2915      0.0252   3567.9932    138.7085    225.1175
  3164.5000      8.8575   4772.2905      0.0000     40.6017    367.0000  -2153.0000  -1987.7000   2155.7000    222.7139      0.0247   3637.7744    137.2861    225.0915
  3164.4500      8.8575   4745.0898      0.0000     37.0929    365.0000  -2134.0000  -2012.9000   2144.6001    223.3273      0.0248   3633.8728    136.6727    225.0711
  3164.4000      8.8392   4752.5317      0.0000     31.8297    366.0000  -2127.0000  -2051.5000   2177.5000    223.9649      0.0245   3670.7339    136.0351    225.0542
  3164.3500      8.8392   4734.9683      0.0000     28.5089    372.0000  -2117.8000  -2042.2000   2230.3999    223.9589      0.0244   3691.9292    136.0411    225.0409
  3164.3000      8.8392   4651.3936      0.0000     27.1305    367.0000  -2089.0000  -2093.8999   2239.3999    225.0671      0.0243   3709.8855    134.9329    225.0261
  3164.2500      8.8758   4615.4658      0.0000     26.8798    364.0000  -2069.3999  -2139.8999   2231.7000    225.9595      0.0242   3720.4937    134.0405    225.0205
  3164.2000      8.8758   4650.3804      0.0000     26.9425    356.0000  -2059.8000  -2151.8999   2205.0000    226.2527      0.0243   3706.1401    133.7473    225.0205
  3164.1500      8.8758   4743.3208      0.0000     27.4437    365.0000  -2036.1000  -2122.8000   2192.8999    226.1943      0.0245   3668.8953    133.8057    225.0261
  3164.1000      8.8758   4765.6694      0.0000     27.1305    431.0000  -2007.1000  -2160.1001   2195.3999    227.1027      0.0245   3676.1750    132.8973    225.0296
  3164.0500      8.8758   4741.4209      0.0000     26.2533    300.0000  -1966.5000  -2170.0000   2186.7000    227.8165      0.0246   3654.8159    132.1835    225.0303
  3164.0000      8.8758   4732.2773      0.0000     26.0653    401.0000  -1951.1000  -2198.0000   2235.0000    228.4055      0.0244   3692.3191    131.5945    225.0282
  3163.9500      8.8392   4800.1426      0.0000     25.8147    277.0000  -1888.1000  -2206.3999   2234.8999    229.4451      0.0246   3664.4099    130.5549    225.0268
  3163.9000      8.8392   4872.7939      0.0000     25.1881    347.0000  -1827.1000  -2261.0000   2198.3999    231.0585      0.0247   3644.6367    128.9415    225.0282
  3163.8500      8.8392   4870.6226      0.0000     24.8748    397.0000  -1784.8000  -2291.3000   2183.3999    232.0833      0.0248   3633.5662    127.9167    225.0310
  3163.8000      8.8575   4824.3711      0.0000     23.9976    331.0000  -1743.5000  -2326.3999   2140.7000    233.1506      0.0249   3610.3359    126.8494    225.0303
  3163.7500      8.8575   4811.3843      0.0000     23.9976    342.0000  -1672.1000  -2316.8000   2124.3000    234.1810      0.0253   3560.3555    125.8190    225.0303
  3163.7000      8.8575   4829.5156      0.0000     24.6242    376.0000  -1615.2000  -2401.7000   2143.8999    236.0782      0.0250   3601.8523    123.9218    225.0352
  3163.6500      8.8209   4853.2388      0.0000     26.6292    372.0000  -1556.8000  -2455.3000   2143.0000    237.6230      0.0249   3611.7273    122.3770    225.0409
  3163.6000      8.8209   4845.5859      0.0000     29.8874    365.0000  -1476.8000  -2511.2000   2132.3000    239.5408      0.0249   3610.2310    120.4592    225.0472
  3163.5500      8.8209   4804.5464      0.0000     32.2683    367.0000  -1410.0000  -2519.3999   2107.8000    240.7661      0.0252   3574.6743    119.2339    225.0472
  3163.5000      8.8209   4758.3647      0.0000     35.5891    367.0000  -1354.0000  -2549.3999   2083.8000    242.0270      0.0253   3560.1936    117.9730    225.0444
  3163.4500      8.8209   4788.9126      0.0000     37.3435    379.0000  -1315.9000  -2610.6001   2099.8000    243.2491      0.0250   3599.4424    116.7509    225.0409
  3163.4000      8.8209   4826.0522      0.0000     36.7170    374.0000  -1296.7000  -2630.8000   2096.3999    243.7617      0.0250   3605.1951    116.2383    225.0359
  3163.3500      8.8392   4816.3281      0.0000     36.9676    361.0000  -1248.4000  -2623.1001   2116.1001    244.5490      0.0250   3594.0278    115.4510    225.0268
  3163.3000      8.8392   4763.5205      0.0000     35.9024    367.0000  -1203.3000  -2640.8000   2130.5000    245.5033      0.0250   3600.1091    114.4967    225.0198
  3163.2500      8.8392   4724.9219      0.0000     33.5215    363.0000  -1171.6000  -2661.7000   2140.2000    246.2424      0.0249   3610.7822    113.7576    225.0127
  3163.2000      8.8209   4757.9414      0.0000     31.7044    364.0000  -1147.5000  -2662.2000   2146.6001    246.6823      0.0250   3607.2090    113.3177    225.0127
  3163.1500      8.8209   4807.1899      0.0000     30.5139    396.0000  -1133.8000  -2671.8999   2159.7000    247.0064      0.0249   3617.8523    112.9936    225.0170
  3163.1000      8.8209   4827.8828      0.0000     28.3836    329.0000  -1119.7000  -2691.3000   2161.7000    247.4105      0.0248   3629.0178    112.5895    225.0240
  3163.0500      8.8392   4805.3848      0.0000     25.8773    356.0000  -1122.4000  -2702.7000   2178.1001    247.4474      0.0247   3648.0801    112.5525    225.0317
  3163.0000      8.8392   4793.2886      0.0000     23.7470    381.0000  -1105.6000  -2718.6001   2185.6001    247.8694      0.0246   3659.2329    112.1306    225.0430
  3162.9500      8.8392   4824.5908      0.0000     22.7445    403.0000  -1092.4000  -2694.6001   2191.8999    247.9322      0.0247   3641.2405    112.0678    225.0549
  3162.9000      8.9276   4886.3931      0.0000     22.5565    351.0000  -1067.1000  -2707.8000   2200.0000    248.4914      0.0247   3648.4084    111.5086    225.0683
  3162.8500      8.9276   4902.6855      0.0000     23.2457    372.0000  -1025.7000  -2745.7000   2242.3999    249.5160      0.0244   3690.4316    110.4840    225.0718
  3162.8000      8.9276   4898.3652      0.0000     24.3109    374.0000   -967.4000  -2773.0000   2263.2000    250.7680      0.0243   3707.7576    109.2320    225.0725
