~Version Information
VERS.                      2.0: CWLS Log ASCII Standard - VERSION 2.0
WRAP.                       NO: One line per depth step
~Well Information Block
STRT.M               3782.3500: START DEPTH
STOP.M               3681.1500: STOP DEPTH
STEP.M                 -0.0500: STEP
NULL.                -999.2500: NULL VALUE
COMP.                  STATOIL: COMPANY
WELL.               15/9-F-1-C: WELL
FLD.                     VOLVE: FIELD
LOC.                          : LOCATION
SRVC.          Halliburton Logging Services: SERVICE COMPANY
DATE.          Thu Dec 04 04-49-02 2014: LOG DATE
UWI.                          : UNIQUE WELL ID
CTRY.                   NORWAY: COUNTRY
SECT.                         : SECTION
TOWN.                         : TOWNSHIP
RANG.                         : RANGE
API.                          : API#
OS.                   --NONE--: OTHER SERVICES
PDAT.FT                  M.S.L: PERMANENT DATUM
EEL.FT                   54.9M: ELEVATION
LMF.FT                   R.K.B: LOG MEASURED FROM
DMF.FT                   R.K.B: DRILLING MEASURED FROM
EKB.FT                   54.9M: KB
EDF.FT                   54.9M: DF
EGL.FT                    -91M: GL
DATE1.         03-DEC-14 @ 05:47: DATE1
RUN1.                    1 & 2: RUN NUMBER
TDD1.FT                  4094M: DEPTH DRILLER
TDL1.FT                  3782M: DEPTH LOGGER
BLI1.FT                  3772M: BOTTOM LOGGED INTERVAL
TLI1.FT                  3572M: TOP LOG INTERVAL
CDD1.IN_FT                    : CASING DRILLER
CDL1.FT                       : CASING LOGGER
BS1.IN                    8.5": BIT SIZE
DFT1.                SEA WATER: TYPE FLUID IN HOLE
DFDV1.GM/C3_CP          1.03SG: DENSITY/VISCOSITY
DFPL1.C3                      : PH/FLUID LOSS
MSS1.                         : SOURCE OF SAMPLE
RMT1.OHHM_DEGF                : RM@MEASURED TEMP
RMFT1.OHMM_DEGF                : RMF@MEASURED TEMP
RMCT1.OHMM_DEGF                : RMC@MEASURED TEMP
RMFS1.                        : SOURCE OF RMF/RMC
RMBT1.OHMM_DEGF                : RM@BHT
TCS1.                         : TIME CIRCULATION STOPPED
TLOB1.                36 HOURS: TIME LOGGER ON BOTTOM
BHT1.DEGF                 FULL: MAXIMUM RECORDED TEMPERATURE
LUN1.                 12030699: EQUIPMENT NUMBER
LUL1.                   NORWAY: LOCATION
ENGI1.              C.JAMIESON: RECORDED BY
WITN1.                A.ALBAWI: WITNESSED BY
~Curve Information Block
DEPT.M             0 000 00 00: Depth
LSPD.M/MIN                   0: Line Speed
LTEN.LB                      0: Surface Line Tension
MINMK.                       0: Minute Mark Ticks
HVOLTA.V                     0: Head Voltage Apparent
CCL.                         0: Casing Collar Locator
~Parameter Information Block
SRFTEMP.DEGC           12.0000: Surface Temperature
MudWgt.LB/GAL           8.5600: Mud Weight
CASETHCK.IN             0.4530: Casing Thickness
BITSIZE.IN             12.2500: Borehole I.D.
~Other Information
TOOL STRING DEPLOYED BY ALTUS INTERVENTION WIRELINE UNIT ON 7/16" CABLE
CABLE HEAD BUILT BY ALTUS
LOG CORRELATED TO SHLUMBERGER 4.5" HSD OX POWER JET PULS DATED 09.APRIL.2014
CORRELATION LOG IS SHALLOWER BY 1.4M, DEPTH SHIFTED 1.4M DOWN AS PER
CLIENTS REQUEST.
4.655" HSC GUN 10 AND 350 DEGREE PHASING, 39 GR MILLENIUM, 4 SHOTS PER FOOT.
ATTEMPT WAS MADE TO RUN 4 GUNS IN ONE STRING BUT AT 3600M PICK UP WEIGHT 
WAS TOO HIGH TO CONTINUE.  CLIENT D4ECIDED TO SPLIT UP ONTO TWO RUNS.
RUN #1 CCL TO TOP SHOT 3.25 M, CCL STOP DEPT: 3729.75 M
PERFORATION INTERVAL 3733M - 3742.6M
RUN #2 CCL TO TOP SHOT 3.25 M, CCL STOP DEPT: 3711.75 M
PERFORATION INTERVAL 3715M - 3724.6M

~A  Depth       LSPD        LTEN       MINMK       HVOLTA       CCL     
# ...
  3720.7500      9.3391   6903.4565      0.0000      3.4546     -0.7672
  3720.7000      9.4092   6824.6499      0.0000      3.4950      0.3204
  3720.6500      9.4092   6766.5908      0.0000      3.4752      0.1285
  3720.6000      9.4092   6766.5908      0.0000      3.4752     -0.0687
  3720.5500      9.4092   6731.6035      0.0000      3.4950     -0.0531
  3720.5000      9.4458   6728.5713      0.0000      3.4645      0.0592
  3720.4500      9.4458   6728.5713      0.0000      3.4645      0.0006
  3720.4000      9.4458   6764.2559      0.0000      3.4851     -0.0043
  3720.3500      9.4458   6817.5161      0.0000      3.4851     -0.0101
  3720.3000      9.4458   6817.5161      0.0000      3.4851     -0.0107
  3720.2500      9.4458   6871.8906      0.0000      3.4546     -0.0110
  3720.2000      9.4275   6871.8906      0.0000      3.4546     -0.0107
  3720.1500      9.4275   6928.0352      0.0000      3.4851     -0.0040
  3720.1000      9.4275   6972.8242      0.0000      3.4752     -0.0046
  3720.0500      9.3574   6972.8242      0.0000      3.4752     -0.0146
  3720.0000      9.3574   6996.5229      0.0000      3.4851     -0.0165
  3719.9500      9.3574   7016.4507      0.0000      3.4950     -0.0131
  3719.9000      9.3208   7016.4507      0.0000      3.4950     -0.0052
  3719.8500      9.3208   7042.1699      0.0000      3.4851     -0.0146
  3719.8000      9.3208   7064.1611      0.0000      3.4752     -0.0037
  3719.7500      9.3025   7064.1611      0.0000      3.4752     -0.0119
  3719.7000      9.3025   7083.0513      0.0000      3.4950     -0.0058
  3719.6500      9.3025   7100.3184      0.0000      3.5255     -0.0134
  3719.6000      9.3208   7100.3184      0.0000      3.5255     -0.0137
  3719.5500      9.3208   7113.2192      0.0000      3.4851     -0.0015
  3719.5000      9.3208   7139.7144      0.0000      3.4546     -0.0146
  3719.4500      9.3025   7139.7144      0.0000      3.4546     -0.0146
  3719.4000      9.3025   7189.5537      0.0000      3.4950     -0.0079
  3719.3500      9.3025   7236.9351      0.0000      3.4851     -0.0046
  3719.3000      9.3025   7236.9351      0.0000      3.4851     -0.0153
  3719.2500      9.3756   7268.4761      0.0000      3.4950     -0.0299
  3719.2000      9.3756   7296.7681      0.0000      3.4546      0.0128
  3719.1500      9.3756   7296.7681      0.0000      3.4546     -0.0128
  3719.1000      9.3756   7312.2661      0.0000      3.4851     -0.0836
  3719.0500      9.3756   7290.1333      0.0000      3.5156      0.0220
  3719.0000      9.3756   7290.1333      0.0000      3.5156      1.5485
  3718.9500      9.3939   7227.9351      0.0000      3.4851     -2.1329
  3718.9000      9.3939   7125.8330      0.0000      3.4851      1.1188
  3718.8500      9.3939   7125.8330      0.0000      3.4851      3.9337
  3718.8000      9.4275   6982.6499      0.0000      3.4851     -0.1715
  3718.7500      9.4275   6830.2466      0.0000      3.4851     -0.4620
  3718.7000      9.4275   6830.2466      0.0000      3.4851      2.2412
  3718.6500      9.3939   6704.8765      0.0000      3.4546     -3.5114
  3718.6000      9.3939   6704.8765      0.0000      3.4546     -0.9988
  3718.5500      9.3939   6609.5820      0.0000      3.4851      0.2051
  3718.5000      9.4275   6549.6123      0.0000      3.4752      0.0186
  3718.4500      9.4275   6549.6123      0.0000      3.4752     -0.3165
  3718.4000      9.4275   6543.6934      0.0000      3.4554     -0.0641
  3718.3500      9.4275   6582.1885      0.0000      3.5156      0.1062
  3718.3000      9.4275   6582.1885      0.0000      3.5156     -0.0565
  3718.2500      9.4275   6636.4805      0.0000      3.4851     -0.0598
  3718.2000      9.4092   6694.4385      1.0000      3.5156      0.0076
  3718.1500      9.4092   6694.4385      1.0000      3.5156     -0.0137
  3718.1000      9.4092   6746.1992      0.0000      3.4950     -0.0177
  3718.0500      9.4092   6781.6514      0.0000      3.4950     -0.0119
  3718.0000      9.4458   6781.6514      0.0000      3.4950     -0.0125
  3717.9500      9.4458   6812.1885      0.0000      3.4546     -0.0101
  3717.9000      9.4458   6848.4028      0.0000      3.5255     -0.0162
  3717.8500      9.3939   6848.4028      0.0000      3.5255     -0.0125
  3717.8000      9.3939   6881.6963      0.0000      3.4851     -0.0055
  3717.7500      9.3939   6909.5889      0.0000      3.4950     -0.0125
  3717.7000      9.4092   6909.5889      0.0000      3.4950     -0.0143
  3717.6500      9.4092   6938.2749      0.0000      3.4950     -0.0034
  3717.6000      9.4092   6966.0454      0.0000      3.4447     -0.0134
  3717.5500      9.4092   6966.0454      0.0000      3.4447     -0.0110
  3717.5000      9.4092   6995.0107      0.0000      3.4752     -0.0070
  3717.4500      9.4092   7029.4434      0.0000      3.4546     -0.0125
  3717.4000      9.3391   7029.4434      0.0000      3.4546     -0.0098
  3717.3500      9.3391   7054.1240      0.0000      3.5156     -0.0027
  3717.3000      9.3391   7055.6606      0.0000      3.4645     -0.0513
  3717.2500      9.3574   7055.6606      0.0000      3.4645     -0.1901
  3717.2000      9.3574   7039.3501      0.0000      3.4950      0.2795
  3717.1500      9.3574   6997.4512      0.0000      3.4546      0.0140
  3717.1000      9.3391   6997.4512      0.0000      3.4546     -2.8452
  3717.0500      9.3391   6920.6235      0.0000      3.4851      0.1810
  3717.0000      9.3391   6920.6235      0.0000      3.4851     -0.3851
  3716.9500      9.3391   6835.7793      0.0000      3.4447      0.1349
  3716.9000      9.3391   6770.5518      0.0000      3.4950     -0.3644
  3716.8500      9.3391   6770.5518      0.0000      3.4950     -0.2002
  3716.8000      9.3391   6718.8130      0.0000      3.4752      0.1178
  3716.7500      9.4275   6680.6704      0.0000      3.4546      0.0040
  3716.7000      9.4275   6680.6704      0.0000      3.4546     -0.0592
  3716.6500      9.4275   6674.1289      0.0000      3.5057     -0.0549
  3716.6000      9.4092   6695.2153      0.0000      3.4645      0.0079
  3716.5500      9.4092   6695.2153      0.0000      3.4645     -0.0031
  3716.5000      9.4092   6729.1006      0.0000      3.4851     -0.0140
  3716.4500      9.4275   6774.7642      0.0000      3.4851     -0.0079
  3716.4000      9.4275   6774.7642      0.0000      3.4851     -0.0168
  3716.3500      9.4275   6823.5479      0.0000      3.4950     -0.0140
  3716.3000      9.4275   6863.1489      0.0000      3.4851     -0.0104
  3716.2500      9.4275   6863.1489      0.0000      3.4851     -0.0076
  3716.2000      9.4275   6900.4600      0.0000      3.4851     -0.0116
  3716.1500      9.3391   6939.5488      0.0000      3.4851      0.0018
  3716.1000      9.3391   6939.5488      0.0000      3.4851     -0.0067
  3716.0500      9.3391   6968.7388      0.0000      3.4851     -0.0015
  3716.0000      9.3574   6987.3501      0.0000      3.4851     -0.0070
  3715.9500      9.3574   6987.3501      0.0000      3.4851     -0.0330
  3715.9000      9.3574   6999.6523      0.0000      3.4546      0.0439
  3715.8500      9.3391   6995.3750      0.0000      3.4447      0.0708
  3715.8000      9.3391   6995.3750      0.0000      3.4447     -0.0632
  3715.7500      9.3391   6979.7715      0.0000      3.4950      0.0665
  3715.7000      9.3391   6974.5332      0.0000      3.4752     -0.0504
  3715.6500      9.3391   6974.5332      0.0000      3.4752      0.0156
  3715.6000      9.3391   6976.0127      0.0000      3.5156     -0.1187
  3715.5500      9.3391   6976.0127      0.0000      3.5156     -0.1572
  3715.5000      9.4092   6975.7788      0.0000      3.4851      0.0195
  3715.4500      9.4092   6989.5986      0.0000      3.5156     -0.0290
  3715.4000      9.4092   6989.5986      0.0000      3.5156     -0.0107
  3715.3500      9.4092   7020.1006      0.0000      3.4851     -0.0082
  3715.3000      9.4092   7048.4678      0.0000      3.4950     -0.0134
  3715.2500      9.4092   7048.4678      0.0000      3.4950     -0.0104
  3715.2000      9.4275   7074.3633      0.0000      3.4447     -0.0055
