~Version Information
VERS.                      2.0: CWLS Log ASCII Standard - VERSION 2.0
WRAP.                       NO: One line per depth step
~Well Information Block
STRT.M               3135.0500: START DEPTH
STOP.M               3039.9000: STOP DEPTH
STEP.M                 -0.0500: STEP
NULL.                -999.2500: NULL VALUE
COMP.                  Statoil: COMPANY
WELL.                15/9-F-12: WELL
FLD.                     Volve: FIELD
LOC.                          : LOCATION
SRVC.          Halliburton Logging Services: SERVICE COMPANY
DATE.          Wed Nov 26 21-01-09 2014: LOG DATE
UWI.                          : UNIQUE WELL ID
SECT.                         : SECTION
TOWN.                         : TOWNSHIP
RANG.                         : RANGE
API.                          : API#
OS.                           : OTHER SERVICES
PDAT.FT                       : PERMANENT DATUM
EEL.FT                        : ELEVATION
LMF.FT                        : LOG MEASURED FROM
DMF.FT                        : DRILLING MEASURED FROM
EKB.FT                        : KB
EDF.FT                        : DF
EGL.FT                        : GL
DATE1.                        : DATE1
RUN1.                         : RUN NUMBER
TDD1.FT                       : DEPTH DRILLER
TDL1.FT                       : DEPTH LOGGER
BLI1.FT                       : BOTTOM LOGGED INTERVAL
TLI1.FT                       : TOP LOG INTERVAL
CDD1.IN_FT                    : CASING DRILLER
CDL1.FT                       : CASING LOGGER
BS1.IN                        : BIT SIZE
DFT1.                         : TYPE FLUID IN HOLE
DFDV1.GM/C3_CP                : DENSITY/VISCOSITY
DFPL1.C3                      : PH/FLUID LOSS
MSS1.                         : SOURCE OF SAMPLE
RMT1.OHHM_DEGF                : RM@MEASURED TEMP
RMFT1.OHMM_DEGF                : RMF@MEASURED TEMP
RMCT1.OHMM_DEGF                : RMC@MEASURED TEMP
RMFS1.                        : SOURCE OF RMF/RMC
RMBT1.OHMM_DEGF                : RM@BHT
TCS1.                         : TIME CIRCULATION STOPPED
TLOB1.                        : TIME LOGGER ON BOTTOM
BHT1.DEGF                     : MAXIMUM RECORDED TEMPERATURE
LUN1.                         : EQUIPMENT NUMBER
LUL1.                         : LOCATION
ENGI1.                        : RECORDED BY
WITN1.                        : WITNESSED BY
~Curve Information Block
DEPT.M             0 000 00 00: Depth
LSPD.M/MIN                   0: Line Speed
LTEN.LB                      0: Surface Line Tension
MINMK.                       0: Minute Mark Ticks
HVOLTA.V                     0: Head Voltage Apparent
CCL.                         0: Casing Collar Locator
~Parameter Information Block
SRFTEMP.DEGC           10.0000: Surface Temperature
MudWgt.LB/GAL           8.5000: Mud Weight
CASETHCK.IN             6.1840: Casing Thickness
BITSIZE.IN              8.5000: Borehole I.D.
~A  Depth       LSPD        LTEN       MINMK       HVOLTA       CCL     
# ...
  3129.4500      8.7508   4364.5679      0.0000      3.5469     -0.0797
  3129.4000      8.6594   4369.7173      0.0000      3.5568     -0.0192
  3129.3500      8.6594   4369.7173      0.0000      3.5568      0.0772
  3129.3000      8.6594   4373.2134      0.0000      3.5675     -0.0504
  3129.2500      8.6594   4372.6094      0.0000      3.5881     -0.0119
  3129.2000      8.6594   4372.6094      0.0000      3.5881      0.0470
  3129.1500      8.6594   4374.0195      0.0000      3.5469      0.0266
  3129.1000      8.6411   4372.8438      0.0000      3.5065      0.2524
  3129.0500      8.6411   4372.8438      0.0000      3.5065     -0.0412
  3129.0000      8.6411   4358.5181      0.0000      3.5164      0.1151
  3128.9500      8.6777   4339.4224      0.0000      3.5370      0.0845
  3128.9000      8.6777   4339.4224      0.0000      3.5370     -0.3485
  3128.8500      8.6777   4323.6836      0.0000      3.6079      0.3644
  3128.8000      8.6594   4304.7222      0.0000      3.5370     -0.2606
  3128.7500      8.6594   4304.7222      0.0000      3.5370      0.0424
  3128.7000      8.6594   4284.5454      0.0000      3.5675      0.4993
  3128.6500      8.6594   4275.2070      0.0000      3.5774      0.3162
  3128.6000      8.6594   4275.2070      0.0000      3.5774     -0.0391
  3128.5500      8.6594   4280.3711      0.0000      3.6285      0.0177
  3128.5000      8.6594   4296.6323      0.0000      3.5065      0.1462
  3128.4500      8.6594   4296.6323      0.0000      3.5065      0.7141
  3128.4000      8.5893   4319.2236      0.0000      3.5164     -0.0986
  3128.3500      8.5893   4338.4351      0.0000      3.5774      0.4617
  3128.3000      8.5893   4338.4351      0.0000      3.5774     -0.1031
  3128.2500      8.6411   4346.9624      0.0000      3.5568      0.1663
  3128.2000      8.6411   4349.1284      0.0000      3.6179      0.0397
  3128.1500      8.6411   4349.1284      0.0000      3.6179      0.4459
  3128.1000      8.5344   4348.9404      0.0000      3.6079      0.0858
  3128.0500      8.5344   4348.9404      0.0000      3.6079      0.1324
  3128.0000      8.5344   4343.4668      0.0000      3.5873     -0.3769
  3127.9500      8.5009   4336.3086      0.0000      3.5774     -0.0150
  3127.9000      8.5009   4336.3086      0.0000      3.5774      0.2908
  3127.8500      8.5009   4333.2070      0.0000      3.5873     -0.2539
  3127.8000      8.3759   4329.1367      0.0000      3.6278      0.1544
  3127.7500      8.3759   4329.1367      0.0000      3.6278     -0.1508
  3127.7000      8.3210   4324.8931      0.0000      3.5973      0.0238
  3127.6500      8.3210   4327.4849      0.0000      3.5164     -0.1947
  3127.6000      8.3210   4327.4849      0.0000      3.5164     -0.0555
  3127.5500      8.2326   4327.5469      0.0000      3.5973      0.1416
  3127.5000      8.2326   4316.8916      0.0000      3.5873     -0.1120
  3127.4500      8.2326   4316.8916      0.0000      3.5873      0.2771
  3127.4000      8.1778   4304.3188      0.0000      3.5469     -0.0824
  3127.3500      8.1778   4293.5059      0.0000      3.5675     -0.1727
  3127.3000      8.1595   4293.5059      0.0000      3.5675     -0.2008
  3127.2500      8.1595   4282.2646      0.0000      3.5576     -0.1968
  3127.2000      8.1595   4277.3828      0.0000      3.6179      0.2155
  3127.1500      8.0528   4277.3828      0.0000      3.6179      0.2100
  3127.1000      8.0528   4283.4688      0.0000      3.6079     -0.0296
  3127.0500      8.0528   4292.5498      0.0000      3.5370      0.1480
  3127.0000      8.0711   4292.5498      0.0000      3.5370      0.0922
  3126.9500      8.0711   4296.5566      0.0000      3.5568     -0.0140
  3126.9000      7.9278   4290.6064      0.0000      3.5568      0.1825
  3126.8500      7.9278   4290.6064      0.0000      3.5568      0.1990
  3126.8000      7.9278   4267.9375      0.0000      3.5774      0.0400
  3126.7500      7.8395   4239.3535      0.0000      3.5774     -0.1602
  3126.7000      7.8395   4239.3535      0.0000      3.5774      0.0067
  3126.6500      7.3396   4231.2334      0.0000      3.5774     -0.0049
  3126.6000      6.2667   4246.5728      1.0000      3.6278      0.0983
  3126.5500      5.0719   4246.5728      1.0000      3.6278     -0.0317
  3126.5000      3.9106   4267.3247      0.0000      3.5370     -0.1282
  3126.4500      3.0876   4267.3247      0.0000      3.5370     -0.0684
  3126.4000      2.8926   4283.9614      0.0000      3.5774      0.0122
  3126.3500      2.8743   4289.8125      0.0000      3.5774     -0.2466
  3126.3000      2.8194   4289.8125      0.0000      3.5774     -0.0027
  3126.2500      2.8926   4278.6865      0.0000      3.4958     -0.0400
  3126.2000      2.9108   4263.0381      0.0000      3.5881     -0.0790
  3126.1500      2.9261   4263.0381      0.0000      3.5881      0.0040
  3126.1000      2.9444   4257.2529      0.0000      3.6072     -0.0433
  3126.0500      2.8743   4254.2930      0.0000      3.5675     -0.0702
  3126.0000      2.8926   4254.2930      0.0000      3.5675     -0.0119
  3125.9500      2.9261   4247.9126      0.0000      3.6385     -0.1062
  3125.9000      2.9444   4244.0200      0.0000      3.6682      0.1498
  3125.8500      2.9627   4244.0200      0.0000      3.6682      0.0000
  3125.8000      2.9108   4241.6226      0.0000      3.5675      0.0439
  3125.7500      2.7676   4238.6123      0.0000      3.5774      0.0696
  3125.7000      2.6761   4238.6123      0.0000      3.5774     -0.0296
  3125.6500      2.5878   4240.5918      0.0000      3.5873     -0.0876
  3125.6000      2.2830   4244.4648      0.0000      3.5774     -0.0128
  3125.5500      1.5514   4244.4648      0.0000      3.5774     -0.0198
  3125.5000      1.5514   4241.8257      0.0000      3.5774      0.0018
  3125.4500      1.7496   4238.4556      0.0000      3.5774     -0.1270
  3125.4000      2.4628   4238.4556      0.0000      3.5774     -0.0113
  3125.3500      2.4628   4241.4272      0.0000      3.5873      0.1456
  3125.3000      2.3561   4244.6406      0.0000      3.5774      0.0336
  3125.2500      2.2830   4244.6406      0.0000      3.5774      0.1257
  3125.2000      2.2830   4246.3047      0.0000      3.5774      0.0436
  3125.1500      2.2128   4249.9629      0.0000      3.5469     -0.0323
  3125.1000      2.1427   4249.9629      0.0000      3.5469     -0.0085
  3125.0500      2.1763   4252.2393      0.0000      3.5774      0.0473
  3125.0000      2.2494   4252.2393      0.0000      3.5774     -0.1007
  3124.9500      2.1946   4253.7500      0.0000      3.5774     -0.0934
  3124.9000      2.1062   4258.7998      0.0000      3.5469      0.0357
  3124.8500      2.1763   4258.7998      0.0000      3.5469     -0.0937
  3124.8000      2.1763   4263.3857      0.0000      3.5873      0.0064
  3124.7500      2.1062   4266.0557      0.0000      3.5675     -0.0574
  3124.7000      2.1427   4266.0557      0.0000      3.5675     -0.1041
  3124.6500      2.0330   4269.1836      0.0000      3.6179     -0.0879
  3124.6000      1.9812   4259.8066      0.0000      3.5469      0.0137
  3124.5500      1.9263   4259.8066      0.0000      3.5469      0.0314
  3124.5000      1.9629   4229.0869      0.0000      3.4660     -0.0034
  3124.4500      2.0513   4202.9346      1.0000      3.5675     -0.1245
  3124.4000      0.3200   4202.9346      1.0000      3.5675     -0.0012
  3124.3500      1.0698   4200.4165      0.0000      3.5774     -0.0189
  3124.3000      1.8379   4200.1157      0.0000      3.5873      0.0345
  3124.2500      2.6060   4200.1157      0.0000      3.5873     -0.0159
  3124.2000      0.3901   4192.6563      1.0000      3.5774     -2.0266
  3124.1500      0.9632   4198.9722      1.0000      3.5774     -2.0128
  3124.1000      1.7130   4198.9722      1.0000      3.5774     -2.0134
  3124.0500      2.2677   4224.8965      1.0000      3.5469     -2.0070
  3124.0000      2.8194   4260.3135      1.0000      3.5774     -2.0101
  3123.9500      3.0510   4260.3135      1.0000      3.5774     -2.0073
  3123.9000      3.0876   4300.7339      0.0000      3.5774     -2.0162
