~Version Information
VERS.                      2.0: CWLS Log ASCII Standard - VERSION 2.0
WRAP.                       NO: One line per depth step
~Well Information Block
STRT.M               3169.9500: START DEPTH
STOP.M               3076.7000: STOP DEPTH
STEP.M                 -0.0500: STEP
NULL.                -999.2500: NULL VALUE
COMP.                  Statoil: COMPANY
WELL.                15/9-F-12: WELL
FLD.                     Volve: FIELD
LOC.                          : LOCATION
SRVC.          Halliburton Logging Services: SERVICE COMPANY
DATE.          Wed Nov 26 07-57-02 2014: LOG DATE
UWI.                          : UNIQUE WELL ID
SECT.                         : SECTION
TOWN.                         : TOWNSHIP
RANG.                         : RANGE
API.                          : API#
OS.                           : OTHER SERVICES
PDAT.FT                       : PERMANENT DATUM
EEL.FT                        : ELEVATION
LMF.FT                        : LOG MEASURED FROM
DMF.FT                        : DRILLING MEASURED FROM
EKB.FT                        : KB
EDF.FT                        : DF
EGL.FT                        : GL
DATE1.                        : DATE1
RUN1.                         : RUN NUMBER
TDD1.FT                       : DEPTH DRILLER
TDL1.FT                       : DEPTH LOGGER
BLI1.FT                       : BOTTOM LOGGED INTERVAL
TLI1.FT                       : TOP LOG INTERVAL
CDD1.IN_FT                    : CASING DRILLER
CDL1.FT                       : CASING LOGGER
BS1.IN                        : BIT SIZE
DFT1.                         : TYPE FLUID IN HOLE
DFDV1.GM/C3_CP                : DENSITY/VISCOSITY
DFPL1.C3                      : PH/FLUID LOSS
MSS1.                         : SOURCE OF SAMPLE
RMT1.OHHM_DEGF                : RM@MEASURED TEMP
RMFT1.OHMM_DEGF                : RMF@MEASURED TEMP
RMCT1.OHMM_DEGF                : RMC@MEASURED TEMP
RMFS1.                        : SOURCE OF RMF/RMC
RMBT1.OHMM_DEGF                : RM@BHT
TCS1.                         : TIME CIRCULATION STOPPED
TLOB1.                        : TIME LOGGER ON BOTTOM
BHT1.DEGF                     : MAXIMUM RECORDED TEMPERATURE
LUN1.                         : EQUIPMENT NUMBER
LUL1.                         : LOCATION
ENGI1.                        : RECORDED BY
WITN1.                        : WITNESSED BY
~Curve Information Block
DEPT.M             0 000 00 00: Depth
LSPD.M/MIN                   0: Line Speed
LTEN.LB                      0: Surface Line Tension
MINMK.                       0: Minute Mark Ticks
GR.GAPI                      0: Gamma Ray
CCL.                         0: Casing Collar Locator
ACCX.                        0: X Axis Accelerometer
ACCY.                        0: Y Axis Accelerometer
ACCZ.                        0: Z Axis Accelerometer
RB.DEG                       0: Relative Bearing
DEVI.DEG                     0: Deviation
TOTG.GEE                     0: Total G
RBRef.DEG                    0: RB Reference
IntTemp.DEGF                 0: Internal Electronics Temperature
~Parameter Information Block
~A  Depth       LSPD        LTEN       MINMK         GR         CCL         ACCX        ACCY        ACCZ         RB         DEVI        TOTG       RBRef      IntTemp   
# ...
  3093.1500      9.4458   4199.0552      1.0000     22.1179    542.0000   2585.8999   1416.4000   2108.7000     28.7113      0.0248   3624.8701    -28.7113    226.1511
  3093.1000      9.4458   4131.5933      0.0000     21.6793    534.0000   2608.0000   1419.2000   2117.1001     28.5538      0.0247   3646.6294    -28.5538    226.1251
  3093.0500      9.5189   4114.4473      0.0000     22.3059    533.0000   2600.7000   1413.5000   2124.3999     28.5244      0.0247   3643.4458    -28.5244    226.1173
  3093.0000      9.5189   4139.7300      0.0000     23.0578    530.0000   2582.2000   1422.2000   2140.5000     28.8447      0.0247   3643.0962    -28.8447    226.1209
  3092.9500      9.5189   4221.2788      0.0000     23.9350    510.0000   2569.2000   1442.6000   2125.8000     29.3141      0.0248   3633.3054    -29.3141    226.1251
  3092.9000      9.5189   4234.8076      0.0000     24.4362    521.0000   2561.8000   1451.5000   2112.6001     29.5356      0.0248   3623.9138    -29.5356    226.1314
  3092.8500      9.4823   4205.4497      0.0000     25.4387    527.0000   2564.3000   1475.8000   2099.7000     29.9212      0.0248   3627.9968    -29.9212    226.1448
  3092.8000      9.4823   4190.5957      0.0000     25.0001    529.0000   2542.3999   1501.6000   2104.3999     30.5671      0.0248   3625.8928    -30.5671    226.1567
  3092.7500      9.4823   4231.1650      0.0000     23.7470    539.0000   2529.0000   1508.0000   2099.7000     30.8069      0.0249   3616.4409    -30.8069    226.1694
  3092.7000      9.4458   4262.8403      0.0000     23.8096    531.0000   2537.8000   1513.2000   2104.1001     30.8061      0.0248   3627.3186    -30.8061    226.1813
  3092.6500      9.4458   4260.0630      0.0000     23.9976    533.0000   2532.8999   1493.8000   2119.7000     30.5304      0.0248   3624.9343    -30.5304    226.1961
  3092.6000      9.4458   4238.2612      0.0000     23.6217    523.0000   2526.1001   1499.7000   2114.3000     30.6968      0.0249   3619.4678    -30.6968    226.2052
  3092.5500      9.4640   4236.2178      0.0000     24.5615    529.0000   2521.3000   1519.4000   2137.6001     31.0742      0.0247   3637.9753    -31.0742    226.2102
  3092.5000      9.4640   4253.8970      0.0000     25.5014    510.0000   2520.1001   1517.0000   2111.8000     31.0463      0.0249   3621.0347    -31.0463    226.2102
  3092.4500      9.4640   4261.0562      0.0000     25.4387    516.0000   2524.1001   1519.3000   2099.7000     31.0445      0.0249   3617.7471    -31.0445    226.2095
  3092.4000      9.4275   4239.3530      0.0000     24.7495    531.0000   2520.8000   1541.1000   2120.3999     31.4397      0.0247   3636.6904    -31.4397    226.2088
  3092.3500      9.4275   4190.3027      0.0000     24.8748    543.0000   2509.8999   1545.9000   2117.5000     31.6298      0.0248   3629.4917    -31.6298    226.2088
  3092.3000      9.4275   4148.4863      0.0000     24.7495    548.0000   2507.8000   1536.4000   2109.6001     31.4937      0.0249   3619.3921    -31.4937    226.2109
  3092.2500      9.4092   4152.5737      0.0000     24.0603    526.0000   2514.3000   1544.2000   2126.6001     31.5569      0.0247   3637.1260    -31.5569    226.2172
  3092.2000      9.4092   4212.1104      0.0000     23.8723    528.0000   2517.8000   1557.7000   2143.3999     31.7440      0.0246   3655.1211    -31.7440    226.2249
  3092.1500      9.4092   4240.0444      0.0000     25.1254    538.0000   2537.8999   1559.4000   2176.5000     31.5684      0.0244   3689.1484    -31.5684    226.2242
  3092.1000      9.4275   4237.1138      0.0000     25.3134    521.0000   2542.3999   1566.8000   2144.3000     31.6442      0.0245   3676.5042    -31.6442    226.2193
  3092.0500      9.4275   4244.9766      0.0000     25.4387    509.0000   2543.2000   1565.3000   2139.2000     31.6117      0.0245   3673.4460    -31.6117    226.2045
  3092.0000      9.4275   4278.4111      0.0000     26.8798    536.0000   2539.6001   1575.0000   2143.3999     31.8062      0.0245   3677.5476    -31.8062    226.1919
  3091.9500      9.4275   4302.6323      0.0000     27.3184    512.0000   2539.0000   1575.6000   2135.3000     31.8221      0.0245   3672.6750    -31.8221    226.1792
  3091.9000      9.4275   4288.6636      0.0000     27.3811    550.0000   2520.0000   1571.7000   2073.3999     31.9514      0.0248   3622.1028    -31.9514    226.1813
  3091.8500      9.4275   4250.4297      0.0000     27.1305    506.0000   2515.8000   1566.8000   2072.2000     31.9140      0.0249   3616.3691    -31.9140    226.1870
  3091.8000      9.4275   4224.8301      0.0000     27.0051    507.0000   2508.0000   1569.2000   2100.8000     32.0333      0.0248   3628.4727    -32.0333    226.2045
  3091.7500      9.5006   4227.5659      0.0000     24.8748    524.0000   2502.3999   1570.9000   2105.6001     32.1189      0.0248   3628.1240    -32.1189    226.2235
  3091.7000      9.5006   4249.5767      0.0000     22.2432    524.0000   2502.0000   1560.7000   2116.8999     31.9551      0.0248   3630.0212    -31.9551    226.2516
  3091.6500      9.5006   4245.7910      0.0000     19.2983    517.0000   2502.3000   1556.9000   2091.7000     31.8894      0.0249   3613.9524    -31.8894    226.2657
  3091.6000      9.5006   4219.0527      0.0000     17.9199    525.0000   2518.0000   1539.4000   2122.8999     31.4399      0.0248   3635.4890    -31.4399    226.2720
  3091.5500      9.5006   4203.1318      0.0000     16.2908    527.0000   2519.8999   1526.5000   2164.7000     31.2066      0.0246   3655.9573    -31.2066    226.2748
  3091.5000      9.5006   4225.7954      0.0000     16.2908    515.0000   2532.8999   1526.8000   2141.8000     31.0810      0.0246   3651.5762    -31.0810    226.2748
  3091.4500      9.4823   4265.7944      0.0000     17.4186    540.0000   2544.2000   1517.0000   2143.3999     30.8059      0.0246   3656.2830    -30.8059    226.2727
  3091.4000      9.4823   4273.3423      0.0000     19.4863    524.0000   2559.6001   1513.3000   2132.0000     30.5926      0.0246   3658.8323    -30.5926    226.2692
  3091.3500      9.4823   4219.6489      0.0000     20.2382    543.0000   2558.8999   1524.2000   2158.8000     30.7800      0.0245   3678.5286    -30.7800    226.2720
  3091.3000      9.4823   4198.3472      0.0000     21.5540    509.0000   2559.6001   1521.2000   2170.1001     30.7235      0.0244   3684.4180    -30.7235    226.2769
  3091.2500      9.4823   4223.6978      0.0000     22.6818    502.0000   2545.8000   1547.5000   2102.1001     31.2939      0.0247   3646.1870    -31.2939    226.2833
  3091.2000      9.4823   4257.8105      0.0000     22.2432    527.0000   2526.8999   1536.0000   2085.3000     31.2937      0.0249   3618.4243    -31.2937    226.2875
  3091.1500      9.4275   4259.4678      0.0000     21.8046    523.0000   2515.8999   1556.7000   2059.3000     31.7469      0.0250   3604.6892    -31.7469    226.2861
  3091.1000      9.4275   4245.1875      0.0000     22.7445    526.0000   2505.1001   1559.3000   2095.8000     31.9002      0.0249   3619.2983    -31.9002    226.2819
  3091.0500      9.4275   4250.7432      0.0000     22.7445    544.0000   2503.7000   1567.1000   2081.5000     32.0430      0.0249   3613.4414    -32.0430    226.2734
  3091.0000      9.4275   4280.2495      0.0000     22.1179    537.0000   2515.0000   1568.9000   2052.8999     31.9566      0.0250   3605.6997    -31.9566    226.2699
  3090.9500      9.4275   4326.0322      0.0000     24.8748    520.0000   2512.1001   1563.3000   2067.5000     31.8943      0.0249   3609.5859    -31.8943    226.2713
  3090.9000      9.4275   4341.0098      0.0000     26.6919    516.0000   2512.8999   1554.8000   2094.8999     31.7462      0.0248   3622.2471    -31.7462    226.2776
  3090.8500      9.4275   4347.8696      0.0000     28.6969    519.0000   2513.8000   1553.3000   2154.0000     31.7123      0.0246   3656.7263    -31.7123    226.2769
  3090.8000      9.4458   4346.6914      0.0000     31.2658    527.0000   2497.5000   1543.6000   2146.3000     31.7185      0.0247   3636.8684    -31.7185    226.2784
