~Version Information
VERS.                      2.0: CWLS Log ASCII Standard - VERSION 2.0
WRAP.                       NO: One line per depth step
~Well Information Block
STRT.M               3782.3500: START DEPTH
STOP.M               3681.1500: STOP DEPTH
STEP.M                 -0.0500: STEP
NULL.                -999.2500: NULL VALUE
COMP.                  STATOIL: COMPANY
WELL.               15/9-F-1-C: WELL
FLD.                     VOLVE: FIELD
LOC.                          : LOCATION
SRVC.          Halliburton Logging Services: SERVICE COMPANY
DATE.          Thu Dec 04 04-49-02 2014: LOG DATE
UWI.                          : UNIQUE WELL ID
CTRY.                   NORWAY: COUNTRY
SECT.                         : SECTION
TOWN.                         : TOWNSHIP
RANG.                         : RANGE
API.                          : API#
OS.                   --NONE--: OTHER SERVICES
PDAT.FT                  M.S.L: PERMANENT DATUM
EEL.FT                   54.9M: ELEVATION
LMF.FT                   R.K.B: LOG MEASURED FROM
DMF.FT                   R.K.B: DRILLING MEASURED FROM
EKB.FT                   54.9M: KB
EDF.FT                   54.9M: DF
EGL.FT                    -91M: GL
DATE1.         03-DEC-14 @ 05:47: DATE1
RUN1.                    1 & 2: RUN NUMBER
TDD1.FT                  4094M: DEPTH DRILLER
TDL1.FT                  3782M: DEPTH LOGGER
BLI1.FT                  3772M: BOTTOM LOGGED INTERVAL
TLI1.FT                  3572M: TOP LOG INTERVAL
CDD1.IN_FT                    : CASING DRILLER
CDL1.FT                       : CASING LOGGER
BS1.IN                    8.5": BIT SIZE
DFT1.                SEA WATER: TYPE FLUID IN HOLE
DFDV1.GM/C3_CP          1.03SG: DENSITY/VISCOSITY
DFPL1.C3                      : PH/FLUID LOSS
MSS1.                         : SOURCE OF SAMPLE
RMT1.OHHM_DEGF                : RM@MEASURED TEMP
RMFT1.OHMM_DEGF                : RMF@MEASURED TEMP
RMCT1.OHMM_DEGF                : RMC@MEASURED TEMP
RMFS1.                        : SOURCE OF RMF/RMC
RMBT1.OHMM_DEGF                : RM@BHT
TCS1.                         : TIME CIRCULATION STOPPED
TLOB1.                36 HOURS: TIME LOGGER ON BOTTOM
BHT1.DEGF                 FULL: MAXIMUM RECORDED TEMPERATURE
LUN1.                 12030699: EQUIPMENT NUMBER
LUL1.                   NORWAY: LOCATION
ENGI1.              C.JAMIESON: RECORDED BY
WITN1.                A.ALBAWI: WITNESSED BY
~Curve Information Block
DEPT.M             0 000 00 00: Depth
LSPD.M/MIN                   0: Line Speed
LTEN.LB                      0: Surface Line Tension
MINMK.                       0: Minute Mark Ticks
HVOLTA.V                     0: Head Voltage Apparent
CCL.                         0: Casing Collar Locator
~Parameter Information Block
SRFTEMP.DEGC           12.0000: Surface Temperature
MudWgt.LB/GAL           8.5600: Mud Weight
CASETHCK.IN             0.4530: Casing Thickness
BITSIZE.IN             12.2500: Borehole I.D.
~Other Information
TOOL STRING DEPLOYED BY ALTUS INTERVENTION WIRELINE UNIT ON 7/16" CABLE
CABLE HEAD BUILT BY ALTUS
LOG CORRELATED TO SHLUMBERGER 4.5" HSD OX POWER JET PULS DATED 09.APRIL.2014
CORRELATION LOG IS SHALLOWER BY 1.4M, DEPTH SHIFTED 1.4M DOWN AS PER
CLIENTS REQUEST.
4.655" HSC GUN 10 AND 350 DEGREE PHASING, 39 GR MILLENIUM, 4 SHOTS PER FOOT.
ATTEMPT WAS MADE TO RUN 4 GUNS IN ONE STRING BUT AT 3600M PICK UP WEIGHT 
WAS TOO HIGH TO CONTINUE.  CLIENT D4ECIDED TO SPLIT UP ONTO TWO RUNS.
RUN #1 CCL TO TOP SHOT 3.25 M, CCL STOP DEPT: 3729.75 M
PERFORATION INTERVAL 3733M - 3742.6M
RUN #2 CCL TO TOP SHOT 3.25 M, CCL STOP DEPT: 3711.75 M
PERFORATION INTERVAL 3715M - 3724.6M

~A  Depth       LSPD        LTEN       MINMK       HVOLTA       CCL     
# ...
  3737.5500      9.3756   6729.8374      0.0000      3.4546     -0.0143
  3737.5000      9.3756   6729.8374      0.0000      3.4546     -0.0275
  3737.4500      9.3756   6719.2090      0.0000      3.5057     -0.0488
  3737.4000      9.3939   6704.9834      0.0000      3.4950      0.0372
  3737.3500      9.3939   6704.9834      0.0000      3.4950     -0.0082
  3737.3000      9.3939   6686.7734      0.0000      3.4851      0.0134
  3737.2500      9.4458   6679.9888      0.0000      3.4851      0.0189
  3737.2000      9.4458   6679.9888      0.0000      3.4851     -0.0253
  3737.1500      9.4458   6694.4312      0.0000      3.4447     -0.0446
  3737.1000      9.4092   6715.2769      0.0000      3.5156      0.0369
  3737.0500      9.4092   6715.2769      0.0000      3.5156     -0.0107
  3737.0000      9.4092   6741.2368      0.0000      3.5156     -0.0137
  3736.9500      9.4458   6789.3813      1.0000      3.5461     -0.0031
  3736.9000      9.4458   6789.3813      1.0000      3.5461      0.0165
  3736.8500      9.4458   6848.2017      0.0000      3.4958      0.0479
  3736.8000      9.4092   6886.3477      0.0000      3.4645      0.0137
  3736.7500      9.4092   6886.3477      0.0000      3.4645      0.0089
  3736.7000      9.4092   6895.7100      0.0000      3.4851     -0.1242
  3736.6500      9.3574   6878.3945      0.0000      3.5156     -0.0510
  3736.6000      9.3574   6878.3945      0.0000      3.5156     -0.2335
  3736.5500      9.3574   6831.6812      0.0000      3.4645      0.3604
  3736.5000      9.3756   6765.6597      0.0000      3.4950      0.0400
  3736.4500      9.3756   6765.6597      0.0000      3.4950      0.5615
  3736.4000      9.3756   6694.6743      0.0000      3.4950     -0.0275
  3736.3500      9.3756   6626.9541      0.0000      3.4950     -0.1196
  3736.3000      9.3756   6626.9541      0.0000      3.4950     -0.0409
  3736.2500      9.3756   6582.1489      0.0000      3.5057      0.0235
  3736.2000      9.3939   6580.6929      0.0000      3.4546      0.0696
  3736.1500      9.3939   6580.6929      0.0000      3.4546     -0.0772
  3736.1000      9.3939   6612.7207      0.0000      3.4340     -0.0073
  3736.0500      9.3939   6612.7207      0.0000      3.4340     -0.0070
  3736.0000      9.4640   6653.4180      0.0000      3.4950     -0.0061
  3735.9500      9.4640   6691.4990      0.0000      3.4950     -0.0134
  3735.9000      9.4640   6691.4990      0.0000      3.4950     -0.0079
  3735.8500      9.4458   6719.0913      0.0000      3.5057     -0.0070
  3735.8000      9.4458   6735.6426      0.0000      3.4950     -0.0034
  3735.7500      9.4458   6735.6426      0.0000      3.4950     -0.0104
  3735.7000      9.4458   6759.3706      0.0000      3.4645     -0.0101
  3735.6500      9.4458   6792.0098      0.0000      3.4447     -0.0085
  3735.6000      9.4458   6792.0098      0.0000      3.4447     -0.0153
  3735.5500      9.4092   6812.3911      0.0000      3.4950     -0.0073
  3735.5000      9.4092   6822.9141      0.0000      3.5255     -0.0302
  3735.4500      9.4092   6822.9141      0.0000      3.5255     -0.0125
  3735.4000      9.3574   6842.1831      0.0000      3.4546     -0.0131
  3735.3500      9.3574   6864.5981      0.0000      3.4851      0.0085
  3735.3000      9.3574   6864.5981      0.0000      3.4851     -0.0070
  3735.2500      9.3574   6880.7446      0.0000      3.4447     -0.0064
  3735.2000      9.3574   6896.7246      0.0000      3.5156     -0.0098
  3735.1500      9.3574   6896.7246      0.0000      3.5156      0.0641
  3735.1000      9.3391   6904.8042      0.0000      3.4752     -0.3531
  3735.0500      9.3391   6890.7168      0.0000      3.4851     -0.0037
  3735.0000      9.3391   6890.7168      0.0000      3.4851     -0.2466
  3734.9500      9.3574   6861.2202      0.0000      3.5156      0.5524
  3734.9000      9.3574   6820.1997      0.0000      3.4851     -0.4108
  3734.8500      9.3574   6820.1997      0.0000      3.4851      0.9836
  3734.8000      9.3574   6758.7944      0.0000      3.5057     -0.4370
  3734.7500      9.4458   6686.6543      0.0000      3.4752      1.0724
  3734.7000      9.4458   6686.6543      0.0000      3.4752     -0.8026
  3734.6500      9.4458   6625.9907      0.0000      3.5057     -0.2277
  3734.6000      9.4640   6625.9907      0.0000      3.5057      0.3506
  3734.5500      9.4640   6587.1763      0.0000      3.4851     -0.0635
  3734.5000      9.4640   6578.8315      0.0000      3.4950      0.0391
  3734.4500      9.4823   6578.8315      0.0000      3.4950     -0.0745
  3734.4000      9.4823   6604.9985      0.0000      3.4851      0.0101
  3734.3500      9.4823   6647.5078      0.0000      3.4851     -0.0171
  3734.3000      9.4823   6647.5078      0.0000      3.4851     -0.0082
  3734.2500      9.4823   6691.2412      0.0000      3.4241     -0.0058
  3734.2000      9.4823   6741.2720      0.0000      3.4851     -0.0134
  3734.1500      9.3939   6741.2720      0.0000      3.4851     -0.0098
  3734.1000      9.3939   6794.6069      0.0000      3.4950     -0.0153
  3734.0500      9.3939   6841.2319      0.0000      3.4447     -0.0101
  3734.0000      9.3756   6841.2319      0.0000      3.4447     -0.0034
  3733.9500      9.3756   6884.5405      0.0000      3.4950     -0.0098
  3733.9000      9.3756   6921.6040      0.0000      3.5057     -0.0092
  3733.8500      9.3391   6921.6040      0.0000      3.5057      0.0000
  3733.8000      9.3391   6937.8057      0.0000      3.4653      0.0476
  3733.7500      9.3391   6938.7202      0.0000      3.4752      0.0867
  3733.7000      9.3391   6938.7202      0.0000      3.4752     -0.0858
  3733.6500      9.3391   6940.4683      0.0000      3.4546      0.0430
  3733.6000      9.3391   6939.2856      0.0000      3.4752     -0.2051
  3733.5500      9.3391   6939.2856      0.0000      3.4752      0.0897
  3733.5000      9.3574   6930.8765      0.0000      3.4851     -0.0128
  3733.4500      9.3574   6919.6445      0.0000      3.4645      0.0113
  3733.4000      9.3574   6919.6445      0.0000      3.4645     -0.0101
  3733.3500      9.3939   6898.1304      0.0000      3.4950     -0.0555
  3733.3000      9.3939   6867.8472      0.0000      3.4546     -0.1706
  3733.2500      9.3939   6867.8472      0.0000      3.4546      0.0366
  3733.2000      9.4275   6851.5742      0.0000      3.4752      0.0122
  3733.1500      9.4275   6853.8086      0.0000      3.4851     -0.0543
  3733.1000      9.4275   6853.8086      0.0000      3.4851     -0.0320
  3733.0500      9.4275   6860.6680      0.0000      3.4950     -0.0043
  3733.0000      9.4275   6860.6680      0.0000      3.4950     -0.0146
  3732.9500      9.4275   6878.0308      0.0000      3.4851     -0.0107
  3732.9000      9.3939   6913.0425      0.0000      3.4950     -0.0021
  3732.8500      9.3939   6913.0425      0.0000      3.4950     -0.0183
  3732.8000      9.3939   6948.6831      0.0000      3.4851     -0.0146
  3732.7500      9.3756   6977.0186      0.0000      3.4851     -0.0131
  3732.7000      9.3756   6977.0186      0.0000      3.4851     -0.0119
  3732.6500      9.3756   7001.3525      0.0000      3.4851     -0.0174
  3732.6000      9.3208   7005.8291      0.0000      3.4950     -0.0757
  3732.5500      9.3208   7005.8291      0.0000      3.4950      0.0842
  3732.5000      9.3208   6983.0664      0.0000      3.5057      0.0760
  3732.4500      9.3208   6952.8047      0.0000      3.5057      0.0345
  3732.4000      9.3391   6952.8047      0.0000      3.5057      0.1837
  3732.3500      9.3391   6923.8276      0.0000      3.4752      0.3262
  3732.3000      9.3391   6893.2842      0.0000      3.4546      0.2271
  3732.2500      9.3939   6893.2842      0.0000      3.4546      0.3152
  3732.2000      9.3939   6870.5425      0.0000      3.4851     -0.1987
  3732.1500      9.3939   6854.3306      0.0000      3.4950      0.0522
  3732.1000      9.4275   6854.3306      0.0000      3.4950     -0.0574
  3732.0500      9.4275   6829.6123      0.0000      3.5156     -0.0891
  3732.0000      9.4275   6804.7847      0.0000      3.4546      0.0220
