~Version Information
VERS.                      2.0: CWLS Log ASCII Standard - VERSION 2.0
WRAP.                       NO: One line per depth step
~Well Information Block
STRT.M               3169.9500: START DEPTH
STOP.M               3076.7000: STOP DEPTH
STEP.M                 -0.0500: STEP
NULL.                -999.2500: NULL VALUE
COMP.                  Statoil: COMPANY
WELL.                15/9-F-12: WELL
FLD.                     Volve: FIELD
LOC.                          : LOCATION
SRVC.          Halliburton Logging Services: SERVICE COMPANY
DATE.          Wed Nov 26 07-57-02 2014: LOG DATE
UWI.                          : UNIQUE WELL ID
SECT.                         : SECTION
TOWN.                         : TOWNSHIP
RANG.                         : RANGE
API.                          : API#
OS.                           : OTHER SERVICES
PDAT.FT                       : PERMANENT DATUM
EEL.FT                        : ELEVATION
LMF.FT                        : LOG MEASURED FROM
DMF.FT                        : DRILLING MEASURED FROM
EKB.FT                        : KB
EDF.FT                        : DF
EGL.FT                        : GL
DATE1.                        : DATE1
RUN1.                         : RUN NUMBER
TDD1.FT                       : DEPTH DRILLER
TDL1.FT                       : DEPTH LOGGER
BLI1.FT                       : BOTTOM LOGGED INTERVAL
TLI1.FT                       : TOP LOG INTERVAL
CDD1.IN_FT                    : CASING DRILLER
CDL1.FT                       : CASING LOGGER
BS1.IN                        : BIT SIZE
DFT1.                         : TYPE FLUID IN HOLE
DFDV1.GM/C3_CP                : DENSITY/VISCOSITY
DFPL1.C3                      : PH/FLUID LOSS
MSS1.                         : SOURCE OF SAMPLE
RMT1.OHHM_DEGF                : RM@MEASURED TEMP
RMFT1.OHMM_DEGF                : RMF@MEASURED TEMP
RMCT1.OHMM_DEGF                : RMC@MEASURED TEMP
RMFS1.                        : SOURCE OF RMF/RMC
RMBT1.OHMM_DEGF                : RM@BHT
TCS1.                         : TIME CIRCULATION STOPPED
TLOB1.                        : TIME LOGGER ON BOTTOM
BHT1.DEGF                     : MAXIMUM RECORDED TEMPERATURE
LUN1.                         : EQUIPMENT NUMBER
LUL1.                         : LOCATION
ENGI1.                        : RECORDED BY
WITN1.                        : WITNESSED BY
~Curve Information Block
DEPT.M             0 000 00 00: Depth
LSPD.M/MIN                   0: Line Speed
LTEN.LB                      0: Surface Line Tension
MINMK.                       0: Minute Mark Ticks
GR.GAPI                      0: Gamma Ray
CCL.                         0: Casing Collar Locator
ACCX.                        0: X Axis Accelerometer
ACCY.                        0: Y Axis Accelerometer
ACCZ.                        0: Z Axis Accelerometer
RB.DEG                       0: Relative Bearing
DEVI.DEG                     0: Deviation
TOTG.GEE                     0: Total G
RBRef.DEG                    0: RB Reference
IntTemp.DEGF                 0: Internal Electronics Temperature
~Parameter Information Block
~A  Depth       LSPD        LTEN       MINMK         GR         CCL         ACCX        ACCY        ACCZ         RB         DEVI        TOTG       RBRef      IntTemp   
# ...
  3129.1500      9.1074   4305.5757      0.0000     12.7820    539.0000  -1780.8000  -2301.5000   2206.8999    232.2689      0.0246   3652.1992    127.7311    225.7081
  3129.1000      9.1074   4298.1929      0.0000     13.2833    515.0000  -1761.9000  -2305.2000   2227.8999    232.6088      0.0246   3658.1111    127.3912    225.7137
  3129.0500      9.1775   4289.1230      0.0000     14.8497    512.0000  -1745.6000  -2372.6001   2228.2000    233.6569      0.0244   3693.4031    126.3431    225.7173
  3129.0000      9.1775   4300.3477      0.0000     16.7921    522.0000  -1670.0000  -2437.2000   2245.5000    235.5806      0.0243   3710.9451    124.4194    225.7201
  3128.9500      9.1775   4312.7866      0.0000     17.7946    531.0000  -1638.5000  -2503.7000   2243.7000    236.7980      0.0241   3739.9712    123.2020    225.7215
  3128.9000      9.1257   4296.9268      0.0000     18.6718    534.0000  -1567.0000  -2510.3999   2223.8999    238.0275      0.0243   3701.8005    121.9725    225.7306
  3128.8500      9.1257   4251.0083      0.0000     19.9876    528.0000  -1528.5000  -2481.2000   2229.2000    238.3656      0.0245   3669.0596    121.6344    225.7334
  3128.8000      9.1257   4199.0142      0.0000     21.3660    525.0000  -1483.1000  -2507.2000   2174.8000    239.3941      0.0248   3635.2981    120.6059    225.7313
  3128.7500      9.1775   4183.2559      0.0000     20.9274    525.0000  -1422.7000  -2468.3000   2147.2000    240.0413      0.0252   3567.4988    119.9587    225.7292
  3128.7000      9.1775   4233.9946      0.0000     20.8648    533.0000  -1385.0000  -2471.6001   2118.0000    240.7352      0.0254   3537.3657    119.2648    225.7250
  3128.6500      9.1775   4269.0273      0.0000     20.7395    536.0000  -1390.6000  -2426.8999   2136.3999    240.1875      0.0256   3519.6328    119.8125    225.7116
  3128.6000      9.1775   4270.0586      0.0000     20.0502    520.0000  -1399.9000  -2426.3999   2164.0000    240.0174      0.0254   3539.7786    119.9826    225.7011
  3128.5500      9.1958   4253.8735      0.0000     17.2933    512.0000  -1346.0000  -2557.7000   2150.3999    242.2442      0.0250   3602.4666    117.7558    225.7053
  3128.5000      9.1958   4293.5273      0.0000     15.9149    524.0000  -1314.1000  -2614.6001   2169.8000    243.3159      0.0247   3642.9417    116.6841    225.7222
  3128.4500      9.1074   4356.1118      0.0000     14.7244    557.0000  -1296.2000  -2626.0000   2188.3000    243.7289      0.0246   3655.7717    116.2711    225.7313
  3128.4000      9.1074   4388.5288      0.0000     14.2858    533.0000  -1260.0000  -2631.5000   2199.0000    244.4142      0.0246   3653.4905    115.5858    225.7559
  3128.3500      9.1074   4362.4536      0.0000     14.2231    526.0000  -1229.2000  -2657.7000   2183.3000    245.1792      0.0246   3652.5471    114.8208    225.7735
  3128.3000      9.1410   4326.1826      0.0000     14.5364    504.0000  -1188.3000  -2714.2000   2134.2000    246.3558      0.0246   3651.5405    113.6442    225.7707
  3128.2500      9.1410   4299.7656      0.0000     16.1028    517.0000  -1155.7000  -2712.6001   2137.3000    246.9236      0.0247   3641.6882    113.0764    225.7573
  3128.2000      9.1410   4278.3462      0.0000     17.0427    530.0000  -1136.7000  -2700.3000   2153.8999    247.1712      0.0248   3636.3433    112.8288    225.7405
  3128.1500      9.1257   4250.4614      0.0000     17.2307    530.0000  -1123.7000  -2718.8999   2167.7000    247.5451      0.0246   3654.3181    112.4549    225.7306
  3128.1000      9.1257   4199.6299      0.0000     17.0427    524.0000  -1096.9000  -2750.2000   2158.1001    248.2557      0.0246   3663.9031    111.7443    225.7292
  3128.0500      9.1257   4159.6479      0.0000     16.9174    525.0000  -1081.6000  -2741.2000   2178.8999    248.4672      0.0246   3664.9202    111.5328    225.7391
  3128.0000      9.1257   4117.5732      0.0000     15.9149    528.0000  -1057.7000  -2749.8999   2210.8000    248.9617      0.0244   3683.5195    111.0383    225.7545
  3127.9500      9.1592   4167.4067      0.0000     16.4161    530.0000  -1053.9000  -2758.7000   2208.3000    249.0918      0.0244   3687.5085    110.9082    225.7602
  3127.9000      9.1592   4213.4390      0.0000     16.9174    524.0000  -1023.1000  -2804.5000   2219.1001    249.9577      0.0242   3719.7256    110.0423    225.7630
  3127.8500      9.1592   4220.0684      0.0000     17.9199    534.0000   -985.5000  -2820.0000   2182.5000    250.7371      0.0243   3699.5833    109.2629    225.7524
  3127.8000      9.1775   4202.8540      0.0000     20.0502    539.0000   -956.7000  -2810.6001   2207.3000    251.2019      0.0243   3699.5840    108.7981    225.7468
  3127.7500      9.1775   4229.2471      0.0000     20.3635    525.0000   -919.8000  -2817.1001   2178.1001    251.9178      0.0245   3677.7988    108.0822    225.7447
  3127.7000      9.1775   4286.5562      0.0000     19.5490    543.0000   -852.5000  -2850.3999   2154.2000    253.3491      0.0245   3673.1611    106.6509    225.7468
  3127.6500      9.1257   4317.2661      0.0000     18.6718    498.0000   -795.4000  -2840.2000   2158.5000    254.3551      0.0246   3654.9309    105.6449    225.7580
  3127.6000      9.1257   4275.6821      0.0000     17.7319    514.0000   -764.2000  -2798.3999   2165.5000    254.7258      0.0249   3620.0046    105.2742    225.7665
  3127.5500      9.1257   4221.4766      0.0000     16.2282    518.0000   -721.2000  -2814.0000   2165.3000    255.6251      0.0248   3623.1548    104.3749    225.7728
  3127.5000      9.1257   4203.2842      0.0000     15.1003    523.0000   -684.4000  -2848.2000   2149.8000    256.4884      0.0248   3633.4951    103.5116    225.7805
  3127.4500      9.1257   4225.9785      0.0000     14.9124    533.0000   -646.0000  -2874.1001   2145.8000    257.3324      0.0247   3644.4788    102.6676    225.7862
  3127.4000      9.1257   4231.4736      0.0000     14.9124    526.0000   -658.1000  -2855.2000   2186.0000    257.0205      0.0246   3655.6611    102.9795    225.7721
  3127.3500      9.1074   4214.4375      0.0000     14.5991    528.0000   -656.6000  -2871.2000   2172.1001    257.1188      0.0246   3659.6355    102.8812    225.7686
  3127.3000      9.1074   4198.5947      0.0000     14.6617    529.0000   -655.4000  -2899.6001   2149.6001    257.2634      0.0245   3668.5161    102.7366    225.7510
  3127.2500      9.1074   4229.8848      0.0000     15.0377    534.0000   -641.5000  -2877.8999   2198.7000    257.4339      0.0245   3678.0581    102.5661    225.7341
  3127.2000      9.1257   4293.0659      0.0000     15.0377    531.0000   -627.3000  -2892.0000   2228.7000    257.7616      0.0243   3704.6287    102.2384    225.7299
  3127.1500      9.1257   4344.6621      0.0000     14.2858    530.0000   -587.4000  -2929.7000   2239.0000    258.6626      0.0241   3733.8052    101.3374    225.7341
  3127.1000      9.1257   4342.2207      0.0000     13.9098    518.0000   -451.6000  -2945.7000   2202.3000    261.2839      0.0243   3705.5657     98.7160    225.7489
  3127.0500      9.1592   4321.0767      0.0000     13.3459    539.0000   -341.4000  -2912.2000   2238.8000    263.3137      0.0244   3689.1311     96.6863    225.7580
  3127.0000      9.1592   4330.5029      0.0000     12.2181    523.0000   -173.9000  -2987.2000   2254.8000    266.6683      0.0240   3746.6956     93.3317    225.7637
  3126.9500      9.1592   4342.0991      0.0000     12.0928    523.0000     94.1000  -2999.2000   2197.2000    271.7971      0.0242   3719.1052     88.2029    225.7580
  3126.9000      9.1074   4288.2300      0.0000     13.4712    518.0000    215.9000  -2983.2000   2129.8000    274.1394      0.0245   3671.8037     85.8606    225.7524
  3126.8500      9.1074   4198.9063      0.0000     15.6016    524.0000    410.7000  -2966.7000   2099.0000    277.8817      0.0246   3657.2920     82.1183    225.7440
  3126.8000      9.1074   4134.8335      0.0000     18.5465    527.0000    585.5000  -2867.5000   2114.8000    281.5403      0.0249   3610.7820     78.4597    225.7285
