~Version Information
VERS.                      2.0: CWLS Log ASCII Standard - VERSION 2.0
WRAP.                       NO: One line per depth step
~Well Information Block
STRT.M               3782.3500: START DEPTH
STOP.M               3681.1500: STOP DEPTH
STEP.M                 -0.0500: STEP
NULL.                -999.2500: NULL VALUE
COMP.                  STATOIL: COMPANY
WELL.               15/9-F-1-C: WELL
FLD.                     VOLVE: FIELD
LOC.                          : LOCATION
SRVC.          Halliburton Logging Services: SERVICE COMPANY
DATE.          Thu Dec 04 04-49-02 2014: LOG DATE
UWI.                          : UNIQUE WELL ID
CTRY.                   NORWAY: COUNTRY
SECT.                         : SECTION
TOWN.                         : TOWNSHIP
RANG.                         : RANGE
API.                          : API#
OS.                   --NONE--: OTHER SERVICES
PDAT.FT                  M.S.L: PERMANENT DATUM
EEL.FT                   54.9M: ELEVATION
LMF.FT                   R.K.B: LOG MEASURED FROM
DMF.FT                   R.K.B: DRILLING MEASURED FROM
EKB.FT                   54.9M: KB
EDF.FT                   54.9M: DF
EGL.FT                    -91M: GL
DATE1.         03-DEC-14 @ 05:47: DATE1
RUN1.                    1 & 2: RUN NUMBER
TDD1.FT                  4094M: DEPTH DRILLER
TDL1.FT                  3782M: DEPTH LOGGER
BLI1.FT                  3772M: BOTTOM LOGGED INTERVAL
TLI1.FT                  3572M: TOP LOG INTERVAL
CDD1.IN_FT                    : CASING DRILLER
CDL1.FT                       : CASING LOGGER
BS1.IN                    8.5": BIT SIZE
DFT1.                SEA WATER: TYPE FLUID IN HOLE
DFDV1.GM/C3_CP          1.03SG: DENSITY/VISCOSITY
DFPL1.C3                      : PH/FLUID LOSS
MSS1.                         : SOURCE OF SAMPLE
RMT1.OHHM_DEGF                : RM@MEASURED TEMP
RMFT1.OHMM_DEGF                : RMF@MEASURED TEMP
RMCT1.OHMM_DEGF                : RMC@MEASURED TEMP
RMFS1.                        : SOURCE OF RMF/RMC
RMBT1.OHMM_DEGF                : RM@BHT
TCS1.                         : TIME CIRCULATION STOPPED
TLOB1.                36 HOURS: TIME LOGGER ON BOTTOM
BHT1.DEGF                 FULL: MAXIMUM RECORDED TEMPERATURE
LUN1.                 12030699: EQUIPMENT NUMBER
LUL1.                   NORWAY: LOCATION
ENGI1.              C.JAMIESON: RECORDED BY
WITN1.                A.ALBAWI: WITNESSED BY
~Curve Information Block
DEPT.M             0 000 00 00: Depth
LSPD.M/MIN                   0: Line Speed
LTEN.LB                      0: Surface Line Tension
MINMK.                       0: Minute Mark Ticks
HVOLTA.V                     0: Head Voltage Apparent
CCL.                         0: Casing Collar Locator
~Parameter Information Block
SRFTEMP.DEGC           12.0000: Surface Temperature
MudWgt.LB/GAL           8.5600: Mud Weight
CASETHCK.IN             0.4530: Casing Thickness
BITSIZE.IN             12.2500: Borehole I.D.
~Other Information
TOOL STRING DEPLOYED BY ALTUS INTERVENTION WIRELINE UNIT ON 7/16" CABLE
CABLE HEAD BUILT BY ALTUS
LOG CORRELATED TO SHLUMBERGER 4.5" HSD OX POWER JET PULS DATED 09.APRIL.2014
CORRELATION LOG IS SHALLOWER BY 1.4M, DEPTH SHIFTED 1.4M DOWN AS PER
CLIENTS REQUEST.
4.655" HSC GUN 10 AND 350 DEGREE PHASING, 39 GR MILLENIUM, 4 SHOTS PER FOOT.
ATTEMPT WAS MADE TO RUN 4 GUNS IN ONE STRING BUT AT 3600M PICK UP WEIGHT 
WAS TOO HIGH TO CONTINUE.  CLIENT D4ECIDED TO SPLIT UP ONTO TWO RUNS.
RUN #1 CCL TO TOP SHOT 3.25 M, CCL STOP DEPT: 3729.75 M
PERFORATION INTERVAL 3733M - 3742.6M
RUN #2 CCL TO TOP SHOT 3.25 M, CCL STOP DEPT: 3711.75 M
PERFORATION INTERVAL 3715M - 3724.6M

~A  Depth       LSPD        LTEN       MINMK       HVOLTA       CCL     
# ...
  3776.7500      6.3917   6789.3794      0.0000      3.5057     -0.0134
  3776.7000      6.3917   6823.1763      0.0000      3.4950     -0.0076
  3776.6500      6.3734   6863.4531      0.0000      3.4950     -0.0162
  3776.6000      6.3734   6863.4531      0.0000      3.4950     -0.0061
  3776.5500      6.4099   6903.9775      0.0000      3.5255     -0.0125
  3776.5000      6.4099   6944.5308      0.0000      3.4752     -0.0052
  3776.4500      6.3917   6944.5308      0.0000      3.4752     -0.0073
  3776.4000      6.3917   6987.9556      0.0000      3.5156     -0.0021
  3776.3500      6.2850   7027.1963      0.0000      3.5561     -0.0082
  3776.3000      6.2850   7027.1963      0.0000      3.5561     -0.0055
  3776.2500      6.3734   7063.3291      0.0000      3.5156     -0.0098
  3776.2000      6.3734   7108.6699      0.0000      3.4554     -0.0113
  3776.1500      6.2850   7108.6699      0.0000      3.4554     -0.0040
  3776.1000      6.2850   7158.0537      0.0000      3.5057     -0.0128
  3776.0500      6.3216   7197.1943      0.0000      3.4950     -0.0034
  3776.0000      6.3216   7197.1943      0.0000      3.4950     -0.0119
  3775.9500      6.3216   7230.9985      0.0000      3.5255     -0.0082
  3775.9000      6.3917   7269.0898      0.0000      3.5156     -0.0156
  3775.8500      6.3917   7269.0898      0.0000      3.5156     -0.0110
  3775.8000      6.3216   7311.2788      0.0000      3.4546     -0.0168
  3775.7500      6.3216   7311.2788      0.0000      3.4546     -0.0156
  3775.7000      6.3917   7361.0039      0.0000      3.4241      0.0458
  3775.6500      6.3917   7415.8730      0.0000      3.4752     -0.0012
  3775.6000      6.3734   7415.8730      0.0000      3.4752     -0.0089
  3775.5500      6.3734   7456.1025      0.0000      3.5255     -0.0049
  3775.5000      6.3734   7477.2334      0.0000      3.4851     -0.0076
  3775.4500      6.3734   7477.2334      0.0000      3.4851      0.1590
  3775.4000      6.3734   7495.6426      0.0000      3.4950     -0.2402
  3775.3500      6.3734   7510.8389      0.0000      3.5049      0.2832
  3775.3000      6.4099   7510.8389      0.0000      3.5049     -0.2823
  3775.2500      6.4099   7519.2939      0.0000      3.5461      1.2964
  3775.2000      6.4099   7535.0264      0.0000      3.4950      0.2789
  3775.1500      6.3551   7535.0264      0.0000      3.4950      0.0616
  3775.1000      6.3551   7557.8696      0.0000      3.4546     -0.0061
  3775.0500      6.3551   7577.8315      0.0000      3.4546     -0.0122
  3775.0000      6.3551   7577.8315      0.0000      3.4546     -0.0116
  3774.9500      6.3734   7602.6255      0.0000      3.4851     -0.0186
  3774.9000      6.3734   7632.3823      0.0000      3.4546     -0.0128
  3774.8500      6.3033   7632.3823      0.0000      3.4546     -0.0150
  3774.8000      6.3033   7650.7656      0.0000      3.4241     -0.0107
  3774.7500      6.4099   7661.5908      0.0000      3.4851     -0.0180
  3774.7000      6.4099   7661.5908      0.0000      3.4851     -0.0034
  3774.6500      6.3734   7677.9956      0.0000      3.4851     -0.0064
  3774.6000      6.3734   7689.0703      0.0000      3.4546      0.0235
  3774.5500      6.3551   7689.0703      0.0000      3.4546      0.2231
  3774.5000      6.3551   7685.2012      0.0000      3.5156     -0.2521
  3774.4500      6.3734   7670.9404      0.0000      3.4851     -0.5759
  3774.4000      6.3734   7670.9404      0.0000      3.4851     -0.4428
  3774.3500      6.3734   7640.0908      0.0000      3.5255     -0.1974
  3774.3000      6.3216   7597.7354      0.0000      3.4851     -0.4648
  3774.2500      6.3216   7597.7354      0.0000      3.4851      0.3366
  3774.2000      6.3917   7578.0972      0.0000      3.4645     -0.0427
  3774.1500      6.3917   7578.0972      0.0000      3.4645     -0.0244
  3774.1000      6.3917   7593.1890      0.0000      3.4851     -0.2374
  3774.0500      6.3917   7617.5708      0.0000      3.4851      0.0107
  3774.0000      6.3917   7617.5708      0.0000      3.4851     -0.0183
  3773.9500      6.3917   7638.8477      0.0000      3.4950      0.0250
  3773.9000      6.3551   7658.9268      0.0000      3.4851     -0.0864
  3773.8500      6.3551   7658.9268      0.0000      3.4851      0.1944
  3773.8000      6.3398   7671.1279      0.0000      3.4241     -0.0375
  3773.7500      6.3398   7686.8989      0.0000      3.5156     -0.0009
  3773.7000      6.3216   7686.8989      0.0000      3.5156     -0.0125
  3773.6500      6.3216   7726.0854      1.0000      3.4241     -0.0055
  3773.6000      6.3398   7773.5269      0.0000      3.4645     -0.0009
  3773.5500      6.3398   7773.5269      0.0000      3.4645     -0.0137
  3773.5000      6.3734   7805.1611      0.0000      3.4142     -0.0150
  3773.4500      6.3734   7822.7896      0.0000      3.4645     -0.0162
  3773.4000      6.3398   7822.7896      0.0000      3.4645     -0.0122
  3773.3500      6.3398   7832.3403      0.0000      3.4851     -0.0113
  3773.3000      6.3398   7834.2314      0.0000      3.4546     -0.0076
  3773.2500      6.3734   7834.2314      0.0000      3.4546     -0.0064
  3773.2000      6.3734   7830.9663      0.0000      3.4851      0.0238
  3773.1500      6.3551   7804.9648      0.0000      3.4348      0.0311
  3773.1000      6.3551   7804.9648      0.0000      3.4348     -0.7608
  3773.0500      6.3734   7725.9102      0.0000      3.4645     -2.5430
  3773.0000      6.3734   7599.7500      0.0000      3.5156      0.1337
  3772.9500      6.4465   7599.7500      0.0000      3.5156     -0.3265
  3772.9000      6.4465   7455.1211      0.0000      3.4447      2.1628
  3772.8500      6.4465   7308.6460      0.0000      3.4851     -2.4265
  3772.8000      6.4465   7308.6460      0.0000      3.4851      0.9387
  3772.7500      6.4465   7188.9375      0.0000      3.4851      0.0595
  3772.7000      6.4800   7188.9375      0.0000      3.4851      0.0446
  3772.6500      6.4800   7130.9165      0.0000      3.4546     -0.0250
  3772.6000      6.4465   7134.0146      0.0000      3.4752     -0.0076
  3772.5500      6.4465   7134.0146      0.0000      3.4752     -0.0046
  3772.5000      6.4099   7174.6519      0.0000      3.4950     -0.0153
  3772.4500      6.4099   7233.7900      0.0000      3.5255     -0.0183
  3772.4000      6.3917   7233.7900      0.0000      3.5255     -0.0165
  3772.3500      6.3917   7290.0791      0.0000      3.5461     -0.0040
  3772.3000      6.3917   7330.0181      0.0000      3.4950     -0.0116
  3772.2500      6.3917   7330.0181      0.0000      3.4950     -0.0159
  3772.2000      6.3917   7366.3018      0.0000      3.4752     -0.0140
  3772.1500      6.3917   7409.3774      0.0000      3.4950     -0.0143
  3772.1000      6.3734   7409.3774      0.0000      3.4950     -0.0146
  3772.0500      6.3734   7452.9937      0.0000      3.4546     -0.0082
  3772.0000      6.3734   7500.5776      0.0000      3.4546     -0.0043
  3771.9500      6.7666   7500.5776      0.0000      3.4546     -0.0168
  3771.9000      6.7666   7554.8042      0.0000      3.4851     -0.0092
  3771.8500      6.7666   7594.7495      0.0000      3.4645      0.0006
  3771.8000      7.3213   7594.7495      0.0000      3.4645     -0.0531
  3771.7500      7.3213   7603.0249      0.0000      3.4348      0.1163
  3771.7000      7.3213   7584.7603      0.0000      3.4241     -0.1123
  3771.6500      7.9827   7584.7603      0.0000      3.4241     -0.0101
  3771.6000      7.9827   7544.4658      0.0000      3.4851      0.1370
  3771.5500      7.9827   7486.9473      0.0000      3.4645     -0.1111
  3771.5000      8.5893   7486.9473      0.0000      3.4645      0.0787
  3771.4500      8.5893   7428.5576      0.0000      3.4851     -0.0836
  3771.4000      8.5893   7373.8276      0.0000      3.4546      0.2139
  3771.3500      8.8392   7373.8276      0.0000      3.4546      0.0232
  3771.3000      8.8392   7322.3101      0.0000      3.4546      0.0433
  3771.2500      8.8392   7295.9619      0.0000      3.4950     -0.0323
  3771.2000      8.9093   7295.9619      0.0000      3.4950      0.0000
