~Version Information
VERS.                      2.0: CWLS Log ASCII Standard - VERSION 2.0
WRAP.                       NO: One line per depth step
~Well Information Block
STRT.M               3785.6000: START DEPTH
STOP.M               3572.2000: STOP DEPTH
STEP.M                 -0.0500: STEP
NULL.                -999.2500: NULL VALUE
COMP.                  STATOIL: COMPANY
WELL.               15/9-F-1-C: WELL
FLD.                     VOLVE: FIELD
LOC.                          : LOCATION
SRVC.          Halliburton Logging Services: SERVICE COMPANY
DATE.          Wed Dec 03 05-47-41 2014: LOG DATE
UWI.                          : UNIQUE WELL ID
CTRY.                   NORWAY: COUNTRY
SECT.                         : SECTION
TOWN.                         : TOWNSHIP
RANG.                         : RANGE
API.                          : API#
OS.                   --NONE--: OTHER SERVICES
PDAT.FT                  M.S.L: PERMANENT DATUM
EEL.FT                   54.9M: ELEVATION
LMF.FT                   R.K.B: LOG MEASURED FROM
DMF.FT                   R.K.B: DRILLING MEASURED FROM
EKB.FT                   54.9M: KB
EDF.FT                   54.9M: DF
EGL.FT                    -91M: GL
DATE1.         03-DEC-14 @ 05:47: DATE1
RUN1.                    1 & 2: RUN NUMBER
TDD1.FT                  4094M: DEPTH DRILLER
TDL1.FT                  3782M: DEPTH LOGGER
BLI1.FT                  3772M: BOTTOM LOGGED INTERVAL
TLI1.FT                  3572M: TOP LOG INTERVAL
CDD1.IN_FT                    : CASING DRILLER
CDL1.FT                       : CASING LOGGER
BS1.IN                    8.5": BIT SIZE
DFT1.                SEA WATER: TYPE FLUID IN HOLE
DFDV1.GM/C3_CP          1.03SG: DENSITY/VISCOSITY
DFPL1.C3                      : PH/FLUID LOSS
MSS1.                         : SOURCE OF SAMPLE
RMT1.OHHM_DEGF                : RM@MEASURED TEMP
RMFT1.OHMM_DEGF                : RMF@MEASURED TEMP
RMCT1.OHMM_DEGF                : RMC@MEASURED TEMP
RMFS1.                        : SOURCE OF RMF/RMC
RMBT1.OHMM_DEGF                : RM@BHT
TCS1.                         : TIME CIRCULATION STOPPED
TLOB1.                36 HOURS: TIME LOGGER ON BOTTOM
BHT1.DEGF                 FULL: MAXIMUM RECORDED TEMPERATURE
LUN1.                 12030699: EQUIPMENT NUMBER
LUL1.                   NORWAY: LOCATION
ENGI1.              C.JAMIESON: RECORDED BY
WITN1.                A.ALBAWI: WITNESSED BY
~Curve Information Block
DEPT.M             0 000 00 00: Depth
LSPD.M/MIN                   0: Line Speed
LTEN.LB                      0: Surface Line Tension
MINMK.                       0: Minute Mark Ticks
HVOLTA.V                     0: Head Voltage Apparent
CCL.                         0: Casing Collar Locator
~Parameter Information Block
SRFTEMP.DEGC           12.0000: Surface Temperature
MudWgt.LB/GAL           8.5600: Mud Weight
CASETHCK.IN             0.4530: Casing Thickness
BITSIZE.IN             12.2500: Borehole I.D.
~Other Information
TOOL STRING DEPLOYED BY ALTUS INTERVENTION WIRELINE UNIT ON 7/16" CABLE
CABLE HEAD BUILT BY ALTUS
LOG CORRELATED TO SHLUMBERGER 4.5" HSD OX POWER JET PULS DATED 09.APRIL.2014
CORRELATION LOG IS SHALLOWER BY 1.4M, DEPTH SHIFTED 1.4M DOWN AS PER
CLIENTS REQUEST.
4.655" HSC GUN 10 AND 350 DEGREE PHASING, 39 GR MILLENIUM, 4 SHOTS PER FOOT.
ATTEMPT WAS MADE TO RUN 4 GUNS IN ONE STRING BUT AT 3600M PICK UP WEIGHT 
WAS TOO HIGH TO CONTINUE.  CLIENT D4ECIDED TO SPLIT UP ONTO TWO RUNS.
RUN #1 CCL TO TOP SHOT 3.25 M, CCL STOP DEPT: 3729.75 M
PERFORATION INTERVAL 3733M - 3742.6M
RUN #2 CCL TO TOP SHOT 3.25 M, CCL STOP DEPT: 3711.75 M
PERFORATION INTERVAL 3715M - 3724.6M

~A  Depth       LSPD        LTEN       MINMK       HVOLTA       CCL     
# ...
  3746.4000      9.3756   6299.0728      0.0000      3.4454     -0.0208
  3746.3500      9.3756   6299.0728      0.0000      3.4454     -0.0122
  3746.3000      9.3208   6331.4839      0.0000      3.4859     -0.0085
  3746.2500      9.3208   6349.7661      0.0000      3.4752     -0.0058
  3746.2000      9.3208   6349.7661      0.0000      3.4752     -0.0113
  3746.1500      9.3025   6358.9585      0.0000      3.4340     -0.0333
  3746.1000      9.3025   6381.2695      0.0000      3.4950     -0.0006
  3746.0500      9.3025   6381.2695      0.0000      3.4950     -0.0433
  3746.0000      9.2690   6411.1128      0.0000      3.5362     -0.0113
  3745.9500      9.2690   6432.1924      0.0000      3.4958     -0.0192
  3745.9000      9.2690   6432.1924      0.0000      3.4958      0.1141
  3745.8500      9.3025   6441.4102      0.0000      3.5156     -0.1517
  3745.8000      9.3025   6427.5591      0.0000      3.4851      0.0656
  3745.7500      9.3025   6427.5591      0.0000      3.4851      0.1157
  3745.7000      9.3574   6383.0352      0.0000      3.5461      0.3201
  3745.6500      9.3574   6383.0352      0.0000      3.5461     -0.2277
  3745.6000      9.3574   6327.0015      0.0000      3.5263      0.2759
  3745.5500      9.3574   6274.3960      0.0000      3.5263     -0.1193
  3745.5000      9.3574   6274.3960      0.0000      3.5263     -0.0330
  3745.4500      9.3574   6227.4009      0.0000      3.5370      0.1160
  3745.4000      9.3574   6205.6851      0.0000      3.5156     -0.4077
  3745.3500      9.4092   6205.6851      0.0000      3.5156      0.0546
  3745.3000      9.4092   6226.1792      0.0000      3.4851     -0.0211
  3745.2500      9.4092   6272.4746      0.0000      3.5263     -0.1025
  3745.2000      9.3939   6272.4746      0.0000      3.5263     -0.0183
  3745.1500      9.3939   6323.3608      0.0000      3.5164     -0.0079
  3745.1000      9.3939   6373.6108      0.0000      3.5057     -0.0049
  3745.0500      9.3574   6373.6108      0.0000      3.5057     -0.0143
  3745.0000      9.3574   6416.3179      0.0000      3.4851     -0.0131
  3744.9500      9.3574   6448.5962      0.0000      3.5461     -0.0116
  3744.9000      9.3574   6448.5962      0.0000      3.5461     -0.0049
  3744.8500      9.3574   6476.6636      0.0000      3.5469     -0.0146
  3744.8000      9.3574   6493.3691      0.0000      3.5263     -0.0076
  3744.7500      9.3025   6493.3691      0.0000      3.5263     -0.0034
  3744.7000      9.3025   6495.1016      0.0000      3.4958     -0.0159
  3744.6500      9.3025   6503.0601      0.0000      3.5767      0.0070
  3744.6000      9.2842   6503.0601      0.0000      3.5767      0.0214
  3744.5500      9.2842   6523.1099      0.0000      3.4851     -0.0043
  3744.5000      9.2842   6532.5435      0.0000      3.5263      0.0003
  3744.4500      9.2690   6532.5435      0.0000      3.5263     -0.0204
  3744.4000      9.2690   6525.7056      0.0000      3.5164     -0.0186
  3744.3500      9.2690   6510.9844      0.0000      3.5156      0.0571
  3744.3000      9.2690   6510.9844      0.0000      3.5156     -0.0482
  3744.2500      9.2690   6472.5830      0.0000      3.5454      0.1791
  3744.2000      9.2690   6397.9395      0.0000      3.5255     -0.0812
  3744.1500      9.3208   6397.9395      0.0000      3.5255     -0.4123
  3744.1000      9.3208   6308.1123      0.0000      3.5362      0.1587
  3744.0500      9.3208   6308.1123      0.0000      3.5362      0.1837
  3744.0000      9.3208   6223.1172      0.0000      3.5164      0.0446
  3743.9500      9.3574   6149.8228      0.0000      3.5057     -1.0858
  3743.9000      9.3574   6149.8228      0.0000      3.5057      0.5551
  3743.8500      9.3574   6103.2827      0.0000      3.5156     -0.3546
  3743.8000      9.4275   6093.2539      0.0000      3.5561      0.0800
  3743.7500      9.4275   6093.2539      0.0000      3.5561     -0.0308
  3743.7000      9.4275   6112.3188      0.0000      3.4760      0.0159
  3743.6500      9.4275   6153.4922      0.0000      3.4958     -0.0107
  3743.6000      9.4275   6153.4922      0.0000      3.4958     -0.0098
  3743.5500      9.4275   6206.0854      0.0000      3.5156     -0.0122
  3743.5000      9.3939   6251.3120      0.0000      3.4752     -0.0027
  3743.4500      9.3939   6251.3120      0.0000      3.4752     -0.0122
  3743.4000      9.3939   6288.4941      0.0000      3.5561     -0.0076
  3743.3500      9.3756   6325.2329      0.0000      3.4149     -0.0061
  3743.3000      9.3756   6325.2329      0.0000      3.4149     -0.0067
  3743.2500      9.3756   6350.9551      0.0000      3.4248     -0.0174
  3743.2000      9.3208   6366.3691      0.0000      3.5767     -0.0012
  3743.1500      9.3208   6366.3691      0.0000      3.5767     -0.0119
  3743.1000      9.3208   6393.2173      0.0000      3.5454      0.0006
  3743.0500      9.3025   6429.2656      0.0000      3.5660     -0.0101
  3743.0000      9.3025   6429.2656      0.0000      3.5660     -0.0043
  3742.9500      9.3025   6453.6025      0.0000      3.4149     -0.0095
  3742.9000      9.3208   6468.9521      0.0000      3.4760     -0.0131
  3742.8500      9.3208   6468.9521      0.0000      3.4760     -0.0113
  3742.8000      9.3208   6483.1694      0.0000      3.5355      0.0113
  3742.7500      9.3025   6485.7876      0.0000      3.5866      0.0577
  3742.7000      9.3025   6485.7876      0.0000      3.5866     -0.0620
  3742.6500      9.3025   6476.9341      0.0000      3.6064     -0.1254
  3742.6000      9.3025   6463.9077      0.0000      3.4752     -0.4132
  3742.5500      9.3391   6463.9077      0.0000      3.4752      4.4138
  3742.5000      9.3391   6434.7051      0.0000      3.4958     -0.9238
  3742.4500      9.3391   6434.7051      0.0000      3.4958      0.0726
  3742.4000      9.3391   6385.7847      0.0000      3.5156     -0.1059
  3742.3500      9.3391   6334.4688      0.0000      3.6064      0.1361
  3742.3000      9.3391   6334.4688      0.0000      3.6064     -0.2496
  3742.2500      9.3391   6289.0166      0.0000      3.5362     -0.0751
  3742.2000      9.3391   6254.6035      0.0000      3.4348     -0.2948
  3742.1500      9.3391   6254.6035      0.0000      3.4348     -0.1437
  3742.1000      9.3756   6246.8540      0.0000      3.4859     -0.0128
  3742.0500      9.3756   6265.9771      0.0000      3.5561     -0.0714
  3742.0000      9.3756   6265.9771      0.0000      3.5561      0.0021
  3741.9500      9.3574   6294.5679      0.0000      3.5461      0.0049
  3741.9000      9.3574   6328.5488      0.0000      3.5156      0.0458
  3741.8500      9.3574   6328.5488      0.0000      3.5156      0.0146
  3741.8000      9.3025   6367.1997      0.0000      3.4859     -0.0006
  3741.7500      9.3025   6398.6523      0.0000      3.5065      0.0012
  3741.7000      9.3025   6398.6523      0.0000      3.5065     -0.0089
  3741.6500      9.3391   6425.7500      0.0000      3.4851     -0.0180
  3741.6000      9.3391   6458.9004      0.0000      3.5660     -0.0159
  3741.5500      9.3391   6458.9004      0.0000      3.5660     -0.0061
  3741.5000      9.3025   6488.0425      0.0000      3.5156     -0.0116
  3741.4500      9.3025   6505.1274      0.0000      3.4653     -0.0162
  3741.4000      9.3025   6505.1274      0.0000      3.4653     -0.0146
  3741.3500      9.3391   6519.5132      0.0000      3.5263     -0.0464
  3741.3000      9.3391   6527.0498      0.0000      3.5049     -0.0641
  3741.2500      9.3391   6527.0498      0.0000      3.5049      0.0409
  3741.2000      9.3391   6511.7148      0.0000      3.4752     -0.0629
  3741.1500      9.3574   6478.9800      0.0000      3.5057      0.1468
  3741.1000      9.3574   6478.9800      0.0000      3.5057      0.1413
  3741.0500      9.3574   6442.6992      0.0000      3.4859     -0.3949
  3741.0000      9.3391   6406.9468      0.0000      3.5164      0.3397
  3740.9500      9.3391   6406.9468      0.0000      3.5164     -0.2109
  3740.9000      9.3391   6380.6875      0.0000      3.5255     -0.0186
  3740.8500      9.3574   6380.6875      0.0000      3.5255      0.0934
