~Version Information
VERS.                      2.0: CWLS Log ASCII Standard - VERSION 2.0
WRAP.                       NO: One line per depth step
~Well Information Block
STRT.M               3782.3500: START DEPTH
STOP.M               3681.1500: STOP DEPTH
STEP.M                 -0.0500: STEP
NULL.                -999.2500: NULL VALUE
COMP.                  STATOIL: COMPANY
WELL.               15/9-F-1-C: WELL
FLD.                     VOLVE: FIELD
LOC.                          : LOCATION
SRVC.          Halliburton Logging Services: SERVICE COMPANY
DATE.          Thu Dec 04 04-49-02 2014: LOG DATE
UWI.                          : UNIQUE WELL ID
CTRY.                   NORWAY: COUNTRY
SECT.                         : SECTION
TOWN.                         : TOWNSHIP
RANG.                         : RANGE
API.                          : API#
OS.                   --NONE--: OTHER SERVICES
PDAT.FT                  M.S.L: PERMANENT DATUM
EEL.FT                   54.9M: ELEVATION
LMF.FT                   R.K.B: LOG MEASURED FROM
DMF.FT                   R.K.B: DRILLING MEASURED FROM
EKB.FT                   54.9M: KB
EDF.FT                   54.9M: DF
EGL.FT                    -91M: GL
DATE1.         03-DEC-14 @ 05:47: DATE1
RUN1.                    1 & 2: RUN NUMBER
TDD1.FT                  4094M: DEPTH DRILLER
TDL1.FT                  3782M: DEPTH LOGGER
BLI1.FT                  3772M: BOTTOM LOGGED INTERVAL
TLI1.FT                  3572M: TOP LOG INTERVAL
CDD1.IN_FT                    : CASING DRILLER
CDL1.FT                       : CASING LOGGER
BS1.IN                    8.5": BIT SIZE
DFT1.                SEA WATER: TYPE FLUID IN HOLE
DFDV1.GM/C3_CP          1.03SG: DENSITY/VISCOSITY
DFPL1.C3                      : PH/FLUID LOSS
MSS1.                         : SOURCE OF SAMPLE
RMT1.OHHM_DEGF                : RM@MEASURED TEMP
RMFT1.OHMM_DEGF                : RMF@MEASURED TEMP
RMCT1.OHMM_DEGF                : RMC@MEASURED TEMP
RMFS1.                        : SOURCE OF RMF/RMC
RMBT1.OHMM_DEGF                : RM@BHT
TCS1.                         : TIME CIRCULATION STOPPED
TLOB1.                36 HOURS: TIME LOGGER ON BOTTOM
BHT1.DEGF                 FULL: MAXIMUM RECORDED TEMPERATURE
LUN1.                 12030699: EQUIPMENT NUMBER
LUL1.                   NORWAY: LOCATION
ENGI1.              C.JAMIESON: RECORDED BY
WITN1.                A.ALBAWI: WITNESSED BY
~Curve Information Block
DEPT.M             0 000 00 00: Depth
LSPD.M/MIN                   0: Line Speed
LTEN.LB                      0: Surface Line Tension
MINMK.                       0: Minute Mark Ticks
HVOLTA.V                     0: Head Voltage Apparent
CCL.                         0: Casing Collar Locator
~Parameter Information Block
SRFTEMP.DEGC           12.0000: Surface Temperature
MudWgt.LB/GAL           8.5600: Mud Weight
CASETHCK.IN             0.4530: Casing Thickness
BITSIZE.IN             12.2500: Borehole I.D.
~Other Information
TOOL STRING DEPLOYED BY ALTUS INTERVENTION WIRELINE UNIT ON 7/16" CABLE
CABLE HEAD BUILT BY ALTUS
LOG CORRELATED TO SHLUMBERGER 4.5" HSD OX POWER JET PULS DATED 09.APRIL.2014
CORRELATION LOG IS SHALLOWER BY 1.4M, DEPTH SHIFTED 1.4M DOWN AS PER
CLIENTS REQUEST.
4.655" HSC GUN 10 AND 350 DEGREE PHASING, 39 GR MILLENIUM, 4 SHOTS PER FOOT.
ATTEMPT WAS MADE TO RUN 4 GUNS IN ONE STRING BUT AT 3600M PICK UP WEIGHT 
WAS TOO HIGH TO CONTINUE.  CLIENT D4ECIDED TO SPLIT UP ONTO TWO RUNS.
RUN #1 CCL TO TOP SHOT 3.25 M, CCL STOP DEPT: 3729.75 M
PERFORATION INTERVAL 3733M - 3742.6M
RUN #2 CCL TO TOP SHOT 3.25 M, CCL STOP DEPT: 3711.75 M
PERFORATION INTERVAL 3715M - 3724.6M

~A  Depth       LSPD        LTEN       MINMK       HVOLTA       CCL     
# ...
  3715.1500      9.4275   7105.4297      0.0000      3.4950     -0.0153
  3715.1000      9.4275   7105.4297      0.0000      3.4950     -0.0040
  3715.0500      9.4275   7131.7710      0.0000      3.5156     -0.0037
  3715.0000      9.4275   7152.9302      0.0000      3.4447     -0.0085
  3714.9500      9.4275   7152.9302      0.0000      3.4447     -0.0027
  3714.9000      9.3574   7179.8232      0.0000      3.4851     -0.0079
  3714.8500      9.3574   7208.1528      0.0000      3.4546     -0.0137
  3714.8000      9.3574   7208.1528      0.0000      3.4546     -0.0110
  3714.7500      9.3574   7237.6660      0.0000      3.4752     -0.0146
  3714.7000      9.3574   7276.2227      0.0000      3.4851     -0.0195
  3714.6500      9.3574   7276.2227      0.0000      3.4851     -0.0052
  3714.6000      9.3391   7310.9287      0.0000      3.4546     -0.0159
  3714.5500      9.3391   7331.7153      0.0000      3.4447     -0.0037
  3714.5000      9.3391   7331.7153      0.0000      3.4447     -0.0067
  3714.4500      9.3391   7358.0508      0.0000      3.5156     -0.0177
  3714.4000      9.3574   7392.2646      0.0000      3.4851     -0.0116
  3714.3500      9.3574   7392.2646      0.0000      3.4851     -0.0049
  3714.3000      9.3574   7396.1973      0.0000      3.5255     -0.0064
  3714.2500      9.3756   7341.6763      0.0000      3.4752      0.1309
  3714.2000      9.3756   7341.6763      0.0000      3.4752      1.9589
  3714.1500      9.3756   7228.5161      0.0000      3.4851      0.5429
  3714.1000      9.4092   7067.9971      0.0000      3.4950      1.8558
  3714.0500      9.4092   7067.9971      0.0000      3.4950     -2.8165
  3714.0000      9.4092   6891.1768      0.0000      3.4546      1.9354
  3713.9500      9.4275   6891.1768      0.0000      3.4546     -0.3595
  3713.9000      9.4275   6734.7021      0.0000      3.5057     -0.0406
  3713.8500      9.4275   6612.6094      0.0000      3.4851     -0.3369
  3713.8000      9.4823   6612.6094      0.0000      3.4851     -0.2676
  3713.7500      9.4823   6533.2666      0.0000      3.4950     -0.0674
  3713.7000      9.4823   6510.7583      0.0000      3.4851     -0.1273
  3713.6500      9.4640   6510.7583      0.0000      3.4851     -0.0571
  3713.6000      9.4640   6532.8247      0.0000      3.4645     -0.0003
  3713.5500      9.4640   6565.1787      0.0000      3.4447     -0.0122
  3713.5000      9.4640   6565.1787      0.0000      3.4447     -0.0076
  3713.4500      9.4458   6596.4854      0.0000      3.5049     -0.0101
  3713.4000      9.4458   6630.9253      0.0000      3.4241     -0.0116
  3713.3500      9.4458   6630.9253      0.0000      3.4241     -0.0089
  3713.3000      9.4092   6663.6138      0.0000      3.4851     -0.0113
  3713.2500      9.4092   6696.2676      0.0000      3.5255     -0.0085
  3713.2000      9.4092   6696.2676      0.0000      3.5255     -0.0064
  3713.1500      9.3574   6731.4990      0.0000      3.4950     -0.0122
  3713.1000      9.3574   6757.0635      0.0000      3.5255     -0.0046
  3713.0500      9.3574   6757.0635      0.0000      3.5255     -0.0073
  3713.0000      9.3574   6775.1987      0.0000      3.4241     -0.0085
  3712.9500      9.3574   6805.9180      0.0000      3.4546     -0.0110
  3712.9000      9.3574   6805.9180      0.0000      3.4546     -0.0064
  3712.8500      9.3939   6844.7554      0.0000      3.5156     -0.0055
  3712.8000      9.3939   6875.2886      0.0000      3.4447     -0.0079
  3712.7500      9.3939   6875.2886      0.0000      3.4447     -0.0128
  3712.7000      9.4092   6905.7183      0.0000      3.4546     -0.0098
  3712.6500      9.4092   6941.1978      0.0000      3.4851     -0.0156
  3712.6000      9.4092   6941.1978      0.0000      3.4851     -0.0058
  3712.5500      9.4092   6968.1006      0.0000      3.4752     -0.0079
  3712.5000      9.4092   6987.4639      0.0000      3.5156     -0.0174
  3712.4500      9.4092   6987.4639      0.0000      3.5156     -0.0272
  3712.4000      9.4092   7003.6035      0.0000      3.4744      0.0546
  3712.3500      9.3756   7003.6035      0.0000      3.4744     -0.0647
  3712.3000      9.3756   6994.5801      0.0000      3.5156      0.4538
  3712.2500      9.3756   6942.4224      0.0000      3.4348      0.6329
  3712.2000      9.3391   6942.4224      0.0000      3.4348     -0.1245
  3712.1500      9.3391   6856.2944      0.0000      3.5255      0.3036
  3712.1000      9.3391   6749.5376      0.0000      3.4752     -0.6412
  3712.0500      9.3756   6749.5376      0.0000      3.4752     -0.8478
  3712.0000      9.3756   6638.5068      0.0000      3.4851     -0.2682
  3711.9500      9.3756   6549.5659      0.0000      3.5255     -0.0778
  3711.9000      9.3939   6549.5659      0.0000      3.5255     -0.1117
  3711.8500      9.3939   6495.4385      0.0000      3.4546      0.0882
  3711.8000      9.3939   6476.0449      0.0000      3.4546      0.0003
  3711.7500      9.4275   6476.0449      0.0000      3.4546      0.0018
  3711.7000      9.4275   6496.0801      0.0000      3.5057     -0.0143
  3711.6500      9.4275   6544.8096      0.0000      3.4042     -0.0092
  3711.6000      9.4823   6544.8096      0.0000      3.4042     -0.0067
  3711.5500      9.4823   6593.8501      0.0000      3.4546     -0.0128
  3711.5000      9.4823   6634.5674      0.0000      3.4851     -0.0104
  3711.4500      9.4458   6634.5674      0.0000      3.4851     -0.0067
  3711.4000      9.4458   6675.2173      0.0000      3.4851     -0.0046
  3711.3500      9.4458   6714.0742      0.0000      3.4546     -0.0168
  3711.3000      9.4458   6714.0742      0.0000      3.4546     -0.0052
  3711.2500      9.4458   6754.2563      0.0000      3.4546     -0.0085
  3711.2000      9.4458   6806.4541      0.0000      3.5057     -0.0140
  3711.1500      9.4458   6806.4541      0.0000      3.5057     -0.0040
  3711.1000      9.4092   6859.2461      0.0000      3.4447     -0.0134
  3711.0500      9.4092   6897.4771      0.0000      3.4851     -0.0119
  3711.0000      9.4092   6897.4771      0.0000      3.4851     -0.0079
  3710.9500      9.3756   6930.7480      0.0000      3.4645     -0.0095
  3710.9000      9.3756   6962.2310      0.0000      3.5156     -0.0150
  3710.8500      9.3756   6962.2310      0.0000      3.5156     -0.0043
  3710.8000      9.3756   6977.2920      0.0000      3.4546      0.0360
  3710.7500      9.3756   6977.2920      0.0000      3.4546     -0.0336
  3710.7000      9.3756   6974.1313      0.0000      3.4546     -0.0336
  3710.6500      9.3574   6954.7241      0.0000      3.4851      0.0229
  3710.6000      9.3574   6954.7241      0.0000      3.4851     -0.1166
  3710.5500      9.3574   6910.5586      0.0000      3.5156      0.1959
  3710.5000      9.3756   6852.6387      0.0000      3.4546      0.0290
  3710.4500      9.3756   6852.6387      0.0000      3.4546     -0.0946
  3710.4000      9.3756   6804.8110      0.0000      3.5255      0.6616
  3710.3500      9.3939   6761.8535      0.0000      3.5156     -0.0955
  3710.3000      9.3939   6761.8535      0.0000      3.5156      0.0150
  3710.2500      9.3939   6708.0229      0.0000      3.5255      0.4471
  3710.2000      9.4275   6648.3032      0.0000      3.4645      0.1196
  3710.1500      9.4275   6648.3032      0.0000      3.4645      0.2112
  3710.1000      9.4275   6593.8916      0.0000      3.4546      0.0613
  3710.0500      9.4275   6560.6147      0.0000      3.5156      0.0629
  3710.0000      9.4458   6560.6147      0.0000      3.5156     -0.0403
  3709.9500      9.4458   6569.3379      0.0000      3.4950     -0.0284
  3709.9000      9.4458   6615.2573      0.0000      3.4851      0.0037
  3709.8500      9.4092   6615.2573      0.0000      3.4851     -0.0070
  3709.8000      9.4092   6670.1201      0.0000      3.4950     -0.0189
  3709.7500      9.4092   6723.1606      0.0000      3.4851     -0.0137
  3709.7000      9.3939   6723.1606      0.0000      3.4851     -0.0070
  3709.6500      9.3939   6776.9414      0.0000      3.4645     -0.0089
  3709.6000      9.3939   6820.6743      0.0000      3.4752     -0.0009
