~Version Information
VERS.                      2.0: CWLS Log ASCII Standard - VERSION 2.0
WRAP.                       NO: One line per depth step
~Well Information Block
STRT.M               3779.4000: START DEPTH
STOP.M               3680.8000: STOP DEPTH
STEP.M                 -0.0500: STEP
NULL.                -999.2500: NULL VALUE
COMP.                  STATOIL: COMPANY
WELL.               15/9-F-1-C: WELL
FLD.                     VOLVE: FIELD
LOC.                          : LOCATION
SRVC.          Halliburton Logging Services: SERVICE COMPANY
DATE.          Thu Dec 04 05-18-20 2014: LOG DATE
UWI.                          : UNIQUE WELL ID
CTRY.                   NORWAY: COUNTRY
SECT.                         : SECTION
TOWN.                         : TOWNSHIP
RANG.                         : RANGE
API.                          : API#
OS.                   --NONE--: OTHER SERVICES
PDAT.FT                  M.S.L: PERMANENT DATUM
EEL.FT                   54.9M: ELEVATION
LMF.FT                   R.K.B: LOG MEASURED FROM
DMF.FT                   R.K.B: DRILLING MEASURED FROM
EKB.FT                   54.9M: KB
EDF.FT                   54.9M: DF
EGL.FT                    -91M: GL
DATE1.         03-DEC-14 @ 05:47: DATE1
RUN1.                    1 & 2: RUN NUMBER
TDD1.FT                  4094M: DEPTH DRILLER
TDL1.FT                  3782M: DEPTH LOGGER
BLI1.FT                  3772M: BOTTOM LOGGED INTERVAL
TLI1.FT                  3572M: TOP LOG INTERVAL
CDD1.IN_FT                    : CASING DRILLER
CDL1.FT                       : CASING LOGGER
BS1.IN                    8.5": BIT SIZE
DFT1.                SEA WATER: TYPE FLUID IN HOLE
DFDV1.GM/C3_CP          1.03SG: DENSITY/VISCOSITY
DFPL1.C3                      : PH/FLUID LOSS
MSS1.                         : SOURCE OF SAMPLE
RMT1.OHHM_DEGF                : RM@MEASURED TEMP
RMFT1.OHMM_DEGF                : RMF@MEASURED TEMP
RMCT1.OHMM_DEGF                : RMC@MEASURED TEMP
RMFS1.                        : SOURCE OF RMF/RMC
RMBT1.OHMM_DEGF                : RM@BHT
TCS1.                         : TIME CIRCULATION STOPPED
TLOB1.                36 HOURS: TIME LOGGER ON BOTTOM
BHT1.DEGF                 FULL: MAXIMUM RECORDED TEMPERATURE
LUN1.                 12030699: EQUIPMENT NUMBER
LUL1.                   NORWAY: LOCATION
ENGI1.              C.JAMIESON: RECORDED BY
WITN1.                A.ALBAWI: WITNESSED BY
~Curve Information Block
DEPT.M             0 000 00 00: Depth
LSPD.M/MIN                   0: Line Speed
LTEN.LB                      0: Surface Line Tension
MINMK.                       0: Minute Mark Ticks
HVOLTA.V                     0: Head Voltage Apparent
CCL.                         0: Casing Collar Locator
~Parameter Information Block
SRFTEMP.DEGC           10.0000: Surface Temperature
MudWgt.LB/GAL           8.5000: Mud Weight
CASETHCK.IN             0.4530: Casing Thickness
BITSIZE.IN              8.5000: Borehole I.D.
~Other Information
TOOL STRING DEPLOYED BY ALTUS INTERVENTION WIRELINE UNIT ON 7/16" CABLE
CABLE HEAD BUILT BY ALTUS
LOG CORRELATED TO SHLUMBERGER 4.5" HSD OX POWER JET PULS DATED 09.APRIL.2014
CORRELATION LOG IS SHALLOWER BY 1.4M, DEPTH SHIFTED 1.4M DOWN AS PER
CLIENTS REQUEST.
4.655" HSC GUN 10 AND 350 DEGREE PHASING, 39 GR MILLENIUM, 4 SHOTS PER FOOT.
ATTEMPT WAS MADE TO RUN 4 GUNS IN ONE STRING BUT AT 3600M PICK UP WEIGHT 
WAS TOO HIGH TO CONTINUE.  CLIENT D4ECIDED TO SPLIT UP ONTO TWO RUNS.
RUN #1 CCL TO TOP SHOT 3.25 M, CCL STOP DEPT: 3729.75 M
PERFORATION INTERVAL 3733M - 3742.6M
RUN #2 CCL TO TOP SHOT 3.25 M, CCL STOP DEPT: 3711.75 M
PERFORATION INTERVAL 3715M - 3724.6M

~A  Depth       LSPD        LTEN       MINMK       HVOLTA       CCL     
# ...
  3729.0000      9.4458   7084.0571      0.0000      3.5156      0.6918
  3728.9500      9.4458   6993.2974      0.0000      3.4546     -0.8215
  3728.9000      9.4458   6993.2974      0.0000      3.4546     -0.5219
  3728.8500      9.4458   6910.3823      0.0000      3.4645     -0.6412
  3728.8000      9.4458   6834.9971      0.0000      3.4546     -0.0876
  3728.7500      9.4458   6834.9971      0.0000      3.4546      0.1944
  3728.7000      9.4275   6764.2866      0.0000      3.4851     -0.4889
  3728.6500      9.4275   6711.6099      0.0000      3.4752      0.1160
  3728.6000      9.4275   6711.6099      0.0000      3.4752     -0.0031
  3728.5500      9.4275   6682.7754      0.0000      3.4546     -0.0070
  3728.5000      9.4458   6674.6685      0.0000      3.4851     -0.0204
  3728.4500      9.4458   6674.6685      0.0000      3.4851      0.0806
  3728.4000      9.4458   6685.6401      0.0000      3.4851      0.0006
  3728.3500      9.4092   6705.6187      0.0000      3.4645     -0.0012
  3728.3000      9.4092   6705.6187      0.0000      3.4645     -0.0003
  3728.2500      9.4092   6726.9155      0.0000      3.4950     -0.0076
  3728.2000      9.4275   6726.9155      0.0000      3.4950     -0.0092
  3728.1500      9.4275   6762.1006      0.0000      3.4752     -0.0131
  3728.1000      9.4275   6812.2427      0.0000      3.4752     -0.0067
  3728.0500      9.4458   6812.2427      0.0000      3.4752     -0.0043
  3728.0000      9.4458   6853.3447      0.0000      3.4645     -0.0107
  3727.9500      9.4458   6879.3457      0.0000      3.4950     -0.0061
  3727.9000      9.4458   6879.3457      0.0000      3.4950     -0.0082
  3727.8500      9.4458   6901.5044      0.0000      3.4851      0.0125
  3727.8000      9.4458   6914.0103      0.0000      3.4851     -0.0992
  3727.7500      9.4640   6914.0103      0.0000      3.4851     -0.1529
  3727.7000      9.4640   6909.1626      0.0000      3.4447      0.0214
  3727.6500      9.4640   6894.1846      0.0000      3.4851      0.0461
  3727.6000      9.4275   6894.1846      0.0000      3.4851     -0.1080
  3727.5500      9.4275   6870.2373      0.0000      3.4851     -0.1291
  3727.5000      9.4275   6833.3203      0.0000      3.5255     -0.2798
  3727.4500      9.4275   6833.3203      0.0000      3.5255     -0.4523
  3727.4000      9.4275   6790.2671      0.0000      3.4447     -0.1492
  3727.3500      9.4275   6745.9883      0.0000      3.4851      0.3738
  3727.3000      9.4275   6745.9883      0.0000      3.4851     -0.3830
  3727.2500      9.4275   6703.4111      0.0000      3.4851      0.7913
  3727.2000      9.4275   6674.7373      0.0000      3.4752     -0.1538
  3727.1500      9.4275   6674.7373      0.0000      3.4752     -0.0302
  3727.1000      9.4092   6663.6191      0.0000      3.4851     -0.0916
  3727.0500      9.4092   6664.8267      0.0000      3.5156     -0.0012
  3727.0000      9.4092   6664.8267      0.0000      3.5156     -0.0250
  3726.9500      9.4458   6686.4370      0.0000      3.4447     -0.0073
  3726.9000      9.4458   6731.4355      0.0000      3.4851     -0.0085
  3726.8500      9.4458   6731.4355      0.0000      3.4851     -0.0491
  3726.8000      9.4458   6776.9321      0.0000      3.4851     -0.0125
  3726.7500      9.4458   6809.9326      0.0000      3.4851     -0.0067
  3726.7000      9.4458   6809.9326      0.0000      3.4851     -0.0040
  3726.6500      9.4458   6844.9902      0.0000      3.5255     -0.0159
  3726.6000      9.4458   6844.9902      0.0000      3.5255     -0.0140
  3726.5500      9.4458   6883.3218      0.0000      3.4546     -0.0238
  3726.5000      9.4458   6909.7813      0.0000      3.4752     -0.0043
  3726.4500      9.4458   6909.7813      0.0000      3.4752      0.0015
  3726.4000      9.4458   6924.7729      0.0000      3.4851     -0.0192
  3726.3500      9.4458   6933.6606      0.0000      3.4851      0.0052
  3726.3000      9.4275   6933.6606      0.0000      3.4851     -0.0092
  3726.2500      9.4275   6937.3408      0.0000      3.4645     -0.0092
  3726.2000      9.4275   6947.5327      0.0000      3.5156      0.0198
  3726.1500      9.3939   6947.5327      0.0000      3.5156     -0.0385
  3726.1000      9.3939   6971.3398      0.0000      3.4447     -0.0058
  3726.0500      9.3939   6993.5869      0.0000      3.4950     -0.0122
  3726.0000      9.3756   6993.5869      0.0000      3.4950     -0.0134
  3725.9500      9.3756   7008.0552      0.0000      3.4546     -0.0046
  3725.9000      9.3756   7029.8452      0.0000      3.4851     -0.0095
  3725.8500      9.3756   7029.8452      0.0000      3.4851     -0.0125
  3725.8000      9.3756   7060.4292      0.0000      3.4645     -0.0101
  3725.7500      9.3756   7089.2969      0.0000      3.4546     -0.0107
  3725.7000      9.3756   7089.2969      0.0000      3.4546     -0.0037
  3725.6500      9.3756   7117.4824      0.0000      3.4447     -0.0052
  3725.6000      9.3756   7142.3140      0.0000      3.5255     -0.0476
  3725.5500      9.4275   7142.3140      0.0000      3.5255      0.0244
  3725.5000      9.4275   7149.8716      0.0000      3.4950     -0.1129
  3725.4500      9.4275   7131.4033      0.0000      3.5255     -0.1199
  3725.4000      9.4275   7131.4033      0.0000      3.5255      0.0223
  3725.3500      9.4458   7078.9795      0.0000      3.5255      0.6064
  3725.3000      9.4458   6984.5049      0.0000      3.4851     -0.1892
  3725.2500      9.4458   6984.5049      0.0000      3.4851      1.5616
  3725.2000      9.4640   6863.1187      0.0000      3.4950     -2.8119
  3725.1500      9.4640   6744.0811      0.0000      3.4851      0.6369
  3725.1000      9.4640   6744.0811      0.0000      3.4851     -0.5219
  3725.0500      9.5006   6639.8101      0.0000      3.4851     -0.2530
  3725.0000      9.5006   6639.8101      0.0000      3.4851      0.0568
  3724.9500      9.5006   6559.5557      0.0000      3.4546     -0.3281
  3724.9000      9.4458   6519.7656      0.0000      3.4851      0.1602
  3724.8500      9.4458   6519.7656      0.0000      3.4851      0.0137
  3724.8000      9.4458   6517.9946      0.0000      3.4851      0.0461
  3724.7500      9.4823   6537.9292      0.0000      3.4851     -0.0125
  3724.7000      9.4823   6537.9292      0.0000      3.4851     -0.0049
  3724.6500      9.4823   6570.3271      0.0000      3.4546     -0.0122
  3724.6000      9.4275   6601.3579      0.0000      3.4950     -0.0070
  3724.5500      9.4275   6601.3579      0.0000      3.4950     -0.0143
  3724.5000      9.4275   6618.3936      0.0000      3.4546     -0.0180
  3724.4500      9.4458   6638.8667      0.0000      3.4447     -0.0192
  3724.4000      9.4458   6638.8667      0.0000      3.4447     -0.0153
  3724.3500      9.4458   6681.8062      0.0000      3.4851     -0.0125
  3724.3000      9.4458   6727.5654      0.0000      3.4645     -0.0082
  3724.2500      9.4092   6727.5654      0.0000      3.4645     -0.0143
  3724.2000      9.4092   6757.1543      0.0000      3.4851     -0.0043
  3724.1500      9.4092   6782.6450      0.0000      3.4851     -0.0159
  3724.1000      9.4458   6782.6450      0.0000      3.4851     -0.0177
  3724.0500      9.4458   6812.6821      0.0000      3.4851     -0.0137
  3724.0000      9.4458   6845.3838      0.0000      3.4950     -0.0104
  3723.9500      9.4640   6845.3838      0.0000      3.4950     -0.0092
  3723.9000      9.4640   6882.4224      0.0000      3.5156     -0.0070
  3723.8500      9.4640   6913.5850      0.0000      3.4950     -0.0195
  3723.8000      9.4275   6913.5850      0.0000      3.4950     -0.0113
  3723.7500      9.4275   6926.0947      0.0000      3.4546     -0.0333
  3723.7000      9.4275   6930.6113      0.0000      3.4950     -0.0494
  3723.6500      9.4458   6930.6113      0.0000      3.4950      0.0125
  3723.6000      9.4458   6935.9971      0.0000      3.4851     -0.0015
  3723.5500      9.4458   6930.2217      0.0000      3.4851      0.0653
  3723.5000      9.3939   6930.2217      0.0000      3.4851      0.2652
  3723.4500      9.3939   6908.0371      0.0000      3.4645     -0.1996
