~Version Information
VERS.                      2.0: CWLS Log ASCII Standard - VERSION 2.0
WRAP.                       NO: One line per depth step
~Well Information Block
STRT.M               3785.6000: START DEPTH
STOP.M               3572.2000: STOP DEPTH
STEP.M                 -0.0500: STEP
NULL.                -999.2500: NULL VALUE
COMP.                  STATOIL: COMPANY
WELL.               15/9-F-1-C: WELL
FLD.                     VOLVE: FIELD
LOC.                          : LOCATION
SRVC.          Halliburton Logging Services: SERVICE COMPANY
DATE.          Wed Dec 03 05-47-41 2014: LOG DATE
UWI.                          : UNIQUE WELL ID
CTRY.                   NORWAY: COUNTRY
SECT.                         : SECTION
TOWN.                         : TOWNSHIP
RANG.                         : RANGE
API.                          : API#
OS.                   --NONE--: OTHER SERVICES
PDAT.FT                  M.S.L: PERMANENT DATUM
EEL.FT                   54.9M: ELEVATION
LMF.FT                   R.K.B: LOG MEASURED FROM
DMF.FT                   R.K.B: DRILLING MEASURED FROM
EKB.FT                   54.9M: KB
EDF.FT                   54.9M: DF
EGL.FT                    -91M: GL
DATE1.         03-DEC-14 @ 05:47: DATE1
RUN1.                    1 & 2: RUN NUMBER
TDD1.FT                  4094M: DEPTH DRILLER
TDL1.FT                  3782M: DEPTH LOGGER
BLI1.FT                  3772M: BOTTOM LOGGED INTERVAL
TLI1.FT                  3572M: TOP LOG INTERVAL
CDD1.IN_FT                    : CASING DRILLER
CDL1.FT                       : CASING LOGGER
BS1.IN                    8.5": BIT SIZE
DFT1.                SEA WATER: TYPE FLUID IN HOLE
DFDV1.GM/C3_CP          1.03SG: DENSITY/VISCOSITY
DFPL1.C3                      : PH/FLUID LOSS
MSS1.                         : SOURCE OF SAMPLE
RMT1.OHHM_DEGF                : RM@MEASURED TEMP
RMFT1.OHMM_DEGF                : RMF@MEASURED TEMP
RMCT1.OHMM_DEGF                : RMC@MEASURED TEMP
RMFS1.                        : SOURCE OF RMF/RMC
RMBT1.OHMM_DEGF                : RM@BHT
TCS1.                         : TIME CIRCULATION STOPPED
TLOB1.                36 HOURS: TIME LOGGER ON BOTTOM
BHT1.DEGF                 FULL: MAXIMUM RECORDED TEMPERATURE
LUN1.                 12030699: EQUIPMENT NUMBER
LUL1.                   NORWAY: LOCATION
ENGI1.              C.JAMIESON: RECORDED BY
WITN1.                A.ALBAWI: WITNESSED BY
~Curve Information Block
DEPT.M             0 000 00 00: Depth
LSPD.M/MIN                   0: Line Speed
LTEN.LB                      0: Surface Line Tension
MINMK.                       0: Minute Mark Ticks
HVOLTA.V                     0: Head Voltage Apparent
CCL.                         0: Casing Collar Locator
~Parameter Information Block
SRFTEMP.DEGC           12.0000: Surface Temperature
MudWgt.LB/GAL           8.5600: Mud Weight
CASETHCK.IN             0.4530: Casing Thickness
BITSIZE.IN             12.2500: Borehole I.D.
~Other Information
TOOL STRING DEPLOYED BY ALTUS INTERVENTION WIRELINE UNIT ON 7/16" CABLE
CABLE HEAD BUILT BY ALTUS
LOG CORRELATED TO SHLUMBERGER 4.5" HSD OX POWER JET PULS DATED 09.APRIL.2014
CORRELATION LOG IS SHALLOWER BY 1.4M, DEPTH SHIFTED 1.4M DOWN AS PER
CLIENTS REQUEST.
4.655" HSC GUN 10 AND 350 DEGREE PHASING, 39 GR MILLENIUM, 4 SHOTS PER FOOT.
ATTEMPT WAS MADE TO RUN 4 GUNS IN ONE STRING BUT AT 3600M PICK UP WEIGHT 
WAS TOO HIGH TO CONTINUE.  CLIENT D4ECIDED TO SPLIT UP ONTO TWO RUNS.
RUN #1 CCL TO TOP SHOT 3.25 M, CCL STOP DEPT: 3729.75 M
PERFORATION INTERVAL 3733M - 3742.6M
RUN #2 CCL TO TOP SHOT 3.25 M, CCL STOP DEPT: 3711.75 M
PERFORATION INTERVAL 3715M - 3724.6M

~A  Depth       LSPD        LTEN       MINMK       HVOLTA       CCL     
# ...
  3673.6000      9.2690   6910.6890      0.0000      3.5164     -0.0272
  3673.5500      9.2690   6907.5371      0.0000      3.4859     -0.0177
  3673.5000      9.2324   6907.5371      0.0000      3.4859     -0.0220
  3673.4500      9.2324   6869.4976      0.0000      3.4958      0.2750
  3673.4000      9.2324   6787.4834      0.0000      3.5156     -0.3528
  3673.3500      9.2842   6787.4834      0.0000      3.5156     -0.5707
  3673.3000      9.2842   6682.4082      0.0000      3.5156     -1.5961
  3673.2500      9.2842   6575.8359      0.0000      3.4958     -0.6088
  3673.2000      9.2842   6575.8359      0.0000      3.4958     -0.5661
  3673.1500      9.3208   6478.9312      0.0000      3.4554      0.2924
  3673.1000      9.3208   6405.0151      0.0000      3.5362     -0.2643
  3673.0500      9.3208   6405.0151      0.0000      3.5362     -0.2765
  3673.0000      9.3939   6359.3564      0.0000      3.4851      0.1706
  3672.9500      9.3939   6342.1333      0.0000      3.5057      0.0662
  3672.9000      9.3939   6342.1333      0.0000      3.5057      0.1254
  3672.8500      9.4640   6358.5728      0.0000      3.4958     -0.1456
  3672.8000      9.4640   6397.1509      0.0000      3.4859      0.0266
  3672.7500      9.4640   6397.1509      0.0000      3.4859     -0.0232
  3672.7000      9.4275   6431.5186      0.0000      3.5255     -0.0110
  3672.6500      9.4275   6431.5186      0.0000      3.5255     -0.0238
  3672.6000      9.4275   6457.5903      0.0000      3.4851      0.0229
  3672.5500      9.3756   6486.3608      0.0000      3.4958      0.0085
  3672.5000      9.3756   6486.3608      0.0000      3.4958      0.0070
  3672.4500      9.3756   6515.7012      0.0000      3.4958     -0.0195
  3672.4000      9.3208   6549.0718      0.0000      3.4554      0.0058
  3672.3500      9.3208   6549.0718      0.0000      3.4554      0.0049
  3672.3000      9.3208   6595.3115      0.0000      3.5156     -0.0037
  3672.2500      9.2690   6635.4199      0.0000      3.5156     -0.0061
  3672.2000      9.2690   6635.4199      0.0000      3.5156     -0.0113
  3672.1500      9.2690   6650.0879      0.0000      3.4653     -0.0366
  3672.1000      9.2690   6648.9683      0.0000      3.4859     -0.0989
  3672.0500      9.2690   6648.9683      0.0000      3.4859     -0.0201
  3672.0000      9.2690   6631.4653      0.0000      3.5057     -0.1089
  3671.9500      9.2690   6584.1499      0.0000      3.5255      0.0308
  3671.9000      9.2690   6584.1499      0.0000      3.5255      0.0082
  3671.8500      9.2690   6523.0029      0.0000      3.5255     -0.3329
  3671.8000      9.2690   6469.1763      0.0000      3.4958      2.6682
  3671.7500      9.3025   6469.1763      0.0000      3.4958     -1.5622
  3671.7000      9.3025   6416.0303      0.0000      3.4554     -0.2728
  3671.6500      9.3025   6371.0474      0.0000      3.5057     -0.0888
  3671.6000      9.3574   6371.0474      0.0000      3.5057      0.0369
  3671.5500      9.3574   6363.6479      0.0000      3.5156     -0.0674
  3671.5000      9.3574   6391.6157      0.0000      3.4851      0.0281
  3671.4500      9.3756   6391.6157      0.0000      3.4851     -0.0323
  3671.4000      9.3756   6431.1636      0.0000      3.4958     -0.0159
  3671.3500      9.3756   6473.3052      0.0000      3.4958     -0.0098
  3671.3000      9.3756   6473.3052      0.0000      3.4958     -0.0009
  3671.2500      9.3756   6507.8462      0.0000      3.4752      0.0024
  3671.2000      9.3756   6528.2832      0.0000      3.4546     -0.0101
  3671.1500      9.3391   6528.2832      0.0000      3.4546     -0.0189
  3671.1000      9.3391   6551.8125      0.0000      3.5057     -0.0183
  3671.0500      9.3391   6551.8125      0.0000      3.5057     -0.0208
  3671.0000      9.2842   6582.7505      0.0000      3.4958     -0.0143
  3670.9500      9.2842   6596.8887      0.0000      3.4859      0.0052
  3670.9000      9.2842   6596.8887      0.0000      3.4859      0.0177
  3670.8500      9.3025   6589.4443      0.0000      3.4851     -0.0168
  3670.8000      9.3025   6571.8545      0.0000      3.4950     -0.0159
  3670.7500      9.3025   6571.8545      0.0000      3.4950      0.1035
  3670.7000      9.3025   6531.3281      0.0000      3.4958     -0.2029
  3670.6500      9.2842   6462.5146      0.0000      3.4859     -0.2121
  3670.6000      9.2842   6462.5146      0.0000      3.4859      0.0323
  3670.5500      9.2842   6393.1094      0.0000      3.4554     -0.2298
  3670.5000      9.3208   6340.9102      0.0000      3.4950     -0.0940
  3670.4500      9.3208   6340.9102      0.0000      3.4950     -0.2396
  3670.4000      9.3208   6303.3623      0.0000      3.5461     -0.0409
  3670.3500      9.3939   6280.6221      0.0000      3.4958     -0.0595
  3670.3000      9.3939   6280.6221      0.0000      3.4958     -0.0461
  3670.2500      9.3939   6268.1914      0.0000      3.4958     -0.0455
  3670.2000      9.3756   6260.6963      0.0000      3.4554     -0.0101
  3670.1500      9.3756   6260.6963      0.0000      3.4554     -0.0070
  3670.1000      9.3756   6270.4424      0.0000      3.5156     -0.0171
  3670.0500      9.4640   6301.2212      0.0000      3.4851      0.0009
  3670.0000      9.4640   6301.2212      0.0000      3.4851     -0.0064
  3669.9500      9.4640   6331.2842      0.0000      3.4958     -0.0137
  3669.9000      9.4092   6351.0562      0.0000      3.5263     -0.0244
  3669.8500      9.4092   6351.0562      0.0000      3.5263     -0.0201
  3669.8000      9.4092   6364.9326      0.0000      3.4958     -0.0485
  3669.7500      9.3574   6362.2402      0.0000      3.4752      0.0052
  3669.7000      9.3574   6362.2402      0.0000      3.4752      0.0287
  3669.6500      9.3574   6342.0181      0.0000      3.5660     -0.0211
  3669.6000      9.3756   6323.7524      0.0000      3.4958      0.0092
  3669.5500      9.3756   6323.7524      0.0000      3.4958     -0.0821
  3669.5000      9.3756   6304.4214      0.0000      3.5164     -0.1007
  3669.4500      9.3756   6304.4214      0.0000      3.5164      0.0714
  3669.4000      9.3391   6267.7021      0.0000      3.4851     -0.0485
  3669.3500      9.3391   6229.2979      0.0000      3.4851     -0.0082
  3669.3000      9.3391   6229.2979      0.0000      3.4851     -0.8102
  3669.2500      9.3574   6212.1377      0.0000      3.5362     -0.2637
  3669.2000      9.3574   6213.2100      0.0000      3.4958     -0.2325
  3669.1500      9.3574   6213.2100      0.0000      3.4958     -0.0278
  3669.1000      9.3939   6230.3950      0.0000      3.4958     -0.1874
  3669.0500      9.3939   6266.8765      0.0000      3.5156      0.0125
  3669.0000      9.3939   6266.8765      0.0000      3.5156     -0.0436
  3668.9500      9.3391   6313.1875      0.0000      3.5156      0.0061
  3668.9000      9.3391   6365.6729      0.0000      3.5263     -0.0235
  3668.8500      9.3391   6365.6729      0.0000      3.5263     -0.0275
  3668.8000      9.3574   6426.2803      0.0000      3.4958      0.0079
  3668.7500      9.3574   6476.2578      0.0000      3.5362     -0.0189
  3668.7000      9.3574   6476.2578      0.0000      3.5362     -0.0162
  3668.6500      9.3208   6500.0625      0.0000      3.5156     -0.0107
  3668.6000      9.3208   6511.4951      0.0000      3.5255     -0.0403
  3668.5500      9.3208   6511.4951      0.0000      3.5255     -0.0214
  3668.5000      9.3025   6514.1938      0.0000      3.4859     -0.1163
  3668.4500      9.3025   6491.1460      0.0000      3.4859     -0.0742
  3668.4000      9.3025   6491.1460      0.0000      3.4859      0.2951
  3668.3500      9.3391   6451.1377      0.0000      3.4958     -0.2841
  3668.3000      9.3391   6416.4790      0.0000      3.4950     -0.3690
  3668.2500      9.3391   6416.4790      0.0000      3.4950      0.0894
  3668.2000      9.3391   6383.7197      0.0000      3.5255      0.0381
  3668.1500      9.3025   6352.3677      0.0000      3.4859     -0.1495
  3668.1000      9.3025   6352.3677      0.0000      3.4859      0.4666
  3668.0500      9.3025   6345.3208      0.0000      3.4554     -0.0259
