~Version Information
VERS.                      2.0: CWLS Log ASCII Standard - VERSION 2.0
WRAP.                       NO: One line per depth step
~Well Information Block
STRT.M               3169.8000: START DEPTH
STOP.M               3077.9500: STOP DEPTH
STEP.M                 -0.0500: STEP
NULL.                -999.2500: NULL VALUE
COMP.                  Statoil: COMPANY
WELL.                15/9-F-12: WELL
FLD.                     Volve: FIELD
LOC.                          : LOCATION
SRVC.          Halliburton Logging Services: SERVICE COMPANY
DATE.          Wed Nov 26 07-41-16 2014: LOG DATE
UWI.                          : UNIQUE WELL ID
SECT.                         : SECTION
TOWN.                         : TOWNSHIP
RANG.                         : RANGE
API.                          : API#
OS.                           : OTHER SERVICES
PDAT.FT                       : PERMANENT DATUM
EEL.FT                        : ELEVATION
LMF.FT                        : LOG MEASURED FROM
DMF.FT                        : DRILLING MEASURED FROM
EKB.FT                        : KB
EDF.FT                        : DF
EGL.FT                        : GL
DATE1.                        : DATE1
RUN1.                         : RUN NUMBER
TDD1.FT                       : DEPTH DRILLER
TDL1.FT                       : DEPTH LOGGER
BLI1.FT                       : BOTTOM LOGGED INTERVAL
TLI1.FT                       : TOP LOG INTERVAL
CDD1.IN_FT                    : CASING DRILLER
CDL1.FT                       : CASING LOGGER
BS1.IN                        : BIT SIZE
DFT1.                         : TYPE FLUID IN HOLE
DFDV1.GM/C3_CP                : DENSITY/VISCOSITY
DFPL1.C3                      : PH/FLUID LOSS
MSS1.                         : SOURCE OF SAMPLE
RMT1.OHHM_DEGF                : RM@MEASURED TEMP
RMFT1.OHMM_DEGF                : RMF@MEASURED TEMP
RMCT1.OHMM_DEGF                : RMC@MEASURED TEMP
RMFS1.                        : SOURCE OF RMF/RMC
RMBT1.OHMM_DEGF                : RM@BHT
TCS1.                         : TIME CIRCULATION STOPPED
TLOB1.                        : TIME LOGGER ON BOTTOM
BHT1.DEGF                     : MAXIMUM RECORDED TEMPERATURE
LUN1.                         : EQUIPMENT NUMBER
LUL1.                         : LOCATION
ENGI1.                        : RECORDED BY
WITN1.                        : WITNESSED BY
~Curve Information Block
DEPT.M             0 000 00 00: Depth
LSPD.M/MIN                   0: Line Speed
LTEN.LB                      0: Surface Line Tension
MINMK.                       0: Minute Mark Ticks
GR.GAPI                      0: Gamma Ray
CCL.                         0: Casing Collar Locator
ACCX.                        0: X Axis Accelerometer
ACCY.                        0: Y Axis Accelerometer
ACCZ.                        0: Z Axis Accelerometer
RB.DEG                       0: Relative Bearing
DEVI.DEG                     0: Deviation
TOTG.GEE                     0: Total G
RBRef.DEG                    0: RB Reference
IntTemp.DEGF                 0: Internal Electronics Temperature
~Parameter Information Block
~A  Depth       LSPD        LTEN       MINMK         GR         CCL         ACCX        ACCY        ACCZ         RB         DEVI        TOTG       RBRef      IntTemp   
# ...
  3100.2000      9.3939   4678.6919      0.0000     20.0502    359.0000   2396.6001   1753.7000   2162.3999     36.1946      0.0245   3673.5718    -36.1946    225.0971
  3100.1500      9.3208   4668.4678      0.0000     21.2407    366.0000   2383.3000   1761.6000   2208.8000     36.4697      0.0243   3696.2346    -36.4697    225.0887
  3100.1000      9.3208   4626.8335      0.0000     21.4913    369.0000   2390.5000   1783.0000   2200.3000     36.7181      0.0243   3706.0625    -36.7181    225.0795
  3100.0500      9.3208   4599.6753      0.0000     20.1755    366.0000   2402.3000   1812.6000   2155.3999     37.0355      0.0243   3701.6636    -37.0355    225.0549
  3100.0000      9.3208   4627.4800      0.0000     20.3635    374.0000   2411.3999   1823.8000   2130.5000     37.1011      0.0243   3698.6655    -37.1011    225.0395
  3099.9500      9.3208   4655.0625      0.0000     21.3034    355.0000   2399.8000   1823.2000   2127.2000     37.2250      0.0244   3688.9128    -37.2250    225.0338
  3099.9000      9.3208   4624.9863      0.0000     22.1806    369.0000   2375.1001   1831.4000   2134.7000     37.6352      0.0244   3681.3137    -37.6352    225.0310
  3099.8500      9.3208   4530.3389      0.0000     23.9350    369.0000   2364.7000   1841.3000   2085.3000     37.9065      0.0246   3651.1187    -37.9065    225.0451
  3099.8000      9.3208   4509.3784      0.0000     25.6894    365.0000   2349.8000   1817.1000   2059.0000     37.7148      0.0249   3614.2625    -37.7148    225.0662
  3099.7500      9.3208   4537.9038      0.0000     26.7545    363.0000   2342.8000   1800.9000   2067.1001     37.5493      0.0250   3606.2246    -37.5493    225.0852
  3099.7000      9.2842   4555.7993      0.0000     27.4437    382.0000   2312.8000   1789.8000   2077.6001     37.7351      0.0251   3587.3181    -37.7351    225.1048
  3099.6500      9.2842   4524.5483      0.0000     28.0703    374.0000   2314.6001   1797.2000   2086.8999     37.8280      0.0250   3597.5620    -37.8280    225.1196
  3099.6000      9.2842   4504.2725      0.0000     28.4463    362.0000   2317.1001   1799.9000   2102.1001     37.8397      0.0249   3609.3513    -37.8397    225.1281
  3099.5500      9.2842   4515.7588      0.0000     29.1981    379.0000   2317.7000   1810.1000   2125.8000     37.9895      0.0248   3628.6665    -37.9895    225.1323
  3099.5000      9.3391   4602.0298      0.0000     29.6994    364.0000   2316.5000   1810.9000   2164.8000     38.0162      0.0246   3651.2861    -38.0162    225.1365
  3099.4500      9.3391   4653.4199      0.0000     29.3861    364.0000   2320.3000   1814.4000   2166.8000     38.0243      0.0246   3656.6189    -38.0243    225.1400
  3099.4000      9.3391   4653.5889      0.0000     27.8823    364.0000   2324.7000   1811.1000   2185.8000     37.9210      0.0245   3669.0645    -37.9210    225.1379
  3099.3500      9.3574   4603.3169      0.0000     26.8172    368.0000   2315.3999   1806.5000   2196.3999     37.9617      0.0245   3667.2458    -37.9617    225.1295
  3099.3000      9.3574   4591.6060      0.0000     25.9400    369.0000   2305.6001   1795.3000   2189.8999     37.9068      0.0246   3651.6511    -37.9068    225.1224
  3099.2500      9.3574   4624.8579      0.0000     24.8122    356.0000   2318.5000   1811.4000   2166.2000     37.9998      0.0246   3653.6331    -37.9998    225.1098
  3099.2000      9.3574   4668.6602      0.0000     24.6868    362.0000   2333.7000   1807.4000   2125.8000     37.7570      0.0247   3637.5647    -37.7570    225.0929
  3099.1500      9.3574   4668.6060      0.0000     25.6894    381.0000   2329.7000   1818.6000   2126.7000     37.9762      0.0247   3641.1069    -37.9762    225.0788
  3099.1000      9.3574   4625.7915      0.0000     24.8748    363.0000   2329.1001   1839.0000   2122.5000     38.2938      0.0247   3648.5112    -38.2938    225.0767
  3099.0500      9.3756   4608.4155      0.0000     23.8096    365.0000   2330.6001   1838.3000   2100.5000     38.2652      0.0247   3636.3643    -38.2652    225.0781
  3099.0000      9.3756   4656.1499      0.0000     22.1179    366.0000   2342.7000   1868.8000   2070.0000     38.5798      0.0247   3642.1912    -38.5798    225.1027
  3098.9500      9.3756   4682.0913      0.0000     20.9901    373.0000   2322.8000   1857.6000   2090.2000     38.6502      0.0248   3635.2461    -38.6502    225.1281
  3098.9000      9.3574   4671.7173      0.0000     20.1129    367.0000   2322.1001   1871.7000   2136.5000     38.8701      0.0245   3668.7930    -38.8701    225.1491
  3098.8500      9.3574   4618.7700      0.0000     19.2983    364.0000   2302.8999   1858.0000   2134.2000     38.8969      0.0247   3648.3313    -38.8969    225.1618
  3098.8000      9.3574   4555.7715      0.0000     19.6116    376.0000   2306.3000   1843.6000   2119.2000     38.6380      0.0248   3634.4036    -38.6380    225.1681
  3098.7500      9.3391   4570.8452      0.0000     20.7395    367.0000   2312.1001   1854.0000   2138.7000     38.7250      0.0246   3654.7449    -38.7250    225.1576
  3098.7000      9.3391   4616.4131      0.0000     22.2432    360.0000   2306.3000   1846.6000   2162.3000     38.6834      0.0246   3661.2146    -38.6834    225.1449
  3098.6500      9.3391   4633.5630      0.0000     23.0578    377.0000   2321.2000   1846.4000   2189.1001     38.5005      0.0244   3686.3696    -38.5005    225.1295
  3098.6000      9.3391   4594.5869      0.0000     23.6217    354.0000   2312.3000   1837.7000   2149.6001     38.4759      0.0246   3653.0334    -38.4759    225.1245
  3098.5500      9.3391   4554.0728      0.0000     23.7470    361.0000   2359.2000   1834.5000   2138.8999     37.8684      0.0245   3675.0657    -37.8684    225.1203
  3098.5000      9.3391   4558.3872      0.0000     22.9951    364.0000   2368.2000   1824.0000   2143.7000     37.6037      0.0245   3678.4231    -37.6037    225.1203
  3098.4500      9.3025   4616.3877      0.0000     20.9274    368.0000   2361.7000   1817.2000   2118.1001     37.5763      0.0246   3655.9800    -37.5763    225.1203
  3098.4000      9.3025   4633.5269      0.0000     19.9249    372.0000   2354.8999   1806.2000   2109.8000     37.4881      0.0247   3641.3140    -37.4881    225.1203
  3098.3500      9.3025   4607.1611      0.0000     20.1755    372.0000   2342.0000   1813.5000   2098.6001     37.7520      0.0248   3630.1333    -37.7520    225.1182
  3098.3000      9.3391   4577.7759      0.0000     21.0527    358.0000   2350.3000   1799.6000   2076.0000     37.4409      0.0249   3615.5562    -37.4409    225.1196
  3098.2500      9.3391   4596.1152      0.0000     22.3685    365.0000   2330.3999   1800.1000   2111.6001     37.6840      0.0248   3623.5313    -37.6840    225.1252
  3098.2000      9.3391   4620.8735      0.0000     24.1856    361.0000   2318.8999   1799.0000   2137.3999     37.8043      0.0248   3630.7266    -37.8043    225.1295
  3098.1500      9.3025   4602.8730      0.0000     25.9400    368.0000   2313.8000   1800.9000   2162.0000     37.8947      0.0247   3642.9597    -37.8947    225.1337
  3098.1000      9.3025   4539.7690      0.0000     25.8147    369.0000   2301.8999   1783.5000   2177.0000     37.7683      0.0248   3635.7866    -37.7683    225.1393
  3098.0500      9.3025   4532.0933      0.0000     24.2482    379.0000   2255.6001   1806.1000   2166.7000     38.6849      0.0249   3611.6919    -38.6849    225.1400
  3098.0000      9.3025   4570.5923      0.0000     23.3084    359.0000   2251.1001   1848.2000   2171.1001     39.3867      0.0248   3632.7634    -39.3867    225.1400
  3097.9500      9.3025   4603.5308      0.0000     22.4312    369.0000   2274.2000   1868.9000   2173.3000     39.4128      0.0246   3658.9624    -39.4128    225.1400
  3097.9000      9.3025   4634.1504      0.0000     20.9901    357.0000   2260.3000   1839.0000   2159.1001     39.1321      0.0248   3626.6501    -39.1321    225.1400
  3097.8500      9.3025   4613.2598      0.0000     20.4888    360.0000   2228.5000   1809.3000   2137.7000     39.0728      0.0251   3579.0417    -39.0728    225.1400
