~Version Information
VERS.                      2.0: CWLS Log ASCII Standard - VERSION 2.0
WRAP.                       NO: One line per depth step
~Well Information Block
STRT.M               3169.9500: START DEPTH
STOP.M               3076.7000: STOP DEPTH
STEP.M                 -0.0500: STEP
NULL.                -999.2500: NULL VALUE
COMP.                  Statoil: COMPANY
WELL.                15/9-F-12: WELL
FLD.                     Volve: FIELD
LOC.                          : LOCATION
SRVC.          Halliburton Logging Services: SERVICE COMPANY
DATE.          Wed Nov 26 07-57-02 2014: LOG DATE
UWI.                          : UNIQUE WELL ID
SECT.                         : SECTION
TOWN.                         : TOWNSHIP
RANG.                         : RANGE
API.                          : API#
OS.                           : OTHER SERVICES
PDAT.FT                       : PERMANENT DATUM
EEL.FT                        : ELEVATION
LMF.FT                        : LOG MEASURED FROM
DMF.FT                        : DRILLING MEASURED FROM
EKB.FT                        : KB
EDF.FT                        : DF
EGL.FT                        : GL
DATE1.                        : DATE1
RUN1.                         : RUN NUMBER
TDD1.FT                       : DEPTH DRILLER
TDL1.FT                       : DEPTH LOGGER
BLI1.FT                       : BOTTOM LOGGED INTERVAL
TLI1.FT                       : TOP LOG INTERVAL
CDD1.IN_FT                    : CASING DRILLER
CDL1.FT                       : CASING LOGGER
BS1.IN                        : BIT SIZE
DFT1.                         : TYPE FLUID IN HOLE
DFDV1.GM/C3_CP                : DENSITY/VISCOSITY
DFPL1.C3                      : PH/FLUID LOSS
MSS1.                         : SOURCE OF SAMPLE
RMT1.OHHM_DEGF                : RM@MEASURED TEMP
RMFT1.OHMM_DEGF                : RMF@MEASURED TEMP
RMCT1.OHMM_DEGF                : RMC@MEASURED TEMP
RMFS1.                        : SOURCE OF RMF/RMC
RMBT1.OHMM_DEGF                : RM@BHT
TCS1.                         : TIME CIRCULATION STOPPED
TLOB1.                        : TIME LOGGER ON BOTTOM
BHT1.DEGF                     : MAXIMUM RECORDED TEMPERATURE
LUN1.                         : EQUIPMENT NUMBER
LUL1.                         : LOCATION
ENGI1.                        : RECORDED BY
WITN1.                        : WITNESSED BY
~Curve Information Block
DEPT.M             0 000 00 00: Depth
LSPD.M/MIN                   0: Line Speed
LTEN.LB                      0: Surface Line Tension
MINMK.                       0: Minute Mark Ticks
GR.GAPI                      0: Gamma Ray
CCL.                         0: Casing Collar Locator
ACCX.                        0: X Axis Accelerometer
ACCY.                        0: Y Axis Accelerometer
ACCZ.                        0: Z Axis Accelerometer
RB.DEG                       0: Relative Bearing
DEVI.DEG                     0: Deviation
TOTG.GEE                     0: Total G
RBRef.DEG                    0: RB Reference
IntTemp.DEGF                 0: Internal Electronics Temperature
~Parameter Information Block
~A  Depth       LSPD        LTEN       MINMK         GR         CCL         ACCX        ACCY        ACCZ         RB         DEVI        TOTG       RBRef      IntTemp   
# ...
  3117.1500      9.1257   4238.9214      0.0000     80.7648    523.0000   2557.3000  -1387.9000   2172.0000    331.5104      0.0248   3630.9275     28.4896    225.9500
  3117.1000      9.1257   4192.2197      0.0000     80.2636    533.0000   2565.5000  -1402.6000   2193.3999    331.3339      0.0246   3655.1443     28.6661    225.9676
  3117.0500      9.1257   4151.3159      0.0000     80.1382    529.0000   2571.8000  -1366.9000   2174.3999    332.0096      0.0248   3634.6370     27.9904    225.9922
  3117.0000      9.1958   4159.1963      0.0000     80.1382    534.0000   2571.7000  -1337.1000   2136.2000    332.5288      0.0250   3600.6704     27.4712    226.0041
  3116.9500      9.1958   4208.7681      0.0000     79.3237    530.0000   2600.3000  -1324.6000   2123.1001    333.0056      0.0249   3608.8335     26.9944    226.0084
  3116.9000      9.1958   4211.4526      0.0000     76.8174    531.0000   2599.7000  -1309.7000   2162.3000    333.2615      0.0248   3626.1958     26.7385    226.0020
  3116.8500      9.2324   4178.3706      0.0000     75.3763    529.0000   2603.8999  -1296.7000   2150.2000    333.5274      0.0249   3617.3313     26.4726    225.9943
  3116.8000      9.2324   4149.5044      0.0000     74.9377    524.0000   2625.7000  -1282.8000   2147.6001    333.9619      0.0248   3626.5771     26.0381    225.9852
  3116.7500      9.2324   4170.2251      0.0000     73.9979    520.0000   2627.0000  -1297.7000   2146.2000    333.7113      0.0248   3631.9868     26.2887    225.9866
  3116.7000      9.1592   4200.0981      0.0000     73.3086    518.0000   2633.7000  -1297.5000   2185.3000    333.7727      0.0246   3659.9751     26.2273    225.9852
  3116.6500      9.1592   4206.1631      0.0000     72.4941    533.0000   2639.3999  -1312.1000   2191.8999    333.5671      0.0245   3673.2090     26.4329    225.9908
  3116.6000      9.1592   4173.5024      0.0000     66.8550    530.0000   2646.8000  -1262.0000   2183.1001    334.5081      0.0246   3655.6970     25.4919    225.9901
  3116.5500      9.2141   4149.3672      0.0000     62.4690    504.0000   2656.3000  -1221.4000   2200.7000    335.3064      0.0246   3659.3481     24.6936    225.9795
  3116.5000      9.2141   4156.2837      0.0000     57.6444    535.0000   2656.8999  -1198.9000   2190.7000    335.7132      0.0247   3646.3193     24.2868    225.9648
  3116.4500      9.2141   4198.7495      0.0000     53.0078    519.0000   2664.8999  -1144.9000   2180.3000    336.7506      0.0248   3628.5254     23.2494    225.9402
  3116.4000      9.1592   4202.3706      0.0000     53.8223    523.0000   2687.6001  -1124.5000   2163.8999    337.2954      0.0248   3629.0710     22.7046    225.9169
  3116.3500      9.1592   4163.1323      0.0000     57.4564    519.0000   2712.3000  -1076.2000   2152.3999    338.3576      0.0248   3625.9624     21.6424    225.9043
  3116.3000      9.1592   4122.1196      0.0000     61.2158    525.0000   2720.0000  -1039.5000   2140.3999    339.0847      0.0249   3613.8999     20.9153    225.9022
  3116.2500      9.1592   4143.6763      0.0000     68.8600    524.0000   2739.3000  -1007.6000   2095.1001    339.8049      0.0250   3592.8354     20.1951    225.9001
  3116.2000      9.1592   4192.5190      0.0000     73.0580    517.0000   2756.2000   -987.1000   2097.6001    340.2956      0.0250   3601.5178     19.7044    225.9043
  3116.1500      9.1592   4205.0703      0.0000     72.9954    540.0000   2760.1001   -959.2000   2094.1001    340.8365      0.0250   3594.9231     19.1635    225.9120
  3116.1000      9.2141   4172.4609      0.0000     71.8675    539.0000   2769.1001   -935.2000   2111.3000    341.3388      0.0250   3605.5654     18.6612    225.9184
  3116.0500      9.2141   4147.6440      0.0000     69.4866    540.0000   2763.6001   -917.9000   2121.8999    341.6266      0.0250   3603.1216     18.3734    225.9303
  3116.0000      9.2141   4180.3799      0.0000     64.9126    502.0000   2757.7000   -939.7000   2131.1001    341.1832      0.0249   3609.6443     18.8168    225.9486
  3115.9500      9.1592   4215.0889      0.0000     62.2810    523.0000   2763.3999   -966.8000   2172.8000    340.7172      0.0247   3645.8389     19.2828    225.9669
  3115.9000      9.1592   4194.9258      0.0000     62.4690    539.0000   2774.7000   -953.4000   2191.8999    341.0370      0.0246   3662.2883     18.9630    225.9852
  3115.8500      9.1592   4151.8096      0.0000     62.5316    525.0000   2745.3999   -950.0000   2196.8000    340.9127      0.0247   3642.2041     19.0873    225.9985
  3115.8000      9.1592   4132.9976      0.0000     62.3437    525.0000   2776.8000   -900.8000   2194.3000    342.0268      0.0246   3651.9873     17.9732    226.0027
  3115.7500      9.1958   4152.0571      0.0000     63.9101    518.0000   2788.3000   -851.0000   2192.2000    343.0276      0.0247   3647.5415     16.9724    226.0048
  3115.7000      9.1958   4192.0166      0.0000     63.3462    521.0000   2828.0000   -771.4000   2170.1001    344.7425      0.0247   3647.1875     15.2575    226.0091
  3115.6500      9.1958   4193.2334      0.0000     63.0956    526.0000   2837.0000   -681.8000   2117.3999    346.4867      0.0250   3605.1079     13.5133    226.0077
  3115.6000      9.1775   4163.9146      0.0000     63.4088    526.0000   2842.8000   -609.9000   2084.6001    347.8912      0.0252   3577.5757     12.1088    225.9964
  3115.5500      9.1775   4138.2280      0.0000     64.0354    524.0000   2910.7000   -537.6000   2086.3000    349.5355      0.0249   3621.3030     10.4645    225.9816
  3115.5000      9.1775   4166.0166      0.0000     65.2259    527.0000   2899.8999   -505.5000   2079.0000    350.1118      0.0250   3603.7744      9.8882    225.9732
  3115.4500      9.1592   4207.6470      0.0000     66.4790    532.0000   2908.8000   -489.2000   2075.7000    350.4534      0.0250   3606.7942      9.5466    225.9627
  3115.4000      9.1592   4215.9819      0.0000     67.5442    529.0000   2892.8999   -469.9000   2075.2000    350.7739      0.0251   3591.1184      9.2261    225.9500
  3115.3500      9.1592   4182.1475      0.0000     69.3612    526.0000   2903.8999   -475.4000   2123.5000    350.7025      0.0248   3628.7590      9.2975    225.9395
  3115.3000      9.2324   4152.8301      0.0000     71.2410    524.0000   2896.3000   -482.3000   2158.6001    350.5457      0.0247   3644.2725      9.4543    225.9289
  3115.2500      9.2324   4194.9434      0.0000     72.3061    523.0000   2892.3000   -486.5000   2154.8999    350.4519      0.0247   3639.4609      9.5481    225.9099
  3115.2000      9.2324   4281.4854      0.0000     72.4314    506.0000   2890.3999   -484.8000   2166.1001    350.4785      0.0247   3644.3699      9.5215    225.8966
  3115.1500      9.1074   4304.1860      0.0000     72.1808    530.0000   2888.6001   -503.1000   2158.8999    350.1201      0.0247   3641.1494      9.8800    225.9008
  3115.1000      9.1074   4291.1216      0.0000     70.8650    541.0000   2880.7000   -486.5000   2175.3999    350.4142      0.0247   3642.4551      9.5858    225.9127
  3115.0500      9.1074   4282.4741      0.0000     70.6144    535.0000   2885.2000   -498.2000   2186.3000    350.2031      0.0246   3654.1060      9.7969    225.9296
  3115.0000      9.1257   4315.1348      0.0000     69.9252    532.0000   2894.0000   -501.5000   2155.7000    350.1689      0.0247   3643.3201      9.8311    225.9655
  3114.9500      9.1257   4343.1826      0.0000     68.9226    523.0000   2898.3999   -504.6000   2165.3000    350.1240      0.0246   3652.9258      9.8760    225.9802
  3114.9000      9.1257   4333.4839      0.0000     65.9778    517.0000   2887.1001   -536.6000   2153.8000    349.4711      0.0247   3641.7222     10.5289    225.9950
  3114.8500      9.1074   4257.9438      0.0000     59.3988    527.0000   2869.3999   -535.6000   2190.7000    349.4269      0.0247   3649.5876     10.5731    226.0013
  3114.8000      9.1074   4204.2876      0.0000     54.0730    528.0000   2882.8000   -547.3000   2159.8000    349.2503      0.0247   3643.4612     10.7497    225.9999
