~Version Information
VERS.                      2.0: CWLS Log ASCII Standard - VERSION 2.0
WRAP.                       NO: One line per depth step
~Well Information Block
STRT.M               3779.9000: START DEPTH
STOP.M               3659.5000: STOP DEPTH
STEP.M                 -0.0500: STEP
NULL.                -999.2500: NULL VALUE
COMP.                  STATOIL: COMPANY
WELL.               15/9-F-1-C: WELL
FLD.                     VOLVE: FIELD
LOC.                          : LOCATION
SRVC.          Halliburton Logging Services: SERVICE COMPANY
DATE.          Wed Dec 03 07-18-31 2014: LOG DATE
UWI.                          : UNIQUE WELL ID
CTRY.                   NORWAY: COUNTRY
SECT.                         : SECTION
TOWN.                         : TOWNSHIP
RANG.                         : RANGE
API.                          : API#
OS.                   --NONE--: OTHER SERVICES
PDAT.FT                  M.S.L: PERMANENT DATUM
EEL.FT                   54.9M: ELEVATION
LMF.FT                   R.K.B: LOG MEASURED FROM
DMF.FT                   R.K.B: DRILLING MEASURED FROM
EKB.FT                   54.9M: KB
EDF.FT                   54.9M: DF
EGL.FT                    -91M: GL
DATE1.         03-DEC-14 @ 05:47: DATE1
RUN1.                    1 & 2: RUN NUMBER
TDD1.FT                  4094M: DEPTH DRILLER
TDL1.FT                  3782M: DEPTH LOGGER
BLI1.FT                  3772M: BOTTOM LOGGED INTERVAL
TLI1.FT                  3572M: TOP LOG INTERVAL
CDD1.IN_FT                    : CASING DRILLER
CDL1.FT                       : CASING LOGGER
BS1.IN                    8.5": BIT SIZE
DFT1.                SEA WATER: TYPE FLUID IN HOLE
DFDV1.GM/C3_CP          1.03SG: DENSITY/VISCOSITY
DFPL1.C3                      : PH/FLUID LOSS
MSS1.                         : SOURCE OF SAMPLE
RMT1.OHHM_DEGF                : RM@MEASURED TEMP
RMFT1.OHMM_DEGF                : RMF@MEASURED TEMP
RMCT1.OHMM_DEGF                : RMC@MEASURED TEMP
RMFS1.                        : SOURCE OF RMF/RMC
RMBT1.OHMM_DEGF                : RM@BHT
TCS1.                         : TIME CIRCULATION STOPPED
TLOB1.                36 HOURS: TIME LOGGER ON BOTTOM
BHT1.DEGF                 FULL: MAXIMUM RECORDED TEMPERATURE
LUN1.                 12030699: EQUIPMENT NUMBER
LUL1.                   NORWAY: LOCATION
ENGI1.              C.JAMIESON: RECORDED BY
WITN1.                A.ALBAWI: WITNESSED BY
~Curve Information Block
DEPT.M             0 000 00 00: Depth
LSPD.M/MIN                   0: Line Speed
LTEN.LB                      0: Surface Line Tension
MINMK.                       0: Minute Mark Ticks
HVOLTA.V                     0: Head Voltage Apparent
CCL.                         0: Casing Collar Locator
~Parameter Information Block
SRFTEMP.DEGC           12.0000: Surface Temperature
MudWgt.LB/GAL           8.5600: Mud Weight
CASETHCK.IN             0.4530: Casing Thickness
BITSIZE.IN             12.2500: Borehole I.D.
~Other Information
TOOL STRING DEPLOYED BY ALTUS INTERVENTION WIRELINE UNIT ON 7/16" CABLE
CABLE HEAD BUILT BY ALTUS
LOG CORRELATED TO SHLUMBERGER 4.5" HSD OX POWER JET PULS DATED 09.APRIL.2014
CORRELATION LOG IS SHALLOWER BY 1.4M, DEPTH SHIFTED 1.4M DOWN AS PER
CLIENTS REQUEST.
4.655" HSC GUN 10 AND 350 DEGREE PHASING, 39 GR MILLENIUM, 4 SHOTS PER FOOT.
ATTEMPT WAS MADE TO RUN 4 GUNS IN ONE STRING BUT AT 3600M PICK UP WEIGHT 
WAS TOO HIGH TO CONTINUE.  CLIENT D4ECIDED TO SPLIT UP ONTO TWO RUNS.
RUN #1 CCL TO TOP SHOT 3.25 M, CCL STOP DEPT: 3729.75 M
PERFORATION INTERVAL 3733M - 3742.6M
RUN #2 CCL TO TOP SHOT 3.25 M, CCL STOP DEPT: 3711.75 M
PERFORATION INTERVAL 3715M - 3724.6M

~A  Depth       LSPD        LTEN       MINMK       HVOLTA       CCL     
# ...
  3679.1000      9.3939   6585.5435      0.0000      3.5469     -2.0092
  3679.0500      9.3939   6594.6860      0.0000      3.4859     -2.1309
  3679.0000      9.3574   6594.6860      0.0000      3.4859     -1.7961
  3678.9500      9.3574   6602.0942      0.0000      3.5561     -2.2036
  3678.9000      9.3574   6602.0942      0.0000      3.5561     -1.9649
  3678.8500      9.3939   6608.4380      0.0000      3.5263     -2.0595
  3678.8000      9.3939   6631.5308      0.0000      3.5568     -2.0122
  3678.7500      9.3939   6631.5308      0.0000      3.5568     -2.0064
  3678.7000      9.3025   6663.7036      0.0000      3.4859     -2.0241
  3678.6500      9.3025   6692.9321      0.0000      3.4859     -1.9982
  3678.6000      9.3025   6692.9321      0.0000      3.4859     -2.0162
  3678.5500      9.3391   6725.3887      0.0000      3.5370     -2.0183
  3678.5000      9.3391   6758.9448      0.0000      3.4447     -1.9792
  3678.4500      9.3391   6758.9448      0.0000      3.4447     -2.0565
  3678.4000      9.3574   6787.4063      0.0000      3.4958     -2.0116
  3678.3500      9.3574   6813.8296      0.0000      3.4149     -2.0024
  3678.3000      9.3574   6813.8296      0.0000      3.4149     -2.0226
  3678.2500      9.3025   6824.0630      0.0000      3.5370     -1.9811
  3678.2000      9.3025   6798.7524      0.0000      3.4660     -2.0125
  3678.1500      9.3025   6798.7524      0.0000      3.4660     -1.9402
  3678.1000      9.3939   6749.2554      0.0000      3.5057     -2.0241
  3678.0500      9.3939   6688.5977      0.0000      3.5561     -1.5734
  3678.0000      9.3939   6688.5977      0.0000      3.5561     -2.0803
  3677.9500      9.3939   6609.5430      0.0000      3.4958     -1.7327
  3677.9000      9.4275   6524.6592      0.0000      3.4653     -2.0998
  3677.8500      9.4275   6524.6592      0.0000      3.4653     -2.0391
  3677.8000      9.4275   6461.9517      0.0000      3.4554     -1.8828
  3677.7500      9.3939   6422.1543      0.0000      3.5057     -1.2874
  3677.7000      9.3939   6422.1543      0.0000      3.5057     -1.9313
  3677.6500      9.3939   6403.9922      0.0000      3.5156     -1.9747
  3677.6000      9.5006   6424.7344      0.0000      3.5255     -2.0412
  3677.5500      9.5006   6424.7344      0.0000      3.5255     -2.1300
  3677.5000      9.5006   6475.8926      0.0000      3.4958     -2.0763
  3677.4500      9.4092   6475.8926      0.0000      3.4958     -2.0360
  3677.4000      9.4092   6525.6006      0.0000      3.4454     -1.9997
  3677.3500      9.4092   6564.1655      0.0000      3.4653     -2.0137
  3677.3000      9.3391   6564.1655      0.0000      3.4653     -2.0232
  3677.2500      9.3391   6593.1455      0.0000      3.5156     -2.0000
  3677.2000      9.3391   6608.5586      0.0000      3.5362     -1.9646
  3677.1500      9.3756   6608.5586      0.0000      3.5362     -2.0110
  3677.1000      9.3756   6625.1646      0.0000      3.4859     -2.0067
  3677.0500      9.3756   6659.9058      0.0000      3.4958     -2.0076
  3677.0000      9.2507   6659.9058      0.0000      3.4958     -2.0015
  3676.9500      9.2507   6699.4136      0.0000      3.4958     -1.9976
  3676.9000      9.2507   6734.4263      0.0000      3.5156     -2.0269
  3676.8500      9.3208   6734.4263      0.0000      3.5156     -1.9927
  3676.8000      9.3208   6775.2725      0.0000      3.4447     -2.0253
  3676.7500      9.3208   6814.5015      0.0000      3.4859     -2.0055
  3676.7000      9.3025   6814.5015      0.0000      3.4859     -2.0351
  3676.6500      9.3025   6837.2651      0.0000      3.4859     -1.9979
  3676.6000      9.3025   6849.0508      0.0000      3.4042     -2.0107
  3676.5500      9.2141   6849.0508      0.0000      3.4042     -1.9872
  3676.5000      9.2141   6853.5981      0.0000      3.4851     -2.0107
  3676.4500      9.2141   6839.7300      0.0000      3.5156     -1.9744
  3676.4000      9.2141   6839.7300      0.0000      3.5156     -2.1001
  3676.3500      9.3025   6799.0859      0.0000      3.5469     -1.9268
  3676.3000      9.3025   6727.2075      0.0000      3.4653     -2.5948
  3676.2500      9.3025   6727.2075      0.0000      3.4653     -2.3888
  3676.2000      9.2842   6627.6177      0.0000      3.4653     -1.4394
  3676.1500      9.2842   6529.2725      0.0000      3.5156     -2.2719
  3676.1000      9.2842   6529.2725      0.0000      3.5156     -2.6277
  3676.0500      9.3574   6461.4150      0.0000      3.4546     -2.5963
  3676.0000      9.3574   6425.7607      0.0000      3.4958     -2.0723
  3675.9500      9.3574   6425.7607      0.0000      3.4958     -2.0183
  3675.9000      9.4640   6423.7031      0.0000      3.4752     -1.9561
  3675.8500      9.4640   6423.7031      0.0000      3.4752     -2.0323
  3675.8000      9.4640   6462.1367      0.0000      3.5065     -2.0262
  3675.7500      9.4092   6522.4800      0.0000      3.4554     -2.0180
  3675.7000      9.4092   6522.4800      0.0000      3.4554     -2.0140
  3675.6500      9.4092   6576.8916      0.0000      3.4546     -1.9893
  3675.6000      9.4275   6621.0503      0.0000      3.5461     -1.9960
  3675.5500      9.4275   6621.0503      0.0000      3.5461     -1.9957
  3675.5000      9.4275   6656.3193      0.0000      3.3943     -1.9988
  3675.4500      9.3939   6679.6011      0.0000      3.4653     -1.9994
  3675.4000      9.3939   6679.6011      0.0000      3.4653     -2.0150
  3675.3500      9.3939   6703.7593      0.0000      3.4355     -2.0232
  3675.3000      9.3391   6736.4995      0.0000      3.4752     -2.0211
  3675.2500      9.3391   6736.4995      0.0000      3.4752     -2.0153
  3675.2000      9.3391   6763.2612      0.0000      3.4950     -2.0146
  3675.1500      9.3391   6788.0215      0.0000      3.5065     -2.0009
  3675.1000      9.3574   6788.0215      0.0000      3.5065     -2.0095
  3675.0500      9.3574   6830.6885      0.0000      3.5469     -2.0156
  3675.0000      9.3574   6880.3130      0.0000      3.5156     -2.0140
  3674.9500      9.3025   6880.3130      0.0000      3.5156     -2.0043
  3674.9000      9.3025   6916.6079      0.0000      3.5255     -2.0092
  3674.8500      9.3025   6945.1440      0.0000      3.5362     -2.0156
  3674.8000      9.3391   6945.1440      0.0000      3.5362     -2.0027
  3674.7500      9.3391   6961.0425      0.0000      3.4348     -2.0058
  3674.7000      9.3391   6937.2852      0.0000      3.3844     -2.0812
  3674.6500      9.3208   6937.2852      0.0000      3.3844     -1.8059
  3674.6000      9.3208   6875.2417      0.0000      3.4752     -1.7235
  3674.5500      9.3208   6801.3184      0.0000      3.5156     -2.3003
  3674.5000      9.3391   6801.3184      0.0000      3.5156     -2.3537
  3674.4500      9.3391   6727.0713      0.0000      3.5568     -2.1816
  3674.4000      9.3391   6661.8716      0.0000      3.4958     -2.8334
  3674.3500      9.3939   6661.8716      0.0000      3.4958     -1.5468
  3674.3000      9.3939   6621.5317      0.0000      3.4653     -1.5715
  3674.2500      9.3939   6621.5317      0.0000      3.4653     -1.9597
  3674.2000      9.3939   6610.8389      0.0000      3.4760     -2.1129
  3674.1500      9.3939   6632.4009      0.0000      3.5156     -1.9887
  3674.1000      9.3939   6632.4009      0.0000      3.5156     -1.9667
  3674.0500      9.4092   6684.8247      0.0000      3.5156     -2.0528
  3674.0000      9.4092   6739.6650      0.0000      3.4653     -1.9304
  3673.9500      9.4092   6739.6650      0.0000      3.4653     -2.0818
  3673.9000      9.4092   6770.7002      0.0000      3.5065     -1.9533
  3673.8500      9.4458   6790.9639      0.0000      3.4760     -1.9554
  3673.8000      9.4458   6790.9639      0.0000      3.4760     -2.0455
  3673.7500      9.4458   6814.1567      0.0000      3.5461     -1.9976
  3673.7000      9.3574   6830.0659      0.0000      3.5568     -2.0104
  3673.6500      9.3574   6830.0659      0.0000      3.5568     -1.9878
  3673.6000      9.3574   6840.8081      0.0000      3.4859     -2.0116
  3673.5500      9.3574   6857.3853      0.0000      3.4859     -2.0485
