~Version Information
VERS.                      2.0: CWLS Log ASCII Standard - VERSION 2.0
WRAP.                       NO: One line per depth step
~Well Information Block
STRT.M               3135.0500: START DEPTH
STOP.M               3039.9000: STOP DEPTH
STEP.M                 -0.0500: STEP
NULL.                -999.2500: NULL VALUE
COMP.                  Statoil: COMPANY
WELL.                15/9-F-12: WELL
FLD.                     Volve: FIELD
LOC.                          : LOCATION
SRVC.          Halliburton Logging Services: SERVICE COMPANY
DATE.          Wed Nov 26 21-01-09 2014: LOG DATE
UWI.                          : UNIQUE WELL ID
SECT.                         : SECTION
TOWN.                         : TOWNSHIP
RANG.                         : RANGE
API.                          : API#
OS.                           : OTHER SERVICES
PDAT.FT                       : PERMANENT DATUM
EEL.FT                        : ELEVATION
LMF.FT                        : LOG MEASURED FROM
DMF.FT                        : DRILLING MEASURED FROM
EKB.FT                        : KB
EDF.FT                        : DF
EGL.FT                        : GL
DATE1.                        : DATE1
RUN1.                         : RUN NUMBER
TDD1.FT                       : DEPTH DRILLER
TDL1.FT                       : DEPTH LOGGER
BLI1.FT                       : BOTTOM LOGGED INTERVAL
TLI1.FT                       : TOP LOG INTERVAL
CDD1.IN_FT                    : CASING DRILLER
CDL1.FT                       : CASING LOGGER
BS1.IN                        : BIT SIZE
DFT1.                         : TYPE FLUID IN HOLE
DFDV1.GM/C3_CP                : DENSITY/VISCOSITY
DFPL1.C3                      : PH/FLUID LOSS
MSS1.                         : SOURCE OF SAMPLE
RMT1.OHHM_DEGF                : RM@MEASURED TEMP
RMFT1.OHMM_DEGF                : RMF@MEASURED TEMP
RMCT1.OHMM_DEGF                : RMC@MEASURED TEMP
RMFS1.                        : SOURCE OF RMF/RMC
RMBT1.OHMM_DEGF                : RM@BHT
TCS1.                         : TIME CIRCULATION STOPPED
TLOB1.                        : TIME LOGGER ON BOTTOM
BHT1.DEGF                     : MAXIMUM RECORDED TEMPERATURE
LUN1.                         : EQUIPMENT NUMBER
LUL1.                         : LOCATION
ENGI1.                        : RECORDED BY
WITN1.                        : WITNESSED BY
~Curve Information Block
DEPT.M             0 000 00 00: Depth
LSPD.M/MIN                   0: Line Speed
LTEN.LB                      0: Surface Line Tension
MINMK.                       0: Minute Mark Ticks
HVOLTA.V                     0: Head Voltage Apparent
CCL.                         0: Casing Collar Locator
~Parameter Information Block
SRFTEMP.DEGC           10.0000: Surface Temperature
MudWgt.LB/GAL           8.5000: Mud Weight
CASETHCK.IN             6.1840: Casing Thickness
BITSIZE.IN              8.5000: Borehole I.D.
~A  Depth       LSPD        LTEN       MINMK       HVOLTA       CCL     
# ...
  3112.6500      9.0708   4334.0786      0.0000      3.5774     -2.0092
  3112.6000      9.0708   4334.0786      0.0000      3.5774     -2.0003
  3112.5500      9.0708   4319.6934      0.0000      3.5469     -2.0003
  3112.5000      9.1410   4313.7446      0.0000      3.5774     -2.0128
  3112.4500      9.1410   4313.7446      0.0000      3.5774     -2.0110
  3112.4000      9.1410   4322.2393      0.0000      3.6079     -2.0052
  3112.3500      9.0891   4338.3252      0.0000      3.6079     -2.0058
  3112.3000      9.0891   4338.3252      0.0000      3.6079     -2.0046
  3112.2500      9.0891   4351.5903      0.0000      3.5370     -2.0073
  3112.2000      9.0891   4351.5903      0.0000      3.5370     -2.0006
  3112.1500      9.0891   4360.4985      0.0000      3.6179     -2.0037
  3112.1000      9.0891   4364.3467      0.0000      3.5774     -2.0095
  3112.0500      9.1074   4364.3467      0.0000      3.5774     -2.0198
  3112.0000      9.1074   4360.6387      0.0000      3.5873     -2.0192
  3111.9500      9.1074   4356.1440      0.0000      3.5774     -2.0122
  3111.9000      9.0526   4356.1440      0.0000      3.5774     -2.0003
  3111.8500      9.0526   4355.3721      0.0000      3.6079     -1.9991
  3111.8000      9.0526   4349.5435      0.0000      3.5774     -2.0262
  3111.7500      9.0891   4349.5435      0.0000      3.5774     -2.0122
  3111.7000      9.0891   4338.9424      0.0000      3.5370     -2.0156
  3111.6500      9.0891   4334.8252      0.0000      3.5469     -2.0244
  3111.6000      9.1257   4334.8252      0.0000      3.5469     -2.0006
  3111.5500      9.1257   4333.9707      0.0000      3.5370     -2.0116
  3111.5000      9.1257   4331.0156      0.0000      3.5774     -2.0272
  3111.4500      9.1440   4331.0156      0.0000      3.5774     -2.0208
  3111.4000      9.1440   4332.1777      0.0000      3.5469     -2.0137
  3111.3500      9.1440   4332.9277      0.0000      3.5469     -2.0104
  3111.3000      9.1592   4332.9277      0.0000      3.5469     -2.0146
  3111.2500      9.1592   4325.4585      0.0000      3.5774     -2.0259
  3111.2000      9.1592   4317.1880      0.0000      3.5774     -2.0214
  3111.1500      9.1257   4317.1880      0.0000      3.5774     -2.0269
  3111.1000      9.1257   4309.6699      0.0000      3.5873     -2.0134
  3111.0500      9.1257   4298.2217      0.0000      3.5774     -2.0223
  3111.0000      9.1410   4298.2217      0.0000      3.5774     -1.9994
  3110.9500      9.1410   4290.2935      0.0000      3.5774     -2.0201
  3110.9000      9.1410   4286.0864      0.0000      3.5774     -1.9994
  3110.8500      9.0708   4286.0864      0.0000      3.5774     -2.0250
  3110.8000      9.0708   4275.5581      0.0000      3.5980     -2.0070
  3110.7500      9.0708   4267.0088      0.0000      3.5370     -2.0183
  3110.7000      9.1257   4267.0088      0.0000      3.5370     -2.0043
  3110.6500      9.1257   4272.8286      0.0000      3.5774     -1.9954
  3110.6000      9.1257   4272.8286      0.0000      3.5774     -2.0131
  3110.5500      9.1074   4284.6313      0.0000      3.5774     -2.0217
  3110.5000      9.1074   4295.1235      0.0000      3.5774     -1.9911
  3110.4500      9.1074   4295.1235      0.0000      3.5774     -2.0055
  3110.4000      9.0708   4307.1689      0.0000      3.5370     -1.9991
  3110.3500      9.0708   4315.1123      0.0000      3.5469     -2.0146
  3110.3000      9.0708   4315.1123      0.0000      3.5469     -2.0156
  3110.2500      9.0708   4313.3838      0.0000      3.5469     -2.0073
  3110.2000      9.1410   4307.1133      0.0000      3.5774     -2.0195
  3110.1500      9.1410   4307.1133      0.0000      3.5774     -2.0098
  3110.1000      9.1410   4298.6812      0.0000      3.5774     -1.9921
  3110.0500      9.0708   4287.0117      0.0000      3.5675     -2.0162
  3110.0000      9.0708   4287.0117      0.0000      3.5675     -2.0049
  3109.9500      9.0708   4278.3970      0.0000      3.5873     -2.0183
  3109.9000      9.1410   4279.2925      0.0000      3.5774     -2.0186
  3109.8500      9.1410   4279.2925      0.0000      3.5774     -2.0235
  3109.8000      9.1410   4286.5791      0.0000      3.5774     -2.0208
  3109.7500      9.1958   4296.6084      0.0000      3.6179     -1.9893
  3109.7000      9.1958   4296.6084      0.0000      3.6179     -2.0153
  3109.6500      9.1958   4307.1602      0.0000      3.6079     -1.9966
  3109.6000      9.1410   4308.3394      0.0000      3.5469     -2.0156
  3109.5500      9.1410   4308.3394      0.0000      3.5469     -2.0171
  3109.5000      9.1410   4296.3677      0.0000      3.5675     -2.0018
  3109.4500      9.1775   4284.2637      0.0000      3.5774     -2.0119
  3109.4000      9.1775   4284.2637      0.0000      3.5774     -2.0165
  3109.3500      9.1775   4277.9136      0.0000      3.5469     -2.0217
  3109.3000      9.1410   4269.7280      0.0000      3.5774     -1.9969
  3109.2500      9.1410   4269.7280      0.0000      3.5774     -1.9991
  3109.2000      9.1410   4263.7959      0.0000      3.5469     -2.0143
  3109.1500      9.0708   4268.3853      0.0000      3.5675     -2.0052
  3109.1000      9.0708   4268.3853      0.0000      3.5675     -1.9957
  3109.0500      9.0708   4277.3672      0.0000      3.5873     -2.0220
  3109.0000      9.1410   4277.3672      0.0000      3.5873     -2.0064
  3108.9500      9.1410   4289.1074      0.0000      3.5675     -2.0079
  3108.9000      9.1410   4304.9731      0.0000      3.6079     -2.0116
  3108.8500      9.0708   4304.9731      0.0000      3.6079     -2.0043
  3108.8000      9.0708   4312.9473      0.0000      3.5774     -2.0046
  3108.7500      9.0708   4313.0430      0.0000      3.5774     -2.0165
  3108.7000      9.1257   4313.0430      0.0000      3.5774     -2.0159
  3108.6500      9.1257   4319.2222      0.0000      3.5774     -2.0095
  3108.6000      9.1257   4325.6123      0.0000      3.5774     -2.0107
  3108.5500      9.1958   4325.6123      0.0000      3.5774     -2.0165
  3108.5000      9.1958   4321.7847      0.0000      3.5774     -2.0024
  3108.4500      9.1958   4316.2656      0.0000      3.5469     -2.0211
  3108.4000      9.2141   4316.2656      0.0000      3.5469     -2.0137
  3108.3500      9.2141   4309.9692      0.0000      3.5774     -2.0000
  3108.3000      9.2141   4294.7319      0.0000      3.6079     -2.0095
  3108.2500      9.3574   4294.7319      0.0000      3.6079     -2.0171
  3108.2000      9.3574   4282.1294      0.0000      3.5774     -2.0098
  3108.1500      9.3574   4283.4600      0.0000      3.5370     -2.0262
  3108.1000      9.3574   4283.4600      0.0000      3.5370     -2.0067
  3108.0500      9.3208   4290.1382      0.0000      3.5469     -2.0085
  3108.0000      9.3208   4298.1787      0.0000      3.5873     -2.0076
  3107.9500      9.3208   4298.1787      0.0000      3.5873     -1.9988
  3107.9000      9.3391   4308.5034      0.0000      3.6079     -2.0085
  3107.8500      9.3391   4311.8706      0.0000      3.5873     -1.9954
  3107.8000      9.3391   4311.8706      0.0000      3.5873     -2.0104
  3107.7500      9.3574   4305.2207      0.0000      3.5370     -2.0287
  3107.7000      9.3574   4298.9644      0.0000      3.5370     -1.9393
  3107.6500      9.3574   4298.9644      0.0000      3.5370     -2.0372
  3107.6000      9.2690   4297.6968      0.0000      3.5774     -2.0180
  3107.5500      9.2690   4298.0801      0.0000      3.6079     -2.0186
  3107.5000      9.2690   4298.0801      0.0000      3.6079     -2.0098
  3107.4500      9.3391   4299.7544      0.0000      3.6179     -2.0159
  3107.4000      9.3391   4299.7544      0.0000      3.6179     -2.0034
  3107.3500      9.3391   4301.0010      0.0000      3.6179     -2.0092
  3107.3000      9.3025   4299.7729      0.0000      3.5370     -2.0116
  3107.2500      9.3025   4299.7729      0.0000      3.5370     -1.9872
  3107.2000      9.3025   4301.1572      0.0000      3.5774     -2.0125
  3107.1500      9.2507   4307.3076      0.0000      3.5774     -2.0146
  3107.1000      9.2507   4307.3076      0.0000      3.5774     -2.0177
