~Version Information
VERS.                      2.0: CWLS Log ASCII Standard - VERSION 2.0
WRAP.                       NO: One line per depth step
~Well Information Block
STRT.M               3169.9500: START DEPTH
STOP.M               3076.7000: STOP DEPTH
STEP.M                 -0.0500: STEP
NULL.                -999.2500: NULL VALUE
COMP.                  Statoil: COMPANY
WELL.                15/9-F-12: WELL
FLD.                     Volve: FIELD
LOC.                          : LOCATION
SRVC.          Halliburton Logging Services: SERVICE COMPANY
DATE.          Wed Nov 26 07-57-02 2014: LOG DATE
UWI.                          : UNIQUE WELL ID
SECT.                         : SECTION
TOWN.                         : TOWNSHIP
RANG.                         : RANGE
API.                          : API#
OS.                           : OTHER SERVICES
PDAT.FT                       : PERMANENT DATUM
EEL.FT                        : ELEVATION
LMF.FT                        : LOG MEASURED FROM
DMF.FT                        : DRILLING MEASURED FROM
EKB.FT                        : KB
EDF.FT                        : DF
EGL.FT                        : GL
DATE1.                        : DATE1
RUN1.                         : RUN NUMBER
TDD1.FT                       : DEPTH DRILLER
TDL1.FT                       : DEPTH LOGGER
BLI1.FT                       : BOTTOM LOGGED INTERVAL
TLI1.FT                       : TOP LOG INTERVAL
CDD1.IN_FT                    : CASING DRILLER
CDL1.FT                       : CASING LOGGER
BS1.IN                        : BIT SIZE
DFT1.                         : TYPE FLUID IN HOLE
DFDV1.GM/C3_CP                : DENSITY/VISCOSITY
DFPL1.C3                      : PH/FLUID LOSS
MSS1.                         : SOURCE OF SAMPLE
RMT1.OHHM_DEGF                : RM@MEASURED TEMP
RMFT1.OHMM_DEGF                : RMF@MEASURED TEMP
RMCT1.OHMM_DEGF                : RMC@MEASURED TEMP
RMFS1.                        : SOURCE OF RMF/RMC
RMBT1.OHMM_DEGF                : RM@BHT
TCS1.                         : TIME CIRCULATION STOPPED
TLOB1.                        : TIME LOGGER ON BOTTOM
BHT1.DEGF                     : MAXIMUM RECORDED TEMPERATURE
LUN1.                         : EQUIPMENT NUMBER
LUL1.                         : LOCATION
ENGI1.                        : RECORDED BY
WITN1.                        : WITNESSED BY
~Curve Information Block
DEPT.M             0 000 00 00: Depth
LSPD.M/MIN                   0: Line Speed
LTEN.LB                      0: Surface Line Tension
MINMK.                       0: Minute Mark Ticks
GR.GAPI                      0: Gamma Ray
CCL.                         0: Casing Collar Locator
ACCX.                        0: X Axis Accelerometer
ACCY.                        0: Y Axis Accelerometer
ACCZ.                        0: Z Axis Accelerometer
RB.DEG                       0: Relative Bearing
DEVI.DEG                     0: Deviation
TOTG.GEE                     0: Total G
RBRef.DEG                    0: RB Reference
IntTemp.DEGF                 0: Internal Electronics Temperature
~Parameter Information Block
~A  Depth       LSPD        LTEN       MINMK         GR         CCL         ACCX        ACCY        ACCZ         RB         DEVI        TOTG       RBRef      IntTemp   
# ...
  3157.9500     14.1610   4797.0186      0.0000     17.9199    351.0000   1534.5000  -2521.0000   2214.8999    301.3283      0.0244   3689.9746     58.6717    225.1154
  3157.9000     14.1061   4822.9917      0.0000     17.2933    365.0000   1533.2000  -2506.0000   2220.1001    301.4588      0.0244   3682.3337     58.5412    225.1224
  3157.8500     14.1061   4823.6528      0.0000     16.9174    365.0000   1552.5000  -2501.8000   2239.3999    301.8218      0.0243   3699.2124     58.1782    225.1295
  3157.8000     14.1061   4805.6387      0.0000     17.0427    367.0000   1554.4000  -2478.5000   2209.3999    302.0940      0.0245   3666.1382     57.9060    225.1358
  3157.7500     14.1061   4766.5547      0.0000     17.5439    368.0000   1537.6000  -2505.2000   2165.8999    301.5401      0.0246   3651.2139     58.4599    225.1400
  3157.7000     14.1061   4754.7153      0.0000     17.7319    367.0000   1517.1000  -2510.8000   2143.0000    301.1416      0.0248   3632.9270     58.8584    225.1400
  3157.6500     14.1427   4732.0972      0.0000     17.9199    368.0000   1528.7000  -2471.8000   2132.3999    301.7350      0.0250   3604.6980     58.2650    225.1400
  3157.6000     14.1427   4706.4482      0.0000     18.1705    370.0000   1528.6000  -2503.0000   2118.8000    301.4127      0.0249   3618.1404     58.5873    225.1400
  3157.5500     14.1427   4663.6953      0.0000     18.6091    370.0000   1522.9000  -2477.7000   2098.3000    301.5767      0.0251   3586.2354     58.4233    225.1400
  3157.5000     14.1427   4642.8433      0.0000     18.2958    373.0000   1528.3000  -2452.8999   2079.5000    301.9253      0.0253   3560.4409     58.0747    225.1400
  3157.4500     14.1427   4631.7319      0.0000     17.9825    370.0000   1527.7000  -2480.5000   2074.8999    301.6282      0.0252   3576.5845     58.3718    225.1400
  3157.4000     14.1061   4622.8018      0.0000     17.4813    358.0000   1516.3000  -2475.8999   2036.5000    301.4843      0.0254   3546.3472     58.5157    225.1400
  3157.3500     14.1061   4608.1904      0.0000     16.0402    381.0000   1512.8000  -2494.1001   2043.1000    301.2390      0.0253   3561.3701     58.7610    225.1400
  3157.3000     14.1061   4592.9614      0.0000     14.5364    371.0000   1519.3000  -2488.8999   2071.3999    301.4012      0.0252   3576.8132     58.5988    225.1400
  3157.2500     14.1061   4593.3477      0.0000     13.3459    387.0000   1528.9000  -2492.3000   2103.6001    301.5270      0.0250   3601.9756     58.4730    225.1400
  3157.2000     14.1061   4636.6909      0.0000     12.0301    357.0000   1555.1000  -2494.3999   2108.5000    301.9409      0.0249   3617.4768     58.0591    225.1400
  3157.1500     14.1061   4671.9956      0.0000     12.0928    362.0000   1553.9000  -2501.8999   2114.5000    301.8439      0.0248   3625.6335     58.1561    225.1400
  3157.1000     14.1061   4691.2485      0.0000     12.5314    362.0000   1542.9000  -2503.5000   2115.1001    301.6454      0.0248   3622.3889     58.3546    225.1400
  3157.0500     14.1061   4696.6177      0.0000     12.9073    379.0000   1534.5000  -2503.6001   2134.1001    301.5049      0.0248   3630.0256     58.4951    225.1400
  3157.0000     14.1061   4704.5571      0.0000     13.5339    330.0000   1525.6000  -2500.8000   2146.0000    301.3851      0.0248   3631.3596     58.6149    225.1400
  3156.9500     14.1793   4725.6191      0.0000     14.7870    343.0000   1525.0000  -2490.3999   2157.2000    301.4813      0.0248   3630.5962     58.5187    225.1400
  3156.9000     14.1793   4754.5352      0.0000     15.9149    364.0000   1528.3000  -2513.2000   2168.0000    301.3042      0.0246   3654.0525     58.6958    225.1400
  3156.8500     14.1793   4787.1484      0.0000     17.3560    367.0000   1525.0000  -2508.7000   2169.8000    301.2948      0.0247   3650.6482     58.7052    225.1400
  3156.8000     14.1793   4795.9028      0.0000     17.6066    402.0000   1525.2000  -2513.3999   2138.0000    301.2505      0.0248   3635.1697     58.7495    225.1400
  3156.7500     14.1793   4798.0464      0.0000     17.8572    374.0000   1492.2000  -2506.7000   2132.6001    300.7647      0.0249   3613.6116     59.2353    225.1400
  3156.7000     14.1061   4795.0039      0.0000     18.2332    369.0000   1483.6000  -2501.5000   2140.3999    300.6715      0.0249   3611.0779     59.3285    225.1400
  3156.6500     14.1061   4783.8623      0.0000     18.5465    362.0000   1487.1000  -2519.8999   2141.7000    300.5467      0.0248   3626.0503     59.4533    225.1400
  3156.6000     14.1061   4763.0898      0.0000     19.1730    353.0000   1489.0000  -2519.2000   2149.6001    300.5857      0.0248   3631.0149     59.4143    225.1400
  3156.5500     14.1061   4738.5869      0.0000     18.6091    368.0000   1494.6000  -2519.8000   2151.2000    300.6740      0.0248   3634.6777     59.3260    225.1400
  3156.5000     14.1244   4716.3037      0.0000     18.2332    369.0000   1489.2000  -2542.3999   2153.5000    300.3595      0.0247   3649.5310     59.6405    225.1400
  3156.4500     14.1244   4710.8628      0.0000     17.7946    373.0000   1462.1000  -2549.8999   2137.7000    299.8297      0.0248   3634.4858     60.1703    225.1400
  3156.4000     14.1244   4697.2271      0.0000     17.4813    372.0000   1472.8000  -2543.8000   2121.7000    300.0698      0.0248   3625.1440     59.9302    225.1400
  3156.3500     14.1244   4683.6450      0.0000     16.9174    364.0000   1460.5000  -2545.8000   2124.0000    299.8425      0.0248   3622.9180     60.1575    225.1400
  3156.3000     14.1244   4625.8223      0.0000     16.1655    362.0000   1476.2000  -2568.2000   2136.0000    299.8903      0.0246   3652.0286     60.1097    225.1400
  3156.2500     14.1427   4597.6929      0.0000     15.4763    366.0000   1483.2000  -2554.6001   2137.1001    300.1394      0.0247   3645.9651     59.8606    225.1400
  3156.2000     14.1427   4592.5786      0.0000     15.1630    371.0000   1483.1000  -2563.3999   2137.6001    300.0523      0.0246   3652.3882     59.9477    225.1400
  3156.1500     14.1427   4608.0273      0.0000     15.1630    380.0000   1477.8000  -2546.1001   2111.8000    300.1316      0.0248   3623.0122     59.8684    225.1400
  3156.1000     14.1427   4613.9658      0.0000     15.3510    383.0000   1473.7000  -2537.3000   2116.6001    300.1486      0.0249   3617.9661     59.8514    225.1400
  3156.0500     14.1427   4615.8994      0.0000     15.6016    363.0000   1487.5000  -2540.3999   2116.1001    300.3506      0.0248   3625.4885     59.6494    225.1400
  3156.0000     14.0909   4618.5938      0.0000     15.7896    355.0000   1488.4000  -2542.3000   2129.6001    300.3470      0.0248   3635.0820     59.6530    225.1400
  3155.9500     14.0909   4643.8955      0.0000     15.9775    375.0000   1483.1000  -2537.3999   2153.3999    300.3061      0.0247   3643.5032     59.6939    225.1407
  3155.9000     14.0909   4670.4399      0.0000     15.3510    345.0000   1454.4000  -2542.2000   2172.6001    299.7740      0.0247   3646.6768     60.2260    225.1421
  3155.8500     14.0909   4695.6445      0.0000     14.5991    379.0000   1459.9000  -2561.8999   2151.8000    299.6767      0.0247   3650.3264     60.3233    225.1435
  3155.8000     14.0909   4719.4648      0.0000     13.8472    353.0000   1443.4000  -2585.3000   2131.7000    299.1751      0.0247   3648.4688     60.8249    225.1456
  3155.7500     14.1610   4748.3882      0.0000     12.7194    355.0000   1453.9000  -2578.8999   2130.5000    299.4129      0.0247   3647.4072     60.5871    225.1470
  3155.7000     14.1610   4781.8721      0.0000     11.4662    371.0000   1459.6000  -2563.3999   2131.2000    299.6572      0.0247   3639.1570     60.3428    225.1484
  3155.6500     14.1610   4806.0439      0.0000     10.3384    364.0000   1467.4000  -2551.8999   2140.5000    299.8999      0.0247   3639.6697     60.1001    225.1498
  3155.6000     14.1610   4799.1958      0.0000      9.0853    353.0000   1442.1000  -2550.8999   2133.2000    299.4808      0.0248   3624.5393     60.5192    225.1512
