~Version Information
VERS.                      2.0: CWLS Log ASCII Standard - VERSION 2.0
WRAP.                       NO: One line per depth step
~Well Information Block
STRT.M               3785.6000: START DEPTH
STOP.M               3572.2000: STOP DEPTH
STEP.M                 -0.0500: STEP
NULL.                -999.2500: NULL VALUE
COMP.                  STATOIL: COMPANY
WELL.               15/9-F-1-C: WELL
FLD.                     VOLVE: FIELD
LOC.                          : LOCATION
SRVC.          Halliburton Logging Services: SERVICE COMPANY
DATE.          Wed Dec 03 05-47-41 2014: LOG DATE
UWI.                          : UNIQUE WELL ID
CTRY.                   NORWAY: COUNTRY
SECT.                         : SECTION
TOWN.                         : TOWNSHIP
RANG.                         : RANGE
API.                          : API#
OS.                   --NONE--: OTHER SERVICES
PDAT.FT                  M.S.L: PERMANENT DATUM
EEL.FT                   54.9M: ELEVATION
LMF.FT                   R.K.B: LOG MEASURED FROM
DMF.FT                   R.K.B: DRILLING MEASURED FROM
EKB.FT                   54.9M: KB
EDF.FT                   54.9M: DF
EGL.FT                    -91M: GL
DATE1.         03-DEC-14 @ 05:47: DATE1
RUN1.                    1 & 2: RUN NUMBER
TDD1.FT                  4094M: DEPTH DRILLER
TDL1.FT                  3782M: DEPTH LOGGER
BLI1.FT                  3772M: BOTTOM LOGGED INTERVAL
TLI1.FT                  3572M: TOP LOG INTERVAL
CDD1.IN_FT                    : CASING DRILLER
CDL1.FT                       : CASING LOGGER
BS1.IN                    8.5": BIT SIZE
DFT1.                SEA WATER: TYPE FLUID IN HOLE
DFDV1.GM/C3_CP          1.03SG: DENSITY/VISCOSITY
DFPL1.C3                      : PH/FLUID LOSS
MSS1.                         : SOURCE OF SAMPLE
RMT1.OHHM_DEGF                : RM@MEASURED TEMP
RMFT1.OHMM_DEGF                : RMF@MEASURED TEMP
RMCT1.OHMM_DEGF                : RMC@MEASURED TEMP
RMFS1.                        : SOURCE OF RMF/RMC
RMBT1.OHMM_DEGF                : RM@BHT
TCS1.                         : TIME CIRCULATION STOPPED
TLOB1.                36 HOURS: TIME LOGGER ON BOTTOM
BHT1.DEGF                 FULL: MAXIMUM RECORDED TEMPERATURE
LUN1.                 12030699: EQUIPMENT NUMBER
LUL1.                   NORWAY: LOCATION
ENGI1.              C.JAMIESON: RECORDED BY
WITN1.                A.ALBAWI: WITNESSED BY
~Curve Information Block
DEPT.M             0 000 00 00: Depth
LSPD.M/MIN                   0: Line Speed
LTEN.LB                      0: Surface Line Tension
MINMK.                       0: Minute Mark Ticks
HVOLTA.V                     0: Head Voltage Apparent
CCL.                         0: Casing Collar Locator
~Parameter Information Block
SRFTEMP.DEGC           12.0000: Surface Temperature
MudWgt.LB/GAL           8.5600: Mud Weight
CASETHCK.IN             0.4530: Casing Thickness
BITSIZE.IN             12.2500: Borehole I.D.
~Other Information
TOOL STRING DEPLOYED BY ALTUS INTERVENTION WIRELINE UNIT ON 7/16" CABLE
CABLE HEAD BUILT BY ALTUS
LOG CORRELATED TO SHLUMBERGER 4.5" HSD OX POWER JET PULS DATED 09.APRIL.2014
CORRELATION LOG IS SHALLOWER BY 1.4M, DEPTH SHIFTED 1.4M DOWN AS PER
CLIENTS REQUEST.
4.655" HSC GUN 10 AND 350 DEGREE PHASING, 39 GR MILLENIUM, 4 SHOTS PER FOOT.
ATTEMPT WAS MADE TO RUN 4 GUNS IN ONE STRING BUT AT 3600M PICK UP WEIGHT 
WAS TOO HIGH TO CONTINUE.  CLIENT D4ECIDED TO SPLIT UP ONTO TWO RUNS.
RUN #1 CCL TO TOP SHOT 3.25 M, CCL STOP DEPT: 3729.75 M
PERFORATION INTERVAL 3733M - 3742.6M
RUN #2 CCL TO TOP SHOT 3.25 M, CCL STOP DEPT: 3711.75 M
PERFORATION INTERVAL 3715M - 3724.6M

~A  Depth       LSPD        LTEN       MINMK       HVOLTA       CCL     
# ...
  3578.4000      9.5189   6028.9414      0.0000      3.4752     -0.0015
  3578.3500      9.5189   6043.7349      0.0000      3.5156     -0.0388
  3578.3000      9.5189   6052.8750      0.0000      3.5362     -0.0192
  3578.2500      9.5707   6052.8750      0.0000      3.5362      0.0015
  3578.2000      9.5707   6045.6108      0.0000      3.5164      0.0360
  3578.1500      9.5707   6006.9795      0.0000      3.5469      0.1050
  3578.1000      9.5890   6006.9795      0.0000      3.5469      0.0079
  3578.0500      9.5890   5945.8667      0.0000      3.4859      0.1807
  3578.0000      9.5890   5869.7427      0.0000      3.5561      0.0519
  3577.9500      9.6073   5869.7427      0.0000      3.5561     -0.4044
  3577.9000      9.6073   5782.0581      0.0000      3.5156      0.6201
  3577.8500      9.6073   5706.7954      0.0000      3.4958      0.2020
  3577.8000      9.6439   5706.7954      0.0000      3.4958     -0.1108
  3577.7500      9.6439   5668.2144      0.0000      3.5164     -0.1309
  3577.7000      9.6439   5667.2817      0.0000      3.5370      0.0882
  3577.6500      9.6256   5667.2817      0.0000      3.5370     -0.0311
  3577.6000      9.6256   5697.6489      0.0000      3.5667     -0.1471
  3577.5500      9.6256   5749.8804      0.0000      3.4950     -0.0107
  3577.5000      9.6073   5749.8804      0.0000      3.4950     -0.0229
  3577.4500      9.6073   5803.0713      0.0000      3.4546     -0.0244
  3577.4000      9.6073   5803.0713      0.0000      3.4546     -0.0226
  3577.3500      9.6073   5845.0098      0.0000      3.4149     -0.0070
  3577.3000      9.6256   5878.4028      0.0000      3.5667     -0.0223
  3577.2500      9.6256   5878.4028      0.0000      3.5667     -0.0275
  3577.2000      9.6256   5903.4604      0.0000      3.5057     -0.0137
  3577.1500      9.5707   5928.0049      0.0000      3.5156     -0.0146
  3577.1000      9.5707   5928.0049      0.0000      3.5156     -0.0180
  3577.0500      9.5707   5965.5361      0.0000      3.5561     -0.0278
  3577.0000      9.5341   6006.4307      0.0000      3.4653     -0.0125
  3576.9500      9.5341   6006.4307      0.0000      3.4653     -0.0195
  3576.9000      9.5341   6033.0889      0.0000      3.4554     -0.0195
  3576.8500      9.5890   6049.7651      0.0000      3.4554      0.0067
  3576.8000      9.5890   6049.7651      0.0000      3.4554     -0.0403
  3576.7500      9.5890   6057.7983      0.0000      3.5774     -0.0900
  3576.7000      9.5890   6040.6089      0.0000      3.4851     -0.0357
  3576.6500      9.5890   6040.6089      0.0000      3.4851     -0.0418
  3576.6000      9.5890   5998.7661      0.0000      3.4340     -0.1126
  3576.5500      9.5890   5946.2168      0.0000      3.4752      0.0861
  3576.5000      9.6073   5946.2168      0.0000      3.4752      0.9039
  3576.4500      9.6073   5882.3989      0.0000      3.5164      0.3381
  3576.4000      9.6073   5815.2754      0.0000      3.5057      0.0067
  3576.3500      9.6591   5815.2754      0.0000      3.5057     -0.1508
  3576.3000      9.6591   5767.0576      0.0000      3.4859     -0.6989
  3576.2500      9.6591   5743.2681      0.0000      3.5461      0.0320
  3576.2000      9.6256   5743.2681      0.0000      3.5461     -0.2539
  3576.1500      9.6256   5743.1895      0.0000      3.4752      0.0195
  3576.1000      9.6256   5773.9434      0.0000      3.4653     -0.0674
  3576.0500      9.6073   5773.9434      0.0000      3.4653      0.0146
  3576.0000      9.6073   5823.0010      0.0000      3.4859     -0.0037
  3575.9500      9.6073   5864.0146      0.0000      3.5057      0.0159
  3575.9000      9.5890   5864.0146      0.0000      3.5057     -0.0381
  3575.8500      9.5890   5898.1938      0.0000      3.3943      0.0018
  3575.8000      9.5890   5898.1938      0.0000      3.3943     -0.0330
  3575.7500      9.5524   5940.3340      0.0000      3.5561     -0.0116
  3575.7000      9.5524   5983.1577      0.0000      3.5057     -0.0107
  3575.6500      9.5524   5983.1577      0.0000      3.5057     -0.0037
  3575.6000      9.5524   6013.0059      0.0000      3.5057     -0.0101
  3575.5500      9.5524   6026.5352      0.0000      3.5057     -0.0098
  3575.5000      9.5524   6026.5352      0.0000      3.5057     -0.0049
  3575.4500      9.5524   6022.6167      0.0000      3.4653      0.0320
  3575.4000      9.5890   6006.6016      0.0000      3.5759      0.0775
  3575.3500      9.5890   6006.6016      0.0000      3.5759     -0.0549
  3575.3000      9.5890   5986.6060      0.0000      3.5461     -0.0293
  3575.2500      9.6073   5956.5913      0.0000      3.4752      0.0128
  3575.2000      9.6073   5956.5913      0.0000      3.4752     -0.1947
  3575.1500      9.6073   5910.5640      0.0000      3.5263     -0.0974
  3575.1000      9.6073   5858.4834      0.0000      3.4760     -0.4294
  3575.0500      9.6439   5858.4834      0.0000      3.4760     -0.1263
  3575.0000      9.6439   5802.5405      0.0000      3.4149     -0.1779
  3574.9500      9.6439   5739.6177      0.0000      3.4851     -0.1630
  3574.9000      9.6774   5739.6177      0.0000      3.4851     -0.3677
  3574.8500      9.6774   5695.2725      0.0000      3.4851      0.2969
  3574.8000      9.6774   5694.4507      0.0000      3.4859     -0.1633
  3574.7500      9.6256   5694.4507      0.0000      3.4859      0.0281
  3574.7000      9.6256   5719.1563      0.0000      3.4454     -0.0711
  3574.6500      9.6256   5748.1274      0.0000      3.4760     -0.0211
  3574.6000      9.6439   5748.1274      0.0000      3.4760      0.0189
  3574.5500      9.6439   5788.7983      0.0000      3.4760     -0.0095
  3574.5000      9.6439   5839.5137      0.0000      3.4752     -0.0064
  3574.4500      9.5707   5839.5137      0.0000      3.4752     -0.0101
  3574.4000      9.5707   5885.3384      0.0000      3.4447     -0.0180
  3574.3500      9.5707   5928.4707      0.0000      3.5263     -0.0107
  3574.3000      9.5524   5928.4707      0.0000      3.5263     -0.0113
  3574.2500      9.5524   5967.2109      0.0000      3.5164     -0.0082
  3574.2000      9.5524   5967.2109      0.0000      3.5164     -0.0064
  3574.1500      9.5341   5984.8545      0.0000      3.5164     -0.0018
  3574.1000      9.5341   5981.4214      0.0000      3.4142     -0.0082
  3574.0500      9.5341   5981.4214      0.0000      3.4142     -0.0262
  3574.0000      9.5341   5965.2227      0.0000      3.4447     -0.0317
  3573.9500      9.5341   5935.0464      0.0000      3.5271      0.0726
  3573.9000      9.5341   5935.0464      0.0000      3.5271      0.0601
  3573.8500      9.5341   5903.4907      0.0000      3.5164     -0.0806
  3573.8000      9.6073   5891.8901      0.0000      3.4958      0.0055
  3573.7500      9.6073   5891.8901      0.0000      3.4958     -0.0031
  3573.7000      9.6073   5899.3901      0.0000      3.5164      0.0317
  3573.6500      9.6256   5917.8408      0.0000      3.4851     -0.0406
  3573.6000      9.6256   5917.8408      0.0000      3.4851     -0.0381
  3573.5500      9.6256   5947.4575      0.0000      3.4752     -0.0009
  3573.5000      9.6256   5976.4038      0.0000      3.5568     -0.0067
  3573.4500      9.6256   5976.4038      0.0000      3.5568     -0.0064
  3573.4000      9.6256   5994.3159      0.0000      3.5164     -0.0137
  3573.3500      9.6256   6014.5103      0.0000      3.4149      0.0140
  3573.3000      9.6439   6014.5103      0.0000      3.4149     -0.0275
  3573.2500      9.6439   6036.8843      0.0000      3.4248     -0.0116
  3573.2000      9.6439   6034.2622      0.0000      3.4851     -0.0204
  3573.1500      9.5890   6034.2622      0.0000      3.4851      0.0101
  3573.1000      9.5890   5999.3271      0.0000      3.5362      0.1007
  3573.0500      9.5890   5947.7266      0.0000      3.5263     -0.1132
  3573.0000      9.5524   5947.7266      0.0000      3.5263      0.1291
  3572.9500      9.5524   5884.3931      0.0000      3.4958      3.1186
  3572.9000      9.5524   5817.2905      0.0000      3.4859     -6.3046
  3572.8500      9.5707   5817.2905      0.0000      3.4859     -0.2759
