~Version Information
VERS.                      2.0: CWLS Log ASCII Standard - VERSION 2.0
WRAP.                       NO: One line per depth step
~Well Information Block
STRT.M               3785.6000: START DEPTH
STOP.M               3572.2000: STOP DEPTH
STEP.M                 -0.0500: STEP
NULL.                -999.2500: NULL VALUE
COMP.                  STATOIL: COMPANY
WELL.               15/9-F-1-C: WELL
FLD.                     VOLVE: FIELD
LOC.                          : LOCATION
SRVC.          Halliburton Logging Services: SERVICE COMPANY
DATE.          Wed Dec 03 05-47-41 2014: LOG DATE
UWI.                          : UNIQUE WELL ID
CTRY.                   NORWAY: COUNTRY
SECT.                         : SECTION
TOWN.                         : TOWNSHIP
RANG.                         : RANGE
API.                          : API#
OS.                   --NONE--: OTHER SERVICES
PDAT.FT                  M.S.L: PERMANENT DATUM
EEL.FT                   54.9M: ELEVATION
LMF.FT                   R.K.B: LOG MEASURED FROM
DMF.FT                   R.K.B: DRILLING MEASURED FROM
EKB.FT                   54.9M: KB
EDF.FT                   54.9M: DF
EGL.FT                    -91M: GL
DATE1.         03-DEC-14 @ 05:47: DATE1
RUN1.                    1 & 2: RUN NUMBER
TDD1.FT                  4094M: DEPTH DRILLER
TDL1.FT                  3782M: DEPTH LOGGER
BLI1.FT                  3772M: BOTTOM LOGGED INTERVAL
TLI1.FT                  3572M: TOP LOG INTERVAL
CDD1.IN_FT                    : CASING DRILLER
CDL1.FT                       : CASING LOGGER
BS1.IN                    8.5": BIT SIZE
DFT1.                SEA WATER: TYPE FLUID IN HOLE
DFDV1.GM/C3_CP          1.03SG: DENSITY/VISCOSITY
DFPL1.C3                      : PH/FLUID LOSS
MSS1.                         : SOURCE OF SAMPLE
RMT1.OHHM_DEGF                : RM@MEASURED TEMP
RMFT1.OHMM_DEGF                : RMF@MEASURED TEMP
RMCT1.OHMM_DEGF                : RMC@MEASURED TEMP
RMFS1.                        : SOURCE OF RMF/RMC
RMBT1.OHMM_DEGF                : RM@BHT
TCS1.                         : TIME CIRCULATION STOPPED
TLOB1.                36 HOURS: TIME LOGGER ON BOTTOM
BHT1.DEGF                 FULL: MAXIMUM RECORDED TEMPERATURE
LUN1.                 12030699: EQUIPMENT NUMBER
LUL1.                   NORWAY: LOCATION
ENGI1.              C.JAMIESON: RECORDED BY
WITN1.                A.ALBAWI: WITNESSED BY
~Curve Information Block
DEPT.M             0 000 00 00: Depth
LSPD.M/MIN                   0: Line Speed
LTEN.LB                      0: Surface Line Tension
MINMK.                       0: Minute Mark Ticks
HVOLTA.V                     0: Head Voltage Apparent
CCL.                         0: Casing Collar Locator
~Parameter Information Block
SRFTEMP.DEGC           12.0000: Surface Temperature
MudWgt.LB/GAL           8.5600: Mud Weight
CASETHCK.IN             0.4530: Casing Thickness
BITSIZE.IN             12.2500: Borehole I.D.
~Other Information
TOOL STRING DEPLOYED BY ALTUS INTERVENTION WIRELINE UNIT ON 7/16" CABLE
CABLE HEAD BUILT BY ALTUS
LOG CORRELATED TO SHLUMBERGER 4.5" HSD OX POWER JET PULS DATED 09.APRIL.2014
CORRELATION LOG IS SHALLOWER BY 1.4M, DEPTH SHIFTED 1.4M DOWN AS PER
CLIENTS REQUEST.
4.655" HSC GUN 10 AND 350 DEGREE PHASING, 39 GR MILLENIUM, 4 SHOTS PER FOOT.
ATTEMPT WAS MADE TO RUN 4 GUNS IN ONE STRING BUT AT 3600M PICK UP WEIGHT 
WAS TOO HIGH TO CONTINUE.  CLIENT D4ECIDED TO SPLIT UP ONTO TWO RUNS.
RUN #1 CCL TO TOP SHOT 3.25 M, CCL STOP DEPT: 3729.75 M
PERFORATION INTERVAL 3733M - 3742.6M
RUN #2 CCL TO TOP SHOT 3.25 M, CCL STOP DEPT: 3711.75 M
PERFORATION INTERVAL 3715M - 3724.6M

~A  Depth       LSPD        LTEN       MINMK       HVOLTA       CCL     
# ...
  3729.6000      9.3574   6625.8799      0.0000      3.3745     -0.0659
  3729.5500      9.3574   6602.1274      0.0000      3.5156      0.0214
  3729.5000      9.3025   6602.1274      0.0000      3.5156      0.0302
  3729.4500      9.3025   6557.9951      0.0000      3.4340     -0.2295
  3729.4000      9.3025   6510.3862      0.0000      3.5255     -0.1828
  3729.3500      9.3391   6510.3862      0.0000      3.5255      0.6454
  3729.3000      9.3391   6468.6899      0.0000      3.4958     -0.3622
  3729.2500      9.3391   6422.2524      0.0000      3.4653     -1.4526
  3729.2000      9.3574   6422.2524      0.0000      3.4653     -0.6674
  3729.1500      9.3574   6382.9116      0.0000      3.4958     -0.0900
  3729.1000      9.3574   6372.8145      0.0000      3.5461     -0.1721
  3729.0500      9.3391   6372.8145      0.0000      3.5461      0.3085
  3729.0000      9.3391   6375.9331      0.0000      3.5255      0.1431
  3728.9500      9.3391   6371.0981      0.0000      3.4851      0.0229
  3728.9000      9.3756   6371.0981      0.0000      3.4851     -0.0208
  3728.8500      9.3756   6373.1074      0.0000      3.5263     -0.0153
  3728.8000      9.3756   6393.1914      0.0000      3.4958     -0.0229
  3728.7500      9.3756   6393.1914      0.0000      3.4958     -0.0214
  3728.7000      9.3574   6421.0151      0.0000      3.5156      0.0272
  3728.6500      9.3574   6455.3770      0.0000      3.5362     -0.0247
  3728.6000      9.3574   6455.3770      0.0000      3.5362      0.0031
  3728.5500      9.3574   6493.5562      0.0000      3.4653     -0.0064
  3728.5000      9.3574   6519.6538      0.0000      3.4760     -0.0040
  3728.4500      9.3574   6519.6538      0.0000      3.4760     -0.0137
  3728.4000      9.3574   6532.0688      0.0000      3.4958     -0.0092
  3728.3500      9.3574   6536.1812      0.0000      3.5355      0.0095
  3728.3000      9.3574   6536.1812      0.0000      3.5355      0.0095
  3728.2500      9.3208   6523.1206      0.0000      3.5156     -0.0150
  3728.2000      9.3208   6523.1206      0.0000      3.5156     -0.0131
  3728.1500      9.3208   6497.1274      0.0000      3.4859     -0.0201
  3728.1000      9.3574   6478.0654      0.0000      3.4859     -0.1669
  3728.0500      9.3574   6478.0654      0.0000      3.4859     -0.0400
  3728.0000      9.3574   6461.0566      0.0000      3.5362      0.0888
  3727.9500      9.3208   6435.2305      0.0000      3.5461      0.0238
  3727.9000      9.3208   6435.2305      0.0000      3.5461      0.0842
  3727.8500      9.3208   6416.0044      0.0000      3.3531      0.0034
  3727.8000      9.3025   6407.3682      0.0000      3.5164     -0.0800
  3727.7500      9.3025   6407.3682      0.0000      3.5164     -0.1004
  3727.7000      9.3025   6392.2227      0.0000      3.5164     -0.0183
  3727.6500      9.3574   6376.7422      0.0000      3.4958      0.0583
  3727.6000      9.3574   6376.7422      0.0000      3.4958     -0.0119
  3727.5500      9.3574   6376.8799      0.0000      3.4241      0.0641
  3727.5000      9.3574   6383.7515      0.0000      3.5156     -0.0464
  3727.4500      9.2842   6383.7515      0.0000      3.5156     -0.0385
  3727.4000      9.2842   6392.5732      0.0000      3.4958     -0.0363
  3727.3500      9.2842   6416.3569      0.0000      3.4554     -0.0510
  3727.3000      9.3574   6416.3569      0.0000      3.4554      0.0162
  3727.2500      9.3574   6448.9160      0.0000      3.3943     -0.0208
  3727.2000      9.3574   6475.8110      0.0000      3.5355     -0.0223
  3727.1500      9.3574   6475.8110      0.0000      3.5355     -0.0021
  3727.1000      9.3574   6505.0000      0.0000      3.5156     -0.0076
  3727.0500      9.3574   6535.9229      0.0000      3.5263     -0.0131
  3727.0000      9.3208   6535.9229      0.0000      3.5263     -0.0024
  3726.9500      9.3208   6552.4907      0.0000      3.3943     -0.0113
  3726.9000      9.3208   6560.3384      0.0000      3.4958     -0.0073
  3726.8500      9.3391   6560.3384      0.0000      3.4958     -0.0079
  3726.8000      9.3391   6571.3057      0.0000      3.4851     -0.0223
  3726.7500      9.3391   6574.7632      0.0000      3.5858      0.0055
  3726.7000      9.3025   6574.7632      0.0000      3.5858      0.1013
  3726.6500      9.3025   6558.9629      0.0000      3.3638      0.2484
  3726.6000      9.3025   6558.9629      0.0000      3.3638     -0.2377
  3726.5500      9.3025   6527.0244      0.0000      3.4348     -0.1877
  3726.5000      9.3025   6486.4927      0.0000      3.5255     -0.0940
  3726.4500      9.3025   6486.4927      0.0000      3.5255      0.1926
  3726.4000      9.3391   6445.4063      0.0000      3.4752      0.2426
  3726.3500      9.3391   6404.2520      0.0000      3.4859     -0.4114
  3726.3000      9.3391   6404.2520      0.0000      3.4859     -0.3653
  3726.2500      9.3391   6356.7407      0.0000      3.4554     -0.0104
  3726.2000      9.3391   6319.2622      0.0000      3.5461     -0.1358
  3726.1500      9.3391   6319.2622      0.0000      3.5461      0.2060
  3726.1000      9.3391   6319.3574      0.0000      3.5461     -0.0323
  3726.0500      9.3574   6347.9692      0.0000      3.5767     -0.0037
  3726.0000      9.3574   6347.9692      0.0000      3.5767      0.0046
  3725.9500      9.3574   6377.9604      0.0000      3.6072     -0.0122
  3725.9000      9.3391   6411.1309      0.0000      3.4248     -0.0098
  3725.8500      9.3391   6411.1309      0.0000      3.4248      0.0006
  3725.8000      9.3391   6455.1689      0.0000      3.5057     -0.0089
  3725.7500      9.3391   6491.8076      0.0000      3.5355     -0.0146
  3725.7000      9.3391   6491.8076      0.0000      3.5355     -0.0052
  3725.6500      9.3391   6510.6343      0.0000      3.4447     -0.0095
  3725.6000      9.3574   6526.8677      0.0000      3.5255     -0.0046
  3725.5500      9.3574   6526.8677      0.0000      3.5255     -0.0146
  3725.5000      9.3574   6549.9775      0.0000      3.4958     -0.0009
  3725.4500      9.3391   6581.3135      0.0000      3.5065      0.0024
  3725.4000      9.3391   6581.3135      0.0000      3.5065     -0.0516
  3725.3500      9.3391   6621.3115      0.0000      3.4653     -0.0061
  3725.3000      9.3208   6654.0845      0.0000      3.5057     -0.0073
  3725.2500      9.3208   6654.0845      0.0000      3.5057     -0.0085
  3725.2000      9.3208   6664.2021      0.0000      3.5255      0.0177
  3725.1500      9.3208   6658.6597      0.0000      3.5164     -0.0006
  3725.1000      9.3208   6658.6597      0.0000      3.5164     -0.0104
  3725.0500      9.3208   6634.6948      0.0000      3.4760      0.0909
  3725.0000      9.2842   6634.6948      0.0000      3.4760     -0.1944
  3724.9500      9.2842   6569.2202      0.0000      3.5156     -0.1407
  3724.9000      9.2842   6467.8716      0.0000      3.4645     -0.1877
  3724.8500      9.2842   6467.8716      0.0000      3.4645      0.3091
  3724.8000      9.3391   6364.2900      0.0000      3.5660     -1.7596
  3724.7500      9.3391   6272.8423      0.0000      3.4851     -0.8905
  3724.7000      9.3391   6272.8423      0.0000      3.4851     -0.7184
  3724.6500      9.3574   6200.1387      0.0000      3.5263     -0.4129
  3724.6000      9.3574   6164.2686      0.0000      3.4653     -0.2725
  3724.5500      9.3574   6164.2686      0.0000      3.4653      0.0745
  3724.5000      9.3939   6167.8047      0.0000      3.6163     -0.1065
  3724.4500      9.3939   6198.1206      0.0000      3.5156     -0.0046
  3724.4000      9.3939   6198.1206      0.0000      3.5156     -0.0275
  3724.3500      9.4275   6248.5776      0.0000      3.4653     -0.0189
  3724.3000      9.4275   6305.5156      0.0000      3.5164     -0.0153
  3724.2500      9.4275   6305.5156      0.0000      3.5164     -0.0015
  3724.2000      9.3574   6350.6914      0.0000      3.4950      0.0031
  3724.1500      9.3574   6390.8062      0.0000      3.4645     -0.0079
  3724.1000      9.3574   6390.8062      0.0000      3.4645     -0.0037
  3724.0500      9.3574   6439.4478      0.0000      3.5156     -0.0134
