~Version Information
VERS.                      2.0: CWLS Log ASCII Standard - VERSION 2.0
WRAP.                       NO: One line per depth step
~Well Information Block
STRT.M               3779.9000: START DEPTH
STOP.M               3659.5000: STOP DEPTH
STEP.M                 -0.0500: STEP
NULL.                -999.2500: NULL VALUE
COMP.                  STATOIL: COMPANY
WELL.               15/9-F-1-C: WELL
FLD.                     VOLVE: FIELD
LOC.                          : LOCATION
SRVC.          Halliburton Logging Services: SERVICE COMPANY
DATE.          Wed Dec 03 07-18-31 2014: LOG DATE
UWI.                          : UNIQUE WELL ID
CTRY.                   NORWAY: COUNTRY
SECT.                         : SECTION
TOWN.                         : TOWNSHIP
RANG.                         : RANGE
API.                          : API#
OS.                   --NONE--: OTHER SERVICES
PDAT.FT                  M.S.L: PERMANENT DATUM
EEL.FT                   54.9M: ELEVATION
LMF.FT                   R.K.B: LOG MEASURED FROM
DMF.FT                   R.K.B: DRILLING MEASURED FROM
EKB.FT                   54.9M: KB
EDF.FT                   54.9M: DF
EGL.FT                    -91M: GL
DATE1.         03-DEC-14 @ 05:47: DATE1
RUN1.                    1 & 2: RUN NUMBER
TDD1.FT                  4094M: DEPTH DRILLER
TDL1.FT                  3782M: DEPTH LOGGER
BLI1.FT                  3772M: BOTTOM LOGGED INTERVAL
TLI1.FT                  3572M: TOP LOG INTERVAL
CDD1.IN_FT                    : CASING DRILLER
CDL1.FT                       : CASING LOGGER
BS1.IN                    8.5": BIT SIZE
DFT1.                SEA WATER: TYPE FLUID IN HOLE
DFDV1.GM/C3_CP          1.03SG: DENSITY/VISCOSITY
DFPL1.C3                      : PH/FLUID LOSS
MSS1.                         : SOURCE OF SAMPLE
RMT1.OHHM_DEGF                : RM@MEASURED TEMP
RMFT1.OHMM_DEGF                : RMF@MEASURED TEMP
RMCT1.OHMM_DEGF                : RMC@MEASURED TEMP
RMFS1.                        : SOURCE OF RMF/RMC
RMBT1.OHMM_DEGF                : RM@BHT
TCS1.                         : TIME CIRCULATION STOPPED
TLOB1.                36 HOURS: TIME LOGGER ON BOTTOM
BHT1.DEGF                 FULL: MAXIMUM RECORDED TEMPERATURE
LUN1.                 12030699: EQUIPMENT NUMBER
LUL1.                   NORWAY: LOCATION
ENGI1.              C.JAMIESON: RECORDED BY
WITN1.                A.ALBAWI: WITNESSED BY
~Curve Information Block
DEPT.M             0 000 00 00: Depth
LSPD.M/MIN                   0: Line Speed
LTEN.LB                      0: Surface Line Tension
MINMK.                       0: Minute Mark Ticks
HVOLTA.V                     0: Head Voltage Apparent
CCL.                         0: Casing Collar Locator
~Parameter Information Block
SRFTEMP.DEGC           12.0000: Surface Temperature
MudWgt.LB/GAL           8.5600: Mud Weight
CASETHCK.IN             0.4530: Casing Thickness
BITSIZE.IN             12.2500: Borehole I.D.
~Other Information
TOOL STRING DEPLOYED BY ALTUS INTERVENTION WIRELINE UNIT ON 7/16" CABLE
CABLE HEAD BUILT BY ALTUS
LOG CORRELATED TO SHLUMBERGER 4.5" HSD OX POWER JET PULS DATED 09.APRIL.2014
CORRELATION LOG IS SHALLOWER BY 1.4M, DEPTH SHIFTED 1.4M DOWN AS PER
CLIENTS REQUEST.
4.655" HSC GUN 10 AND 350 DEGREE PHASING, 39 GR MILLENIUM, 4 SHOTS PER FOOT.
ATTEMPT WAS MADE TO RUN 4 GUNS IN ONE STRING BUT AT 3600M PICK UP WEIGHT 
WAS TOO HIGH TO CONTINUE.  CLIENT D4ECIDED TO SPLIT UP ONTO TWO RUNS.
RUN #1 CCL TO TOP SHOT 3.25 M, CCL STOP DEPT: 3729.75 M
PERFORATION INTERVAL 3733M - 3742.6M
RUN #2 CCL TO TOP SHOT 3.25 M, CCL STOP DEPT: 3711.75 M
PERFORATION INTERVAL 3715M - 3724.6M

~A  Depth       LSPD        LTEN       MINMK       HVOLTA       CCL     
# ...
  3740.7000      9.8207   6389.8271      0.0000      3.4859     -0.0165
  3740.6500      9.8207   6410.6079      0.0000      3.4859     -0.0070
  3740.6000      9.8207   6443.8647      0.0000      3.4760     -0.0049
  3740.5500      9.8207   6443.8647      0.0000      3.4760     -0.0217
  3740.5000      9.8207   6489.8882      0.0000      3.4859     -0.0134
  3740.4500      9.8207   6521.0532      0.0000      3.5164     -0.0137
  3740.4000      9.8207   6521.0532      0.0000      3.5164     -0.0143
  3740.3500      9.7688   6534.3975      0.0000      3.4859     -0.0156
  3740.3000      9.7688   6543.9678      0.0000      3.4859     -0.0287
  3740.2500      9.7688   6543.9678      0.0000      3.4859      0.0406
  3740.2000      9.7140   6539.6885      0.0000      3.4958     -0.2917
  3740.1500      9.7140   6511.6289      0.0000      3.4859      0.1575
  3740.1000      9.7140   6511.6289      0.0000      3.4859      0.1721
  3740.0500      9.7506   6472.0459      0.0000      3.4554     -0.1236
  3740.0000      9.7506   6429.2339      0.0000      3.4958     -0.3946
  3739.9500      9.7506   6429.2339      0.0000      3.4958     -0.1938
  3739.9000      9.7323   6383.2129      0.0000      3.4454      0.0830
  3739.8500      9.7323   6340.0439      0.0000      3.4859      0.2844
  3739.8000      9.7323   6340.0439      0.0000      3.4859      0.1447
  3739.7500      9.7688   6304.9722      0.0000      3.4554     -0.0330
  3739.7000      9.7688   6285.8237      0.0000      3.5362      0.0742
  3739.6500      9.7688   6285.8237      0.0000      3.5362     -0.1132
  3739.6000      9.7688   6298.5078      0.0000      3.5263     -0.0104
  3739.5500      9.8024   6338.7129      0.0000      3.4958     -0.0168
  3739.5000      9.8024   6338.7129      0.0000      3.4958     -0.0177
  3739.4500      9.8024   6381.1108      0.0000      3.5263     -0.0082
  3739.4000      9.8207   6419.4756      0.0000      3.4859     -0.0110
  3739.3500      9.8207   6419.4756      0.0000      3.4859     -0.0162
  3739.3000      9.8207   6459.8599      0.0000      3.4454     -0.0113
  3739.2500      9.8207   6459.8599      0.0000      3.4454     -0.0024
  3739.2000      9.7841   6493.5142      0.0000      3.4653     -0.0095
  3739.1500      9.7841   6517.0811      0.0000      3.4958     -0.0043
  3739.1000      9.7841   6517.0811      0.0000      3.4958     -0.0085
  3739.0500      9.7841   6542.1919      0.0000      3.4859     -0.0098
  3739.0000      9.7841   6568.6709      0.0000      3.4958     -0.0024
  3738.9500      9.7841   6568.6709      0.0000      3.4958     -0.0195
  3738.9000      9.7323   6592.0391      0.0000      3.4653     -0.0003
  3738.8500      9.7323   6622.2256      0.0000      3.5057     -0.0095
  3738.8000      9.7323   6622.2256      0.0000      3.5057     -0.0076
  3738.7500      9.6957   6650.4189      0.0000      3.4958      0.0204
  3738.7000      9.6957   6644.4331      0.0000      3.4859      0.0793
  3738.6500      9.6957   6644.4331      0.0000      3.4859      0.1862
  3738.6000      9.6957   6598.4697      0.0000      3.4554      0.5820
  3738.5500      9.6957   6528.0474      0.0000      3.4859     -0.0021
  3738.5000      9.6957   6528.0474      0.0000      3.4859      0.1093
  3738.4500      9.6957   6437.3032      0.0000      3.5164     -0.4306
  3738.4000      9.7323   6338.5420      0.0000      3.5164     -0.4126
  3738.3500      9.7323   6338.5420      0.0000      3.5164      0.0180
  3738.3000      9.7323   6256.4492      0.0000      3.4958      0.9668
  3738.2500      9.7841   6198.3853      0.0000      3.4760      0.9189
  3738.2000      9.7841   6198.3853      0.0000      3.4760     -0.4001
  3738.1500      9.7841   6164.9619      0.0000      3.5469     -0.4861
  3738.1000      9.8389   6165.1421      0.0000      3.4958     -0.1154
  3738.0500      9.8389   6165.1421      0.0000      3.4958     -0.0116
  3738.0000      9.8389   6189.6289      0.0000      3.4958      0.0146
  3737.9500      9.8572   6213.7124      0.0000      3.4958     -0.0034
  3737.9000      9.8572   6213.7124      0.0000      3.4958     -0.0195
  3737.8500      9.8572   6232.4395      0.0000      3.4958     -0.0116
  3737.8000      9.8572   6252.3716      0.0000      3.4859     -0.0153
  3737.7500      9.8207   6252.3716      0.0000      3.4859     -0.0134
  3737.7000      9.8207   6274.3501      0.0000      3.4958     -0.0146
  3737.6500      9.8207   6274.3501      0.0000      3.4958     -0.0089
  3737.6000      9.8207   6304.2554      0.0000      3.4958     -0.0159
  3737.5500      9.8207   6342.1338      0.0000      3.5568     -0.0162
  3737.5000      9.8207   6342.1338      0.0000      3.5568     -0.0095
  3737.4500      9.7323   6373.1113      0.0000      3.4859     -0.0082
  3737.4000      9.7323   6400.0156      0.0000      3.4859     -0.0168
  3737.3500      9.7323   6400.0156      0.0000      3.4859     -0.0052
  3737.3000      9.7323   6440.8027      0.0000      3.4958     -0.0082
  3737.2500      9.7506   6483.7451      0.0000      3.4859     -0.0079
  3737.2000      9.7506   6483.7451      0.0000      3.4859     -0.0073
  3737.1500      9.7506   6507.7085      0.0000      3.5263     -0.0027
  3737.1000      9.7506   6523.4492      0.0000      3.4859     -0.0116
  3737.0500      9.7506   6523.4492      0.0000      3.4859     -0.0128
  3737.0000      9.7506   6543.9170      0.0000      3.4859     -0.0308
  3736.9500      9.7140   6563.0557      0.0000      3.5164     -0.0250
  3736.9000      9.7140   6563.0557      0.0000      3.5164     -0.0424
  3736.8500      9.7140   6577.0176      0.0000      3.4958     -0.0403
  3736.8000      9.7323   6577.1655      0.0000      3.4958     -0.0168
  3736.7500      9.7323   6577.1655      0.0000      3.4958     -0.3439
  3736.7000      9.7323   6544.0449      0.0000      3.4958      0.2408
  3736.6500      9.7688   6479.3823      0.0000      3.4554     -0.0085
  3736.6000      9.7688   6479.3823      0.0000      3.4554     -0.9354
  3736.5500      9.7688   6404.9199      0.0000      3.5263     -0.2924
  3736.5000      9.7688   6330.6987      0.0000      3.4248     -0.9714
  3736.4500      9.7841   6330.6987      0.0000      3.4248     -0.1846
  3736.4000      9.7841   6269.1890      0.0000      3.5263      0.2188
  3736.3500      9.7841   6243.1211      0.0000      3.4653     -0.0259
  3736.3000      9.8572   6243.1211      0.0000      3.4653     -0.1492
  3736.2500      9.8572   6251.8594      0.0000      3.5362      0.0128
  3736.2000      9.8572   6278.6123      0.0000      3.4958      0.0092
  3736.1500      9.8572   6278.6123      0.0000      3.4958     -0.0128
  3736.1000      9.8572   6318.4863      0.0000      3.5263     -0.0092
  3736.0500      9.8572   6318.4863      0.0000      3.5263     -0.0073
  3736.0000      9.8024   6361.6743      0.0000      3.4454     -0.0049
  3735.9500      9.8024   6391.4453      0.0000      3.4958     -0.0137
  3735.9000      9.8024   6391.4453      0.0000      3.4958     -0.0095
  3735.8500      9.8024   6416.2803      0.0000      3.4958     -0.0064
  3735.8000      9.8024   6450.7007      0.0000      3.4859     -0.0134
  3735.7500      9.8024   6450.7007      0.0000      3.4859     -0.0186
  3735.7000      9.8024   6482.0313      0.0000      3.4653     -0.0156
  3735.6500      9.7323   6505.7168      0.0000      3.4859     -0.0079
  3735.6000      9.7323   6505.7168      0.0000      3.4859     -0.0159
  3735.5500      9.7323   6538.7671      0.0000      3.4859      0.0055
  3735.5000      9.7323   6576.5649      0.0000      3.4958      0.0098
  3735.4500      9.7323   6576.5649      0.0000      3.4958     -0.0098
  3735.4000      9.7323   6599.8770      0.0000      3.4859     -0.0156
  3735.3500      9.7323   6610.8511      0.0000      3.4653     -0.0626
  3735.3000      9.7506   6610.8511      0.0000      3.4653     -0.0116
  3735.2500      9.7506   6616.4082      0.0000      3.5263     -0.0519
  3735.2000      9.7506   6606.2012      0.0000      3.4653      0.0952
  3735.1500      9.7688   6606.2012      0.0000      3.4653      0.2676
