~Version Information
VERS.                      2.0: CWLS Log ASCII Standard - VERSION 2.0
WRAP.                       NO: One line per depth step
~Well Information Block
STRT.M               3779.9000: START DEPTH
STOP.M               3659.5000: STOP DEPTH
STEP.M                 -0.0500: STEP
NULL.                -999.2500: NULL VALUE
COMP.                  STATOIL: COMPANY
WELL.               15/9-F-1-C: WELL
FLD.                     VOLVE: FIELD
LOC.                          : LOCATION
SRVC.          Halliburton Logging Services: SERVICE COMPANY
DATE.          Wed Dec 03 07-18-31 2014: LOG DATE
UWI.                          : UNIQUE WELL ID
CTRY.                   NORWAY: COUNTRY
SECT.                         : SECTION
TOWN.                         : TOWNSHIP
RANG.                         : RANGE
API.                          : API#
OS.                   --NONE--: OTHER SERVICES
PDAT.FT                  M.S.L: PERMANENT DATUM
EEL.FT                   54.9M: ELEVATION
LMF.FT                   R.K.B: LOG MEASURED FROM
DMF.FT                   R.K.B: DRILLING MEASURED FROM
EKB.FT                   54.9M: KB
EDF.FT                   54.9M: DF
EGL.FT                    -91M: GL
DATE1.         03-DEC-14 @ 05:47: DATE1
RUN1.                    1 & 2: RUN NUMBER
TDD1.FT                  4094M: DEPTH DRILLER
TDL1.FT                  3782M: DEPTH LOGGER
BLI1.FT                  3772M: BOTTOM LOGGED INTERVAL
TLI1.FT                  3572M: TOP LOG INTERVAL
CDD1.IN_FT                    : CASING DRILLER
CDL1.FT                       : CASING LOGGER
BS1.IN                    8.5": BIT SIZE
DFT1.                SEA WATER: TYPE FLUID IN HOLE
DFDV1.GM/C3_CP          1.03SG: DENSITY/VISCOSITY
DFPL1.C3                      : PH/FLUID LOSS
MSS1.                         : SOURCE OF SAMPLE
RMT1.OHHM_DEGF                : RM@MEASURED TEMP
RMFT1.OHMM_DEGF                : RMF@MEASURED TEMP
RMCT1.OHMM_DEGF                : RMC@MEASURED TEMP
RMFS1.                        : SOURCE OF RMF/RMC
RMBT1.OHMM_DEGF                : RM@BHT
TCS1.                         : TIME CIRCULATION STOPPED
TLOB1.                36 HOURS: TIME LOGGER ON BOTTOM
BHT1.DEGF                 FULL: MAXIMUM RECORDED TEMPERATURE
LUN1.                 12030699: EQUIPMENT NUMBER
LUL1.                   NORWAY: LOCATION
ENGI1.              C.JAMIESON: RECORDED BY
WITN1.                A.ALBAWI: WITNESSED BY
~Curve Information Block
DEPT.M             0 000 00 00: Depth
LSPD.M/MIN                   0: Line Speed
LTEN.LB                      0: Surface Line Tension
MINMK.                       0: Minute Mark Ticks
HVOLTA.V                     0: Head Voltage Apparent
CCL.                         0: Casing Collar Locator
~Parameter Information Block
SRFTEMP.DEGC           12.0000: Surface Temperature
MudWgt.LB/GAL           8.5600: Mud Weight
CASETHCK.IN             0.4530: Casing Thickness
BITSIZE.IN             12.2500: Borehole I.D.
~Other Information
TOOL STRING DEPLOYED BY ALTUS INTERVENTION WIRELINE UNIT ON 7/16" CABLE
CABLE HEAD BUILT BY ALTUS
LOG CORRELATED TO SHLUMBERGER 4.5" HSD OX POWER JET PULS DATED 09.APRIL.2014
CORRELATION LOG IS SHALLOWER BY 1.4M, DEPTH SHIFTED 1.4M DOWN AS PER
CLIENTS REQUEST.
4.655" HSC GUN 10 AND 350 DEGREE PHASING, 39 GR MILLENIUM, 4 SHOTS PER FOOT.
ATTEMPT WAS MADE TO RUN 4 GUNS IN ONE STRING BUT AT 3600M PICK UP WEIGHT 
WAS TOO HIGH TO CONTINUE.  CLIENT D4ECIDED TO SPLIT UP ONTO TWO RUNS.
RUN #1 CCL TO TOP SHOT 3.25 M, CCL STOP DEPT: 3729.75 M
PERFORATION INTERVAL 3733M - 3742.6M
RUN #2 CCL TO TOP SHOT 3.25 M, CCL STOP DEPT: 3711.75 M
PERFORATION INTERVAL 3715M - 3724.6M

~A  Depth       LSPD        LTEN       MINMK       HVOLTA       CCL     
# ...
  3723.9000      9.3574   6648.8408      0.0000      3.4760     -2.1190
  3723.8500      9.3574   6577.5933      0.0000      3.4958     -2.4575
  3723.8000      9.3574   6577.5933      0.0000      3.4958     -2.2103
  3723.7500      9.3574   6498.3286      0.0000      3.4760     -2.4568
  3723.7000      9.3391   6414.9326      0.0000      3.5263     -3.2448
  3723.6500      9.3391   6414.9326      0.0000      3.5263     -2.7834
  3723.6000      9.3391   6346.5552      0.0000      3.5164     -2.5148
  3723.5500      9.4458   6315.3438      0.0000      3.4554     -1.6933
  3723.5000      9.4458   6315.3438      0.0000      3.4554     -2.0604
  3723.4500      9.4458   6319.3311      0.0000      3.4859     -2.0464
  3723.4000      9.4458   6319.3311      0.0000      3.4859     -2.0833
  3723.3500      9.4458   6350.2471      0.0000      3.4653     -2.0409
  3723.3000      9.4458   6399.3525      0.0000      3.5057     -2.0031
  3723.2500      9.4092   6399.3525      0.0000      3.5057     -2.0150
  3723.2000      9.4092   6447.7451      0.0000      3.4859     -2.0113
  3723.1500      9.4092   6491.4805      0.0000      3.4958     -2.0046
  3723.1000      9.3939   6491.4805      0.0000      3.4958     -2.0134
  3723.0500      9.3939   6541.0542      0.0000      3.4653     -2.0058
  3723.0000      9.3939   6586.2358      0.0000      3.4859     -2.0018
  3722.9500      9.3391   6586.2358      0.0000      3.4859     -2.0104
  3722.9000      9.3391   6613.2622      0.0000      3.4859     -2.0070
  3722.8500      9.3391   6632.7715      0.0000      3.4554     -2.0006
  3722.8000      9.3025   6632.7715      0.0000      3.4554     -2.0113
  3722.7500      9.3025   6648.4741      0.0000      3.4760     -1.9966
  3722.7000      9.3025   6645.7222      0.0000      3.4958     -2.0168
  3722.6500      9.3574   6645.7222      0.0000      3.4958     -1.9646
  3722.6000      9.3574   6627.0249      0.0000      3.4958     -2.0220
  3722.5500      9.3574   6602.5547      0.0000      3.4859     -2.0250
  3722.5000      9.3574   6602.5547      0.0000      3.4859     -2.1642
  3722.4500      9.3208   6567.6650      0.0000      3.5568     -1.9667
  3722.4000      9.3208   6532.2334      0.0000      3.4248     -1.7525
  3722.3500      9.3208   6532.2334      0.0000      3.4248     -1.9490
  3722.3000      9.3756   6520.4204      0.0000      3.4653     -2.0787
  3722.2500      9.3756   6533.9614      0.0000      3.4958     -1.9399
  3722.2000      9.3756   6533.9614      0.0000      3.4958     -2.0125
  3722.1500      9.4092   6562.7661      0.0000      3.5263     -2.0159
  3722.1000      9.4092   6604.4604      0.0000      3.4958     -2.0186
  3722.0500      9.4092   6604.4604      0.0000      3.4958     -2.0058
  3722.0000      9.3574   6646.8374      0.0000      3.4859     -2.0146
  3721.9500      9.3574   6675.1348      0.0000      3.4958     -2.0098
  3721.9000      9.3574   6675.1348      0.0000      3.4958     -2.0140
  3721.8500      9.4092   6698.8452      0.0000      3.5469     -2.0128
  3721.8000      9.4092   6698.8452      0.0000      3.5469     -2.0220
  3721.7500      9.4092   6724.9819      0.0000      3.5263     -2.0119
  3721.7000      9.3208   6738.6313      0.0000      3.4859     -2.0107
  3721.6500      9.3208   6738.6313      0.0000      3.4859     -2.0479
  3721.6000      9.3208   6743.5298      0.0000      3.4554     -2.0702
  3721.5500      9.3025   6762.3911      0.0000      3.4859     -2.0168
  3721.5000      9.3025   6762.3911      0.0000      3.4859     -2.0003
  3721.4500      9.3025   6792.5981      0.0000      3.4859     -1.9738
  3721.4000      9.3574   6814.5737      0.0000      3.4248     -2.0540
  3721.3500      9.3574   6814.5737      0.0000      3.4248     -2.0385
  3721.3000      9.3574   6819.2495      0.0000      3.4454     -1.9518
  3721.2500      9.3574   6800.5454      0.0000      3.4859     -1.9725
  3721.2000      9.3208   6800.5454      0.0000      3.4859     -2.0369
  3721.1500      9.3208   6756.6367      0.0000      3.4653     -2.5383
  3721.1000      9.3208   6698.1187      0.0000      3.4958     -2.1001
  3721.0500      9.3756   6698.1187      0.0000      3.4958     -0.1555
  3721.0000      9.3756   6632.3115      0.0000      3.5568     -2.2383
  3720.9500      9.3756   6566.6055      0.0000      3.4454     -1.9091
  3720.9000      9.4275   6566.6055      0.0000      3.4454     -1.8865
  3720.8500      9.4275   6519.4668      0.0000      3.4752     -1.9637
  3720.8000      9.4275   6492.8086      0.0000      3.4958     -1.9396
  3720.7500      9.4092   6492.8086      0.0000      3.4958     -1.8163
  3720.7000      9.4092   6472.9746      0.0000      3.4958     -2.0790
  3720.6500      9.4092   6472.4536      0.0000      3.4859     -2.1532
  3720.6000      9.4823   6472.4536      0.0000      3.4859     -2.0983
  3720.5500      9.4823   6511.6519      0.0000      3.5263     -1.8895
  3720.5000      9.4823   6574.1880      0.0000      3.4859     -1.9271
  3720.4500      9.4275   6574.1880      0.0000      3.4859     -2.0259
  3720.4000      9.4275   6634.9282      0.0000      3.5164     -1.9991
  3720.3500      9.4275   6690.4487      0.0000      3.4859     -2.0278
  3720.3000      9.3391   6690.4487      0.0000      3.4859     -2.0006
  3720.2500      9.3391   6734.3530      0.0000      3.4554     -2.0082
  3720.2000      9.3391   6734.3530      0.0000      3.4554     -2.0034
  3720.1500      9.3756   6763.1270      0.0000      3.4958     -2.0153
  3720.1000      9.3756   6795.1274      0.0000      3.4454     -2.0089
  3720.0500      9.3756   6795.1274      0.0000      3.4454     -2.0006
  3720.0000      9.2507   6832.8354      0.0000      3.4859     -2.0089
  3719.9500      9.2507   6854.9771      0.0000      3.4454     -2.0027
  3719.9000      9.2507   6854.9771      0.0000      3.4454     -2.0183
  3719.8500      9.2507   6863.8745      0.0000      3.4859     -2.0510
  3719.8000      9.3025   6874.2515      0.0000      3.5263     -2.0446
  3719.7500      9.3025   6874.2515      0.0000      3.5263     -2.0494
  3719.7000      9.3025   6871.9980      0.0000      3.4958     -1.9606
  3719.6500      9.3208   6842.4126      0.0000      3.4859     -1.9579
  3719.6000      9.3208   6842.4126      0.0000      3.4859     -2.0464
  3719.5500      9.3208   6794.6021      0.0000      3.4454     -2.1602
  3719.5000      9.3025   6728.6680      0.0000      3.5164     -1.9799
  3719.4500      9.3025   6728.6680      0.0000      3.5164     -2.2213
  3719.4000      9.3025   6638.3330      0.0000      3.5362     -2.3714
  3719.3500      9.4092   6540.4146      0.0000      3.4554     -3.6708
  3719.3000      9.4092   6540.4146      0.0000      3.4554     -2.4227
  3719.2500      9.4092   6458.0151      0.0000      3.4248     -2.1157
  3719.2000      9.4275   6402.9639      0.0000      3.4859     -2.1996
  3719.1500      9.4275   6402.9639      0.0000      3.4859     -2.1288
  3719.1000      9.4275   6382.4761      0.0000      3.4454     -1.8096
  3719.0500      9.4275   6390.7065      0.0000      3.5057     -1.9283
  3719.0000      9.4275   6390.7065      0.0000      3.5057     -1.9420
  3718.9500      9.4275   6410.9604      0.0000      3.4859     -2.0098
  3718.9000      9.4458   6441.4316      0.0000      3.4958     -2.0113
  3718.8500      9.4458   6441.4316      0.0000      3.4958     -2.0064
  3718.8000      9.4458   6484.8877      0.0000      3.4355     -2.0214
  3718.7500      9.3756   6526.8994      0.0000      3.4454     -2.0162
  3718.7000      9.3756   6526.8994      0.0000      3.4454     -2.0098
  3718.6500      9.3756   6563.4028      0.0000      3.4958     -2.0229
  3718.6000      9.3756   6563.4028      0.0000      3.4958     -2.0079
  3718.5500      9.3208   6607.4351      0.0000      3.4859     -2.0076
  3718.5000      9.3208   6652.1216      0.0000      3.4760     -2.0122
  3718.4500      9.3208   6652.1216      0.0000      3.4760     -2.0183
  3718.4000      9.3391   6683.1606      0.0000      3.4958     -2.0085
  3718.3500      9.3391   6712.3228      0.0000      3.4859     -2.0079
