~Version Information
VERS.                      2.0: CWLS Log ASCII Standard - VERSION 2.0
WRAP.                       NO: One line per depth step
~Well Information Block
STRT.M               3169.8000: START DEPTH
STOP.M               3077.9500: STOP DEPTH
STEP.M                 -0.0500: STEP
NULL.                -999.2500: NULL VALUE
COMP.                  Statoil: COMPANY
WELL.                15/9-F-12: WELL
FLD.                     Volve: FIELD
LOC.                          : LOCATION
SRVC.          Halliburton Logging Services: SERVICE COMPANY
DATE.          Wed Nov 26 07-41-16 2014: LOG DATE
UWI.                          : UNIQUE WELL ID
SECT.                         : SECTION
TOWN.                         : TOWNSHIP
RANG.                         : RANGE
API.                          : API#
OS.                           : OTHER SERVICES
PDAT.FT                       : PERMANENT DATUM
EEL.FT                        : ELEVATION
LMF.FT                        : LOG MEASURED FROM
DMF.FT                        : DRILLING MEASURED FROM
EKB.FT                        : KB
EDF.FT                        : DF
EGL.FT                        : GL
DATE1.                        : DATE1
RUN1.                         : RUN NUMBER
TDD1.FT                       : DEPTH DRILLER
TDL1.FT                       : DEPTH LOGGER
BLI1.FT                       : BOTTOM LOGGED INTERVAL
TLI1.FT                       : TOP LOG INTERVAL
CDD1.IN_FT                    : CASING DRILLER
CDL1.FT                       : CASING LOGGER
BS1.IN                        : BIT SIZE
DFT1.                         : TYPE FLUID IN HOLE
DFDV1.GM/C3_CP                : DENSITY/VISCOSITY
DFPL1.C3                      : PH/FLUID LOSS
MSS1.                         : SOURCE OF SAMPLE
RMT1.OHHM_DEGF                : RM@MEASURED TEMP
RMFT1.OHMM_DEGF                : RMF@MEASURED TEMP
RMCT1.OHMM_DEGF                : RMC@MEASURED TEMP
RMFS1.                        : SOURCE OF RMF/RMC
RMBT1.OHMM_DEGF                : RM@BHT
TCS1.                         : TIME CIRCULATION STOPPED
TLOB1.                        : TIME LOGGER ON BOTTOM
BHT1.DEGF                     : MAXIMUM RECORDED TEMPERATURE
LUN1.                         : EQUIPMENT NUMBER
LUL1.                         : LOCATION
ENGI1.                        : RECORDED BY
WITN1.                        : WITNESSED BY
~Curve Information Block
DEPT.M             0 000 00 00: Depth
LSPD.M/MIN                   0: Line Speed
LTEN.LB                      0: Surface Line Tension
MINMK.                       0: Minute Mark Ticks
GR.GAPI                      0: Gamma Ray
CCL.                         0: Casing Collar Locator
ACCX.                        0: X Axis Accelerometer
ACCY.                        0: Y Axis Accelerometer
ACCZ.                        0: Z Axis Accelerometer
RB.DEG                       0: Relative Bearing
DEVI.DEG                     0: Deviation
TOTG.GEE                     0: Total G
RBRef.DEG                    0: RB Reference
IntTemp.DEGF                 0: Internal Electronics Temperature
~Parameter Information Block
~A  Depth       LSPD        LTEN       MINMK         GR         CCL         ACCX        ACCY        ACCZ         RB         DEVI        TOTG       RBRef      IntTemp   
# ...
  3083.4000      9.2842   4780.3076      0.0000     16.2908    361.0000  -1515.5000   2574.3999   2122.3000    120.4845      0.0246   3664.4827   -120.4845    225.2033
  3083.3500      9.2842   4764.1318      0.0000     14.8497    367.0000  -1515.7000   2569.3999   2138.5000    120.5365      0.0245   3670.4692   -120.5365    225.2026
  3083.3000      9.3025   4773.1450      0.0000     12.9700    371.0000  -1516.0000   2554.2000   2119.7000    120.6905      0.0247   3649.0166   -120.6905    225.1962
  3083.2500      9.3025   4785.3613      0.0000     12.2181    368.0000  -1501.1000   2513.3999   2114.6001    120.8473      0.0249   3611.3728   -120.8473    225.1920
  3083.2000      9.3025   4747.5703      0.0000     11.8422    367.0000  -1504.8000   2503.3999   2153.2000    121.0102      0.0248   3628.7332   -121.0102    225.1920
  3083.1500      9.2842   4611.0498      0.0000     12.4687    370.0000  -1490.6000   2517.1001   2208.1001    120.6336      0.0246   3665.1584   -120.6336    225.1977
  3083.1000      9.2842   4504.3765      0.0000     12.7820    373.0000  -1480.9000   2493.0000   2160.0000    120.7113      0.0249   3615.7590   -120.7113    225.1998
  3083.0500      9.2842   4444.4692      0.0000     13.7845    366.0000  -1486.8000   2465.3999   2128.8999    121.0928      0.0251   3580.6404   -121.0928    225.1948
  3083.0000      9.2842   4433.2661      0.0000     14.7244    365.0000  -1475.7000   2464.7000   2108.0000    120.9104      0.0253   3563.1587   -120.9104    225.1885
  3082.9500      9.2842   4432.0547      0.0000     15.5389    367.0000  -1480.8000   2484.8000   2130.3000    120.7925      0.0251   3592.3779   -120.7925    225.1738
  3082.9000      9.2842   4409.4063      0.0000     14.9750    374.0000  -1469.3000   2486.5000   2108.8000    120.5793      0.0252   3576.1099   -120.5793    225.1674
  3082.8500      9.3208   4389.8599      0.0000     14.5364    375.0000  -1481.4000   2480.1001   2043.9000    120.8505      0.0254   3538.7808   -120.8505    225.1632
  3082.8000      9.3208   4430.3169      0.0000     14.0978    371.0000  -1505.1000   2502.2000   2045.3000    121.0274      0.0252   3565.0503   -121.0274    225.1667
  3082.7500      9.3208   4476.9917      0.0000     13.4712    364.0000  -1507.0000   2535.1001   2066.6001    120.7295      0.0250   3601.1968   -120.7295    225.1709
  3082.7000      9.3208   4542.3438      0.0000     12.4687    356.0000  -1520.1000   2547.3999   2081.5000    120.8256      0.0248   3623.8918   -120.8256    225.1780
  3082.6500      9.3208   4569.3931      0.0000     12.1554    339.0000  -1510.0000   2560.3999   2082.3000    120.5300      0.0248   3629.2866   -120.5300    225.1829
  3082.6000      9.3208   4566.4468      0.0000     11.6542    376.0000  -1536.7000   2550.2000   2082.7000    121.0723      0.0248   3633.5391   -121.0723    225.1822
  3082.5500      9.3756   4586.1377      0.0000     11.4036    353.0000  -1513.5000   2547.6001   2106.6001    120.7141      0.0248   3635.7546   -120.7141    225.1822
  3082.5000      9.3756   4633.2002      0.0000     12.3434    360.0000  -1516.4000   2544.3999   2108.2000    120.7939      0.0248   3635.6494   -120.7939    225.1822
  3082.4500      9.3756   4679.5010      0.0000     13.4086    358.0000  -1507.8000   2546.6001   2130.8999    120.6291      0.0247   3646.8298   -120.6291    225.1829
  3082.4000      9.3939   4706.4004      0.0000     15.6642    370.0000  -1508.7000   2541.3000   2159.3999    120.6964      0.0246   3660.2444   -120.6964    225.1927
  3082.3500      9.3939   4703.6479      0.0000     17.6693    368.0000  -1498.5000   2527.8000   2173.8000    120.6598      0.0246   3655.2266   -120.6598    225.1984
  3082.3000      9.3939   4700.3066      0.0000     18.6091    373.0000  -1501.1000   2559.1001   2172.2000    120.3948      0.0245   3677.0569   -120.3948    225.2089
  3082.2500      9.3756   4705.0723      0.0000     19.1104    369.0000  -1476.2000   2536.3999   2180.7000    120.1997      0.0246   3656.2197   -120.1997    225.2307
  3082.2000      9.3756   4682.7056      0.0000     20.3009    368.0000  -1495.9000   2511.3999   2190.8000    120.7799      0.0246   3653.0059   -120.7799    225.2434
  3082.1500      9.3756   4639.8691      0.0000     20.4262    367.0000  -1505.3000   2498.8999   2155.7000    121.0641      0.0248   3627.3228   -121.0641    225.2476
  3082.1000      9.3756   4546.7690      0.0000     20.1129    365.0000  -1524.0000   2515.3999   2074.8999    121.2103      0.0250   3599.3086   -121.2103    225.2511
  3082.0500      9.4092   4457.0361      0.0000     20.1755    367.0000  -1542.6000   2520.0000   2040.4000    121.4726      0.0251   3590.7168   -121.4726    225.2469
  3082.0000      9.4092   4452.0112      0.0000     20.5515    366.0000  -1543.9000   2513.5000   2040.5000    121.5600      0.0251   3586.7742   -121.5600    225.2398
  3081.9500      9.4092   4463.5806      0.0000     19.4863    369.0000  -1556.8000   2505.8000   2041.1000    121.8518      0.0251   3587.3040   -121.8518    225.2342
  3081.9000      9.3574   4449.4004      0.0000     17.6066    378.0000   -999.2500   -999.2500   -999.2500   -999.2500   -999.2500   -999.2500   -999.2500   -999.2500
  3081.8500      9.3574   4437.6475      0.0000     16.1655    399.0000   -999.2500   -999.2500   -999.2500   -999.2500   -999.2500   -999.2500   -999.2500   -999.2500
  3081.8000      9.3574   4455.6118      0.0000     14.4111    343.0000   -999.2500   -999.2500   -999.2500   -999.2500   -999.2500   -999.2500   -999.2500   -999.2500
  3081.7500      9.3391   4500.0176      0.0000     12.4687    365.0000   -999.2500   -999.2500   -999.2500   -999.2500   -999.2500   -999.2500   -999.2500   -999.2500
  3081.7000      9.3391   4550.4082      0.0000     10.9023    366.0000   -999.2500   -999.2500   -999.2500   -999.2500   -999.2500   -999.2500   -999.2500   -999.2500
  3081.6500      9.3391   4552.0337      0.0000     10.5264    358.0000   -999.2500   -999.2500   -999.2500   -999.2500   -999.2500   -999.2500   -999.2500   -999.2500
  3081.6000      9.3208   4532.7158      0.0000     10.5264    392.0000   -999.2500   -999.2500   -999.2500   -999.2500   -999.2500   -999.2500   -999.2500   -999.2500
  3081.5500      9.3208   4527.6758      0.0000     10.8397    377.0000   -999.2500   -999.2500   -999.2500   -999.2500   -999.2500   -999.2500   -999.2500   -999.2500
  3081.5000      9.3208   4557.1094      0.0000     12.0301    352.0000   -999.2500   -999.2500   -999.2500   -999.2500   -999.2500   -999.2500   -999.2500   -999.2500
  3081.4500      9.3025   4591.0933      0.0000     13.3459    351.0000   -999.2500   -999.2500   -999.2500   -999.2500   -999.2500   -999.2500   -999.2500   -999.2500
  3081.4000      9.3025   4591.0459      0.0000     15.1630    362.0000   -999.2500   -999.2500   -999.2500   -999.2500   -999.2500   -999.2500   -999.2500   -999.2500
  3081.3500      9.3025   4550.6011      0.0000     17.5439    366.0000   -999.2500   -999.2500   -999.2500   -999.2500   -999.2500   -999.2500   -999.2500   -999.2500
  3081.3000      9.3756   4514.2251      0.0000     20.5515    368.0000   -999.2500   -999.2500   -999.2500   -999.2500   -999.2500   -999.2500   -999.2500   -999.2500
  3081.2500      9.3756   4515.9517      0.0000     22.8698    368.0000   -999.2500   -999.2500   -999.2500   -999.2500   -999.2500   -999.2500   -999.2500   -999.2500
  3081.2000      9.3756   4525.9053      0.0000     24.9375    370.0000   -999.2500   -999.2500   -999.2500   -999.2500   -999.2500   -999.2500   -999.2500   -999.2500
  3081.1500      9.3939   4486.6982      0.0000     24.8748    359.0000   -999.2500   -999.2500   -999.2500   -999.2500   -999.2500   -999.2500   -999.2500   -999.2500
  3081.1000      9.3939   4416.8213      0.0000     23.8096    365.0000   -999.2500   -999.2500   -999.2500   -999.2500   -999.2500   -999.2500   -999.2500   -999.2500
  3081.0500      9.3939   4367.7139      0.0000     22.1806    366.0000   -999.2500   -999.2500   -999.2500   -999.2500   -999.2500   -999.2500   -999.2500   -999.2500
