~Version Information
VERS.                      2.0: CWLS Log ASCII Standard - VERSION 2.0
WRAP.                       NO: One line per depth step
~Well Information Block
STRT.M               3135.0500: START DEPTH
STOP.M               3039.9000: STOP DEPTH
STEP.M                 -0.0500: STEP
NULL.                -999.2500: NULL VALUE
COMP.                  Statoil: COMPANY
WELL.                15/9-F-12: WELL
FLD.                     Volve: FIELD
LOC.                          : LOCATION
SRVC.          Halliburton Logging Services: SERVICE COMPANY
DATE.          Wed Nov 26 21-01-09 2014: LOG DATE
UWI.                          : UNIQUE WELL ID
SECT.                         : SECTION
TOWN.                         : TOWNSHIP
RANG.                         : RANGE
API.                          : API#
OS.                           : OTHER SERVICES
PDAT.FT                       : PERMANENT DATUM
EEL.FT                        : ELEVATION
LMF.FT                        : LOG MEASURED FROM
DMF.FT                        : DRILLING MEASURED FROM
EKB.FT                        : KB
EDF.FT                        : DF
EGL.FT                        : GL
DATE1.                        : DATE1
RUN1.                         : RUN NUMBER
TDD1.FT                       : DEPTH DRILLER
TDL1.FT                       : DEPTH LOGGER
BLI1.FT                       : BOTTOM LOGGED INTERVAL
TLI1.FT                       : TOP LOG INTERVAL
CDD1.IN_FT                    : CASING DRILLER
CDL1.FT                       : CASING LOGGER
BS1.IN                        : BIT SIZE
DFT1.                         : TYPE FLUID IN HOLE
DFDV1.GM/C3_CP                : DENSITY/VISCOSITY
DFPL1.C3                      : PH/FLUID LOSS
MSS1.                         : SOURCE OF SAMPLE
RMT1.OHHM_DEGF                : RM@MEASURED TEMP
RMFT1.OHMM_DEGF                : RMF@MEASURED TEMP
RMCT1.OHMM_DEGF                : RMC@MEASURED TEMP
RMFS1.                        : SOURCE OF RMF/RMC
RMBT1.OHMM_DEGF                : RM@BHT
TCS1.                         : TIME CIRCULATION STOPPED
TLOB1.                        : TIME LOGGER ON BOTTOM
BHT1.DEGF                     : MAXIMUM RECORDED TEMPERATURE
LUN1.                         : EQUIPMENT NUMBER
LUL1.                         : LOCATION
ENGI1.                        : RECORDED BY
WITN1.                        : WITNESSED BY
~Curve Information Block
DEPT.M             0 000 00 00: Depth
LSPD.M/MIN                   0: Line Speed
LTEN.LB                      0: Surface Line Tension
MINMK.                       0: Minute Mark Ticks
HVOLTA.V                     0: Head Voltage Apparent
CCL.                         0: Casing Collar Locator
~Parameter Information Block
SRFTEMP.DEGC           10.0000: Surface Temperature
MudWgt.LB/GAL           8.5000: Mud Weight
CASETHCK.IN             6.1840: Casing Thickness
BITSIZE.IN              8.5000: Borehole I.D.
~A  Depth       LSPD        LTEN       MINMK       HVOLTA       CCL     
# ...
  3118.2500      9.1257   4324.1743      0.0000      3.5774     -2.0162
  3118.2000      9.1257   4295.4292      0.0000      3.5774     -2.0040
  3118.1500      9.1257   4295.4292      0.0000      3.5774     -2.0171
  3118.1000      9.0526   4280.6104      0.0000      3.5675     -1.9957
  3118.0500      9.0526   4278.0791      0.0000      3.5469     -2.0134
  3118.0000      9.0526   4278.0791      0.0000      3.5469     -2.0140
  3117.9500      9.1074   4287.5498      0.0000      3.5774     -2.0159
  3117.9000      9.1074   4306.7817      0.0000      3.5774     -2.0189
  3117.8500      9.1074   4306.7817      0.0000      3.5774     -2.0116
  3117.8000      9.0343   4324.6963      0.0000      3.5774     -2.0009
  3117.7500      9.0343   4335.7813      0.0000      3.5675     -2.0146
  3117.7000      9.0343   4335.7813      0.0000      3.5675     -2.0119
  3117.6500      9.0526   4343.3550      0.0000      3.5774     -2.0015
  3117.6000      9.0526   4341.3232      0.0000      3.5873     -2.0192
  3117.5500      9.0526   4341.3232      0.0000      3.5873     -2.0073
  3117.5000      9.1257   4324.2236      0.0000      3.6079     -2.0128
  3117.4500      9.1257   4308.3364      0.0000      3.5774     -2.0040
  3117.4000      9.1257   4308.3364      0.0000      3.5774     -2.0226
  3117.3500      9.0708   4310.3354      0.0000      3.6079     -2.0055
  3117.3000      9.0708   4327.4565      0.0000      3.5774     -2.0073
  3117.2500      9.0708   4327.4565      0.0000      3.5774     -2.0156
  3117.2000      9.1592   4352.7456      0.0000      3.5774     -1.9933
  3117.1500      9.1592   4380.0854      0.0000      3.5774     -2.0089
  3117.1000      9.1592   4380.0854      0.0000      3.5774     -2.0204
  3117.0500      9.1257   4398.8857      0.0000      3.5469     -2.0009
  3117.0000      9.1257   4398.8857      0.0000      3.5469     -2.0165
  3116.9500      9.1257   4406.0337      0.0000      3.6079     -2.0128
  3116.9000      9.0891   4405.4609      0.0000      3.5774     -2.0079
  3116.8500      9.0891   4405.4609      0.0000      3.5774     -2.0107
  3116.8000      9.0891   4392.1470      0.0000      3.5774     -2.0174
  3116.7500      9.1592   4365.4658      0.0000      3.5873     -2.0122
  3116.7000      9.1592   4365.4658      0.0000      3.5873     -2.0040
  3116.6500      9.1592   4340.1406      0.0000      3.5370     -2.0012
  3116.6000      9.0708   4320.9463      0.0000      3.5370     -2.0000
  3116.5500      9.0708   4320.9463      0.0000      3.5370     -2.0098
  3116.5000      9.0708   4304.5127      0.0000      3.5873     -2.0150
  3116.4500      9.0891   4300.7075      0.0000      3.5774     -2.0031
  3116.4000      9.0891   4300.7075      0.0000      3.5774     -2.0220
  3116.3500      9.0891   4312.8418      0.0000      3.5774     -1.9951
  3116.3000      9.0708   4327.2847      0.0000      3.5469     -2.0217
  3116.2500      9.0708   4327.2847      0.0000      3.5469     -2.0226
  3116.2000      9.0708   4338.3970      0.0000      3.5675     -2.0012
  3116.1500      9.0160   4346.0981      0.0000      3.5370     -2.0119
  3116.1000      9.0160   4346.0981      0.0000      3.5370     -2.0079
  3116.0500      9.0160   4342.3364      0.0000      3.5469     -2.0043
  3116.0000      9.0891   4329.0083      0.0000      3.5774     -2.0095
  3115.9500      9.0891   4329.0083      0.0000      3.5774     -2.0076
  3115.9000      9.0891   4319.9561      0.0000      3.5469     -2.0015
  3115.8500      9.0526   4319.9976      0.0000      3.5774     -2.0116
  3115.8000      9.0526   4319.9976      0.0000      3.5774     -2.0180
  3115.7500      9.0526   4328.6060      0.0000      3.5065     -2.0024
  3115.7000      9.0891   4344.6553      0.0000      3.5774     -2.0070
  3115.6500      9.0891   4344.6553      0.0000      3.5774     -2.0131
  3115.6000      9.0891   4357.7593      1.0000      3.5774     -2.0125
  3115.5500      9.1074   4359.1992      0.0000      3.5873     -2.0162
  3115.5000      9.1074   4359.1992      0.0000      3.5873     -2.0101
  3115.4500      9.1074   4353.0352      0.0000      3.5774     -2.0049
  3115.4000      9.1074   4353.0352      0.0000      3.5774     -2.0165
  3115.3500      9.0891   4343.2837      0.0000      3.5568     -2.0131
  3115.3000      9.0891   4329.2314      0.0000      3.5774     -2.0110
  3115.2500      9.0891   4329.2314      0.0000      3.5774     -2.0150
  3115.2000      9.1410   4316.2959      0.0000      3.5774     -2.0110
  3115.1500      9.1410   4311.5195      0.0000      3.6079     -2.0070
  3115.1000      9.1410   4311.5195      0.0000      3.6079     -2.0101
  3115.0500      9.0891   4314.6885      0.0000      3.5774     -2.0079
  3115.0000      9.0891   4325.5112      0.0000      3.5774     -2.0064
  3114.9500      9.0891   4325.5112      0.0000      3.5774     -2.0153
  3114.9000      9.0891   4344.1826      0.0000      3.5774     -2.0015
  3114.8500      9.0891   4362.3989      0.0000      3.5774     -2.0031
  3114.8000      9.0891   4362.3989      0.0000      3.5774     -2.0040
  3114.7500      9.0891   4373.4375      0.0000      3.5469     -2.0107
  3114.7000      9.0891   4384.7637      0.0000      3.6079     -2.0189
  3114.6500      9.0526   4384.7637      0.0000      3.6079     -2.0031
  3114.6000      9.0526   4399.4272      0.0000      3.5774     -2.0137
  3114.5500      9.0526   4407.4150      0.0000      3.6179     -2.0214
  3114.5000      9.0526   4407.4150      0.0000      3.6179     -2.0082
  3114.4500      9.0891   4410.3062      0.0000      3.6179     -2.0223
  3114.4000      9.0891   4415.2334      0.0000      3.5774     -2.0082
  3114.3500      9.0891   4415.2334      0.0000      3.5774     -2.0085
  3114.3000      9.0526   4411.0811      0.0000      3.5675     -2.0089
  3114.2500      9.0526   4390.8369      0.0000      3.6079     -2.0165
  3114.2000      9.0526   4390.8369      0.0000      3.6079     -2.0143
  3114.1500      9.0891   4366.3335      0.0000      3.5774     -2.0037
  3114.1000      9.0891   4343.4795      0.0000      3.5263     -2.0107
  3114.0500      9.0891   4343.4795      0.0000      3.5263     -2.0034
  3114.0000      9.0891   4324.3457      0.0000      3.5774     -2.0104
  3113.9500      9.0891   4320.6387      0.0000      3.5370     -2.0153
  3113.9000      9.0891   4320.6387      0.0000      3.5370     -2.0067
  3113.8500      9.0526   4334.3691      0.0000      3.5774     -2.0104
  3113.8000      9.0526   4334.3691      0.0000      3.5774     -1.9960
  3113.7500      9.0526   4355.7432      0.0000      3.5568     -1.9973
  3113.7000      9.1410   4380.5654      0.0000      3.5469     -2.0244
  3113.6500      9.1410   4380.5654      0.0000      3.5469     -1.9963
  3113.6000      9.1410   4398.4414      0.0000      3.5370     -2.0183
  3113.5500      9.0526   4394.9351      0.0000      3.5370     -2.0027
  3113.5000      9.0526   4394.9351      0.0000      3.5370     -2.0082
  3113.4500      9.0526   4378.0859      0.0000      3.5370     -1.9966
  3113.4000      9.0526   4362.9551      0.0000      3.5774     -2.0391
  3113.3500      9.0526   4362.9551      0.0000      3.5774     -2.0027
  3113.3000      9.0526   4349.9082      0.0000      3.5774     -2.0174
  3113.2500      9.1074   4342.4243      0.0000      3.5774     -2.0137
  3113.2000      9.1074   4342.4243      0.0000      3.5774     -2.0107
  3113.1500      9.1074   4347.2051      0.0000      3.5675     -2.0153
  3113.1000      9.0160   4356.4678      0.0000      3.5774     -2.0235
  3113.0500      9.0160   4356.4678      0.0000      3.5774     -2.0153
  3113.0000      9.0160   4362.5020      0.0000      3.5774     -1.9844
  3112.9500      9.1257   4368.0825      0.0000      3.5774     -2.0012
  3112.9000      9.1257   4368.0825      0.0000      3.5774     -2.0208
  3112.8500      9.1257   4369.9731      0.0000      3.5469     -2.0165
  3112.8000      9.1074   4362.3149      0.0000      3.5370     -2.0070
  3112.7500      9.1074   4362.3149      0.0000      3.5370     -2.0272
  3112.7000      9.1074   4348.9678      0.0000      3.5774     -2.0180
