~Version Information
VERS.                      2.0: CWLS Log ASCII Standard - VERSION 2.0
WRAP.                       NO: One line per depth step
~Well Information Block
STRT.M               3785.6000: START DEPTH
STOP.M               3572.2000: STOP DEPTH
STEP.M                 -0.0500: STEP
NULL.                -999.2500: NULL VALUE
COMP.                  STATOIL: COMPANY
WELL.               15/9-F-1-C: WELL
FLD.                     VOLVE: FIELD
LOC.                          : LOCATION
SRVC.          Halliburton Logging Services: SERVICE COMPANY
DATE.          Wed Dec 03 05-47-41 2014: LOG DATE
UWI.                          : UNIQUE WELL ID
CTRY.                   NORWAY: COUNTRY
SECT.                         : SECTION
TOWN.                         : TOWNSHIP
RANG.                         : RANGE
API.                          : API#
OS.                   --NONE--: OTHER SERVICES
PDAT.FT                  M.S.L: PERMANENT DATUM
EEL.FT                   54.9M: ELEVATION
LMF.FT                   R.K.B: LOG MEASURED FROM
DMF.FT                   R.K.B: DRILLING MEASURED FROM
EKB.FT                   54.9M: KB
EDF.FT                   54.9M: DF
EGL.FT                    -91M: GL
DATE1.         03-DEC-14 @ 05:47: DATE1
RUN1.                    1 & 2: RUN NUMBER
TDD1.FT                  4094M: DEPTH DRILLER
TDL1.FT                  3782M: DEPTH LOGGER
BLI1.FT                  3772M: BOTTOM LOGGED INTERVAL
TLI1.FT                  3572M: TOP LOG INTERVAL
CDD1.IN_FT                    : CASING DRILLER
CDL1.FT                       : CASING LOGGER
BS1.IN                    8.5": BIT SIZE
DFT1.                SEA WATER: TYPE FLUID IN HOLE
DFDV1.GM/C3_CP          1.03SG: DENSITY/VISCOSITY
DFPL1.C3                      : PH/FLUID LOSS
MSS1.                         : SOURCE OF SAMPLE
RMT1.OHHM_DEGF                : RM@MEASURED TEMP
RMFT1.OHMM_DEGF                : RMF@MEASURED TEMP
RMCT1.OHMM_DEGF                : RMC@MEASURED TEMP
RMFS1.                        : SOURCE OF RMF/RMC
RMBT1.OHMM_DEGF                : RM@BHT
TCS1.                         : TIME CIRCULATION STOPPED
TLOB1.                36 HOURS: TIME LOGGER ON BOTTOM
BHT1.DEGF                 FULL: MAXIMUM RECORDED TEMPERATURE
LUN1.                 12030699: EQUIPMENT NUMBER
LUL1.                   NORWAY: LOCATION
ENGI1.              C.JAMIESON: RECORDED BY
WITN1.                A.ALBAWI: WITNESSED BY
~Curve Information Block
DEPT.M             0 000 00 00: Depth
LSPD.M/MIN                   0: Line Speed
LTEN.LB                      0: Surface Line Tension
MINMK.                       0: Minute Mark Ticks
HVOLTA.V                     0: Head Voltage Apparent
CCL.                         0: Casing Collar Locator
~Parameter Information Block
SRFTEMP.DEGC           12.0000: Surface Temperature
MudWgt.LB/GAL           8.5600: Mud Weight
CASETHCK.IN             0.4530: Casing Thickness
BITSIZE.IN             12.2500: Borehole I.D.
~Other Information
TOOL STRING DEPLOYED BY ALTUS INTERVENTION WIRELINE UNIT ON 7/16" CABLE
CABLE HEAD BUILT BY ALTUS
LOG CORRELATED TO SHLUMBERGER 4.5" HSD OX POWER JET PULS DATED 09.APRIL.2014
CORRELATION LOG IS SHALLOWER BY 1.4M, DEPTH SHIFTED 1.4M DOWN AS PER
CLIENTS REQUEST.
4.655" HSC GUN 10 AND 350 DEGREE PHASING, 39 GR MILLENIUM, 4 SHOTS PER FOOT.
ATTEMPT WAS MADE TO RUN 4 GUNS IN ONE STRING BUT AT 3600M PICK UP WEIGHT 
WAS TOO HIGH TO CONTINUE.  CLIENT D4ECIDED TO SPLIT UP ONTO TWO RUNS.
RUN #1 CCL TO TOP SHOT 3.25 M, CCL STOP DEPT: 3729.75 M
PERFORATION INTERVAL 3733M - 3742.6M
RUN #2 CCL TO TOP SHOT 3.25 M, CCL STOP DEPT: 3711.75 M
PERFORATION INTERVAL 3715M - 3724.6M

~A  Depth       LSPD        LTEN       MINMK       HVOLTA       CCL     
# ...
  3662.4000      9.2690   6858.4414      0.0000      3.5156     -0.0858
  3662.3500      9.2690   6800.5762      0.0000      3.5263      0.1843
  3662.3000      9.2842   6800.5762      0.0000      3.5263      0.0684
  3662.2500      9.2842   6711.1328      0.0000      3.5164     -0.1593
  3662.2000      9.2842   6590.7588      0.0000      3.4653     -0.0293
  3662.1500      9.2842   6590.7588      0.0000      3.4653     -0.7910
  3662.1000      9.3208   6462.0649      0.0000      3.4950     -1.6858
  3662.0500      9.3208   6355.4121      0.0000      3.5255      2.5589
  3662.0000      9.3208   6355.4121      0.0000      3.5255     -0.9875
  3661.9500      9.3574   6283.8125      0.0000      3.4859      0.5649
  3661.9000      9.3574   6259.0903      0.0000      3.4859      0.2985
  3661.8500      9.3574   6259.0903      0.0000      3.4859      0.2310
  3661.8000      9.4458   6285.0864      0.0000      3.4752     -0.0223
  3661.7500      9.4458   6334.1406      0.0000      3.4851     -0.0043
  3661.7000      9.4458   6334.1406      0.0000      3.4851     -0.0134
  3661.6500      9.4092   6379.4307      0.0000      3.5362     -0.0092
  3661.6000      9.4092   6425.2603      0.0000      3.4248     -0.0052
  3661.5500      9.4092   6425.2603      0.0000      3.4248     -0.0031
  3661.5000      9.4092   6472.2832      0.0000      3.4958     -0.0079
  3661.4500      9.4092   6472.2832      0.0000      3.4958     -0.0098
  3661.4000      9.4092   6507.7354      0.0000      3.5156     -0.0119
  3661.3500      9.3756   6538.4468      0.0000      3.5561     -0.0098
  3661.3000      9.3756   6538.4468      0.0000      3.5561     -0.0122
  3661.2500      9.3756   6576.8198      0.0000      3.4958     -0.0046
  3661.2000      9.3025   6618.6387      0.0000      3.5263     -0.0046
  3661.1500      9.3025   6618.6387      0.0000      3.5263     -0.0043
  3661.1000      9.3025   6662.8154      0.0000      3.4859     -0.0165
  3661.0500      9.2842   6708.6411      0.0000      3.5255     -0.0076
  3661.0000      9.2842   6708.6411      0.0000      3.5255     -0.0076
  3660.9500      9.2842   6741.2007      0.0000      3.5255     -0.0131
  3660.9000      9.2842   6759.2808      0.0000      3.5057     -0.0696
  3660.8500      9.3025   6759.2808      0.0000      3.5057     -0.0027
  3660.8000      9.3025   6779.2183      0.0000      3.5164      0.0458
  3660.7500      9.3025   6794.6270      0.0000      3.4958     -0.0082
  3660.7000      9.2141   6794.6270      0.0000      3.4958     -0.0082
  3660.6500      9.2141   6786.9531      0.0000      3.4851      0.0168
  3660.6000      9.2141   6756.8301      0.0000      3.5156      0.0494
  3660.5500      9.2690   6756.8301      0.0000      3.5156     -0.1236
  3660.5000      9.2690   6704.7207      0.0000      3.4958     -0.4181
  3660.4500      9.2690   6630.6021      0.0000      3.5263      2.5821
  3660.4000      9.2842   6630.6021      0.0000      3.5263      3.9597
  3660.3500      9.2842   6561.7437      0.0000      3.4859      1.5268
  3660.3000      9.2842   6526.2583      0.0000      3.5156      0.5869
  3660.2500      9.3391   6526.2583      0.0000      3.5156     -0.4123
  3660.2000      9.3391   6518.2388      0.0000      3.4851     -0.0562
  3660.1500      9.3391   6527.1152      0.0000      3.4958      0.0739
  3660.1000      9.4092   6527.1152      0.0000      3.4958     -0.0259
  3660.0500      9.4092   6556.5679      0.0000      3.4859     -0.0717
  3660.0000      9.4092   6597.0586      0.0000      3.5057     -0.0555
  3659.9500      9.3574   6597.0586      0.0000      3.5057     -0.0705
  3659.9000      9.3574   6635.8267      0.0000      3.5156     -0.0656
  3659.8500      9.3574   6635.8267      0.0000      3.5156     -0.0403
  3659.8000      9.3756   6678.9180      0.0000      3.4752     -0.0378
  3659.7500      9.3756   6723.9141      0.0000      3.4859     -0.0397
  3659.7000      9.3756   6723.9141      0.0000      3.4859     -0.0174
  3659.6500      9.3756   6759.7876      0.0000      3.4859      0.0189
  3659.6000      9.2842   6796.5405      0.0000      3.5255      0.0122
  3659.5500      9.2842   6796.5405      0.0000      3.5255     -0.0214
  3659.5000      9.2842   6840.9697      0.0000      3.5461      0.0034
  3659.4500      9.2690   6876.0024      0.0000      3.5263     -0.0131
  3659.4000      9.2690   6876.0024      0.0000      3.5263     -0.0140
  3659.3500      9.2690   6895.8872      0.0000      3.4554     -0.0131
  3659.3000      9.2690   6905.2026      0.0000      3.4958     -0.0189
  3659.2500      9.2690   6905.2026      0.0000      3.4958      0.0311
  3659.2000      9.2690   6886.1362      0.0000      3.5561     -0.1422
  3659.1500      9.2507   6827.6011      0.0000      3.5156      0.3458
  3659.1000      9.2507   6827.6011      0.0000      3.5156      0.4114
  3659.0500      9.2507   6747.5244      0.0000      3.5263     -0.5734
  3659.0000      9.2842   6655.7354      0.0000      3.4653     -0.4871
  3658.9500      9.2842   6655.7354      0.0000      3.4653     -0.6760
  3658.9000      9.2842   6555.3525      0.0000      3.4958      0.0272
  3658.8500      9.3756   6464.8320      0.0000      3.5156     -1.3492
  3658.8000      9.3756   6464.8320      0.0000      3.5156     -0.4468
  3658.7500      9.3756   6390.5933      0.0000      3.4851      0.0494
  3658.7000      9.4092   6322.0942      0.0000      3.4958      0.1624
  3658.6500      9.4092   6322.0942      0.0000      3.4958     -0.0983
  3658.6000      9.4092   6269.8643      0.0000      3.5263      0.2496
  3658.5500      9.4823   6254.9834      0.0000      3.4958     -0.0900
  3658.5000      9.4823   6254.9834      0.0000      3.4958      0.0391
  3658.4500      9.4823   6274.6187      0.0000      3.4950      0.0443
  3658.4000      9.4823   6274.6187      0.0000      3.4950     -0.0406
  3658.3500      9.4823   6317.1128      0.0000      3.5255     -0.0037
  3658.3000      9.4823   6372.9253      0.0000      3.4958     -0.0119
  3658.2500      9.4823   6372.9253      0.0000      3.4958     -0.0211
  3658.2000      9.3574   6428.5527      0.0000      3.4958     -0.0180
  3658.1500      9.3574   6485.2134      0.0000      3.4554     -0.0122
  3658.1000      9.3574   6485.2134      0.0000      3.4554     -0.0104
  3658.0500      9.3939   6550.9072      0.0000      3.5355     -0.0177
  3658.0000      9.3939   6608.4463      0.0000      3.5156     -0.0171
  3657.9500      9.3939   6608.4463      0.0000      3.5156     -0.0092
  3657.9000      9.3025   6640.0283      0.0000      3.4958     -0.0031
  3657.8500      9.3025   6659.8052      0.0000      3.5263     -0.0143
  3657.8000      9.3025   6659.8052      0.0000      3.5263     -0.0357
  3657.7500      9.2842   6674.4736      0.0000      3.5057     -0.0079
  3657.7000      9.2842   6663.0527      0.0000      3.5156     -0.0327
  3657.6500      9.2842   6663.0527      0.0000      3.5156     -0.0360
  3657.6000      9.3025   6629.1484      0.0000      3.5057     -0.0397
  3657.5500      9.3025   6598.7441      0.0000      3.4454     -0.0620
  3657.5000      9.3025   6598.7441      0.0000      3.4454      0.1447
  3657.4500      9.3025   6566.9297      0.0000      3.4554      0.0339
  3657.4000      9.3025   6515.8101      0.0000      3.5156      0.5319
  3657.3500      9.3025   6515.8101      0.0000      3.5156     -0.1535
  3657.3000      9.3574   6454.2261      0.0000      3.4950     -1.2268
  3657.2500      9.3574   6403.2686      0.0000      3.5156      0.4944
  3657.2000      9.3574   6403.2686      0.0000      3.5156      0.5728
  3657.1500      9.3756   6376.6328      0.0000      3.4859      0.2100
  3657.1000      9.3756   6376.7212      0.0000      3.4958      0.1303
  3657.0500      9.3756   6376.7212      0.0000      3.4958     -0.0717
  3657.0000      9.3756   6387.1826      0.0000      3.5057      0.0305
  3656.9500      9.3756   6393.6553      0.0000      3.5156     -0.0125
  3656.9000      9.3756   6393.6553      0.0000      3.5156     -0.0159
  3656.8500      9.3756   6409.8979      0.0000      3.5057     -0.0034
