~Version Information
VERS.                      2.0: CWLS Log ASCII Standard - VERSION 2.0
WRAP.                       NO: One line per depth step
~Well Information Block
STRT.M               3779.4000: START DEPTH
STOP.M               3680.8000: STOP DEPTH
STEP.M                 -0.0500: STEP
NULL.                -999.2500: NULL VALUE
COMP.                  STATOIL: COMPANY
WELL.               15/9-F-1-C: WELL
FLD.                     VOLVE: FIELD
LOC.                          : LOCATION
SRVC.          Halliburton Logging Services: SERVICE COMPANY
DATE.          Thu Dec 04 05-18-20 2014: LOG DATE
UWI.                          : UNIQUE WELL ID
CTRY.                   NORWAY: COUNTRY
SECT.                         : SECTION
TOWN.                         : TOWNSHIP
RANG.                         : RANGE
API.                          : API#
OS.                   --NONE--: OTHER SERVICES
PDAT.FT                  M.S.L: PERMANENT DATUM
EEL.FT                   54.9M: ELEVATION
LMF.FT                   R.K.B: LOG MEASURED FROM
DMF.FT                   R.K.B: DRILLING MEASURED FROM
EKB.FT                   54.9M: KB
EDF.FT                   54.9M: DF
EGL.FT                    -91M: GL
DATE1.         03-DEC-14 @ 05:47: DATE1
RUN1.                    1 & 2: RUN NUMBER
TDD1.FT                  4094M: DEPTH DRILLER
TDL1.FT                  3782M: DEPTH LOGGER
BLI1.FT                  3772M: BOTTOM LOGGED INTERVAL
TLI1.FT                  3572M: TOP LOG INTERVAL
CDD1.IN_FT                    : CASING DRILLER
CDL1.FT                       : CASING LOGGER
BS1.IN                    8.5": BIT SIZE
DFT1.                SEA WATER: TYPE FLUID IN HOLE
DFDV1.GM/C3_CP          1.03SG: DENSITY/VISCOSITY
DFPL1.C3                      : PH/FLUID LOSS
MSS1.                         : SOURCE OF SAMPLE
RMT1.OHHM_DEGF                : RM@MEASURED TEMP
RMFT1.OHMM_DEGF                : RMF@MEASURED TEMP
RMCT1.OHMM_DEGF                : RMC@MEASURED TEMP
RMFS1.                        : SOURCE OF RMF/RMC
RMBT1.OHMM_DEGF                : RM@BHT
TCS1.                         : TIME CIRCULATION STOPPED
TLOB1.                36 HOURS: TIME LOGGER ON BOTTOM
BHT1.DEGF                 FULL: MAXIMUM RECORDED TEMPERATURE
LUN1.                 12030699: EQUIPMENT NUMBER
LUL1.                   NORWAY: LOCATION
ENGI1.              C.JAMIESON: RECORDED BY
WITN1.                A.ALBAWI: WITNESSED BY
~Curve Information Block
DEPT.M             0 000 00 00: Depth
LSPD.M/MIN                   0: Line Speed
LTEN.LB                      0: Surface Line Tension
MINMK.                       0: Minute Mark Ticks
HVOLTA.V                     0: Head Voltage Apparent
CCL.                         0: Casing Collar Locator
~Parameter Information Block
SRFTEMP.DEGC           10.0000: Surface Temperature
MudWgt.LB/GAL           8.5000: Mud Weight
CASETHCK.IN             0.4530: Casing Thickness
BITSIZE.IN              8.5000: Borehole I.D.
~Other Information
TOOL STRING DEPLOYED BY ALTUS INTERVENTION WIRELINE UNIT ON 7/16" CABLE
CABLE HEAD BUILT BY ALTUS
LOG CORRELATED TO SHLUMBERGER 4.5" HSD OX POWER JET PULS DATED 09.APRIL.2014
CORRELATION LOG IS SHALLOWER BY 1.4M, DEPTH SHIFTED 1.4M DOWN AS PER
CLIENTS REQUEST.
4.655" HSC GUN 10 AND 350 DEGREE PHASING, 39 GR MILLENIUM, 4 SHOTS PER FOOT.
ATTEMPT WAS MADE TO RUN 4 GUNS IN ONE STRING BUT AT 3600M PICK UP WEIGHT 
WAS TOO HIGH TO CONTINUE.  CLIENT D4ECIDED TO SPLIT UP ONTO TWO RUNS.
RUN #1 CCL TO TOP SHOT 3.25 M, CCL STOP DEPT: 3729.75 M
PERFORATION INTERVAL 3733M - 3742.6M
RUN #2 CCL TO TOP SHOT 3.25 M, CCL STOP DEPT: 3711.75 M
PERFORATION INTERVAL 3715M - 3724.6M

~A  Depth       LSPD        LTEN       MINMK       HVOLTA       CCL     
# ...
  3712.2000      1.5697   6721.6118      0.0000      3.5156     -0.0241
  3712.1500      1.5697   6637.9561      0.0000      3.4851     -0.0146
  3712.1000      1.5514   6615.2178      0.0000      3.4950     -0.0079
  3712.0500      1.5331   6615.2178      0.0000      3.4950     -0.0052
  3712.0000      1.5697   6626.4229      0.0000      3.4851     -0.0174
  3711.9500      1.5880   6635.1694      1.0000      3.4851     -0.0095
  3711.9000      0.0335   6635.1694      1.0000      3.4851     -0.0134
  3711.8500      0.0000   6630.6743      0.0000      3.4950     -0.0058
  3711.8000      0.5700   6605.5093      0.0000      3.4752     -0.0137
  3711.7500      1.3929   6605.5093      0.0000      3.4752     -0.0046
  3711.7000      0.4633   6574.7319      1.0000      3.4851      1.9924
  3711.6500      0.8382   6575.5474      1.0000      3.4851      1.9863
  3711.6000      1.4630   6575.5474      1.0000      3.4851      1.9905
  3711.5500      1.8562   6609.5728      1.0000      3.4645      1.9841
  3711.5000      1.8562   6650.0991      1.0000      3.5156      1.9939
  3711.4500      2.5176   6650.0991      1.0000      3.5156      1.9927
  3711.4000      3.2857   6691.0918      0.0000      3.4851      1.9942
  3711.3500      3.2857   6728.6260      0.0000      3.4851      1.9725
  3711.3000      4.1940   6728.6260      0.0000      3.4851      1.9008
  3711.2500      4.1940   6740.1152      0.0000      3.4851      1.9579
  3711.2000      4.7854   6717.7729      0.0000      3.4851      1.9698
  3711.1500      4.7854   6717.7729      0.0000      3.4851      1.7595
  3711.1000      5.0719   6673.6055      0.0000      3.5156      2.1697
  3711.0500      5.3553   6620.5103      0.0000      3.5156      1.9921
  3711.0000      5.3553   6620.5103      0.0000      3.5156      1.9649
  3710.9500      5.4803   6582.1255      0.0000      3.4546      1.9811
  3710.9000      5.4803   6576.3135      0.0000      3.4752      1.9945
  3710.8500      5.4986   6576.3135      0.0000      3.4752      1.9832
  3710.8000      5.4986   6588.3506      0.0000      3.4645      1.9936
  3710.7500      5.6053   6588.3506      0.0000      3.4645      1.9969
  3710.7000      5.6053   6604.0552      0.0000      3.4752      1.9951
  3710.6500      5.5870   6631.2100      0.0000      3.4851      1.9924
  3710.6000      5.5870   6631.2100      0.0000      3.4851      1.9811
  3710.5500      5.5535   6665.2168      0.0000      3.4851      1.9915
  3710.5000      5.5535   6689.9917      0.0000      3.4950      1.9869
  3710.4500      5.5717   6689.9917      0.0000      3.4950      1.9860
  3710.4000      5.5717   6712.0747      0.0000      3.4950      1.9954
  3710.3500      5.5352   6741.7783      0.0000      3.4950      1.9869
  3710.3000      5.5169   6741.7783      0.0000      3.4950      1.9875
  3710.2500      5.5169   6768.3091      0.0000      3.4142      1.9838
  3710.2000      5.5717   6780.9121      0.0000      3.4447      1.9857
  3710.1500      5.5717   6780.9121      0.0000      3.4447      2.0052
  3710.1000      5.5535   6770.2334      0.0000      3.4950      1.9152
  3710.0500      5.5535   6721.1572      0.0000      3.4851      1.9899
  3710.0000      5.5535   6721.1572      0.0000      3.4851      1.9350
  3709.9500      5.5535   6646.3330      0.0000      3.4950      2.0040
  3709.9000      5.5717   6587.9014      0.0000      3.4950      1.9777
  3709.8500      5.5535   6587.9014      0.0000      3.4950      1.9939
  3709.8000      5.5535   6567.1201      0.0000      3.5255      1.9872
  3709.7500      5.5870   6577.0703      0.0000      3.4752      1.9939
  3709.7000      5.5870   6577.0703      0.0000      3.4752      1.9918
  3709.6500      5.5535   6610.3677      0.0000      3.4851      1.9930
  3709.6000      5.5535   6653.1650      0.0000      3.5156      1.9869
  3709.5500      5.5717   6653.1650      0.0000      3.5156      1.9872
  3709.5000      5.5717   6688.7095      0.0000      3.4851      1.9826
  3709.4500      5.5717   6720.7334      0.0000      3.4950      1.9890
  3709.4000      5.5717   6720.7334      0.0000      3.4950      1.9918
  3709.3500      5.5169   6757.1304      0.0000      3.4851      1.9902
  3709.3000      5.5169   6792.4624      0.0000      3.4851      1.9857
  3709.2500      5.5352   6792.4624      0.0000      3.4851      1.9933
  3709.2000      5.5352   6825.9834      0.0000      3.4851      1.9945
  3709.1500      5.5352   6825.9834      0.0000      3.4851      1.9869
  3709.1000      5.4803   6855.8325      0.0000      3.4851      1.9908
  3709.0500      5.4803   6860.3867      0.0000      3.4851      1.9942
  3709.0000      5.5169   6860.3867      0.0000      3.4851      1.9963
  3708.9500      5.5169   6827.5576      0.0000      3.4645      1.9927
  3708.9000      5.5535   6769.9292      0.0000      3.4851      1.9774
  3708.8500      5.5535   6769.9292      0.0000      3.4851      1.9609
  3708.8000      5.5352   6691.7739      0.0000      3.4546      2.0223
  3708.7500      5.5352   6600.9224      0.0000      3.4851      1.8346
  3708.7000      5.6236   6600.9224      0.0000      3.4851      2.0488
  3708.6500      5.6236   6534.9351      0.0000      3.4546      1.9905
  3708.6000      5.6236   6515.7949      0.0000      3.4851      1.9884
  3708.5500      5.6053   6515.7949      0.0000      3.4851      1.9878
  3708.5000      5.6053   6526.0391      0.0000      3.4546      1.9921
  3708.4500      5.6053   6550.9863      0.0000      3.4950      1.9951
  3708.4000      5.6053   6550.9863      0.0000      3.4950      1.9985
  3708.3500      5.5717   6585.3101      0.0000      3.4950      1.9927
  3708.3000      5.5717   6613.6523      0.0000      3.4950      1.9841
  3708.2500      5.5717   6613.6523      0.0000      3.4950      1.9881
  3708.2000      5.5717   6632.6177      0.0000      3.4546      1.9850
  3708.1500      5.5535   6652.9712      0.0000      3.4950      1.9924
  3708.1000      5.5535   6652.9712      0.0000      3.4950      1.9863
  3708.0500      5.5169   6663.6938      0.0000      3.5255      1.9921
  3708.0000      5.5169   6646.5801      0.0000      3.4546      1.9908
  3707.9500      5.5169   6646.5801      0.0000      3.4546      1.9835
  3707.9000      5.5169   6606.9136      0.0000      3.5156      1.9838
  3707.8500      5.4986   6555.8784      0.0000      3.5355      1.9988
  3707.8000      5.5169   6555.8784      0.0000      3.5355      1.9878
  3707.7500      5.5169   6503.8848      0.0000      3.4950      1.9506
  3707.7000      5.6053   6471.8013      0.0000      3.4546      1.9872
  3707.6500      5.6053   6471.8013      0.0000      3.4546      1.9884
  3707.6000      5.6053   6470.4385      0.0000      3.4447      1.9875
  3707.5500      5.6053   6470.4385      0.0000      3.4447      1.9860
  3707.5000      5.6053   6486.8330      0.0000      3.4851      1.9887
  3707.4500      5.6053   6512.7446      0.0000      3.5355      1.9905
  3707.4000      5.6236   6512.7446      0.0000      3.5355      1.9878
  3707.3500      5.5717   6548.7100      0.0000      3.5255      1.9896
  3707.3000      5.5717   6579.5400      0.0000      3.4447      1.9924
  3707.2500      5.5717   6579.5400      0.0000      3.4447      1.9915
  3707.2000      5.5717   6591.8560      0.0000      3.4950      1.9890
  3707.1500      5.5870   6589.5864      0.0000      3.4546      1.9905
  3707.1000      5.5870   6589.5864      0.0000      3.4546      1.9866
  3707.0500      5.5870   6575.9780      0.0000      3.4851      1.9847
  3707.0000      5.5870   6562.1343      0.0000      3.4851      1.9866
  3706.9500      5.5870   6562.1343      0.0000      3.4851      1.9893
  3706.9000      5.5870   6570.0068      0.0000      3.4851      1.9936
  3706.8500      5.5535   6598.1069      0.0000      3.4546      1.9954
  3706.8000      5.5535   6598.1069      0.0000      3.4546      1.9902
  3706.7500      5.5717   6626.6738      0.0000      3.4851      1.9927
  3706.7000      5.5717   6658.7979      0.0000      3.5156      1.9890
  3706.6500      5.5535   6658.7979      0.0000      3.5156      1.9860
