~Version Information
VERS.                      2.0: CWLS Log ASCII Standard - VERSION 2.0
WRAP.                       NO: One line per depth step
~Well Information Block
STRT.M               3135.0500: START DEPTH
STOP.M               3039.9000: STOP DEPTH
STEP.M                 -0.0500: STEP
NULL.                -999.2500: NULL VALUE
COMP.                  Statoil: COMPANY
WELL.                15/9-F-12: WELL
FLD.                     Volve: FIELD
LOC.                          : LOCATION
SRVC.          Halliburton Logging Services: SERVICE COMPANY
DATE.          Wed Nov 26 21-01-09 2014: LOG DATE
UWI.                          : UNIQUE WELL ID
SECT.                         : SECTION
TOWN.                         : TOWNSHIP
RANG.                         : RANGE
API.                          : API#
OS.                           : OTHER SERVICES
PDAT.FT                       : PERMANENT DATUM
EEL.FT                        : ELEVATION
LMF.FT                        : LOG MEASURED FROM
DMF.FT                        : DRILLING MEASURED FROM
EKB.FT                        : KB
EDF.FT                        : DF
EGL.FT                        : GL
DATE1.                        : DATE1
RUN1.                         : RUN NUMBER
TDD1.FT                       : DEPTH DRILLER
TDL1.FT                       : DEPTH LOGGER
BLI1.FT                       : BOTTOM LOGGED INTERVAL
TLI1.FT                       : TOP LOG INTERVAL
CDD1.IN_FT                    : CASING DRILLER
CDL1.FT                       : CASING LOGGER
BS1.IN                        : BIT SIZE
DFT1.                         : TYPE FLUID IN HOLE
DFDV1.GM/C3_CP                : DENSITY/VISCOSITY
DFPL1.C3                      : PH/FLUID LOSS
MSS1.                         : SOURCE OF SAMPLE
RMT1.OHHM_DEGF                : RM@MEASURED TEMP
RMFT1.OHMM_DEGF                : RMF@MEASURED TEMP
RMCT1.OHMM_DEGF                : RMC@MEASURED TEMP
RMFS1.                        : SOURCE OF RMF/RMC
RMBT1.OHMM_DEGF                : RM@BHT
TCS1.                         : TIME CIRCULATION STOPPED
TLOB1.                        : TIME LOGGER ON BOTTOM
BHT1.DEGF                     : MAXIMUM RECORDED TEMPERATURE
LUN1.                         : EQUIPMENT NUMBER
LUL1.                         : LOCATION
ENGI1.                        : RECORDED BY
WITN1.                        : WITNESSED BY
~Curve Information Block
DEPT.M             0 000 00 00: Depth
LSPD.M/MIN                   0: Line Speed
LTEN.LB                      0: Surface Line Tension
MINMK.                       0: Minute Mark Ticks
HVOLTA.V                     0: Head Voltage Apparent
CCL.                         0: Casing Collar Locator
~Parameter Information Block
SRFTEMP.DEGC           10.0000: Surface Temperature
MudWgt.LB/GAL           8.5000: Mud Weight
CASETHCK.IN             6.1840: Casing Thickness
BITSIZE.IN              8.5000: Borehole I.D.
~A  Depth       LSPD        LTEN       MINMK       HVOLTA       CCL     
# ...
  3073.4500      9.4275   4319.4673      0.0000      3.5774     -2.0110
  3073.4000      9.4275   4296.6758      0.0000      3.5469     -2.0055
  3073.3500      9.3208   4296.6758      0.0000      3.5469     -2.0244
  3073.3000      9.3208   4271.5767      0.0000      3.5774     -2.0079
  3073.2500      9.3208   4254.9004      0.0000      3.5469     -2.0006
  3073.2000      9.4092   4254.9004      0.0000      3.5469     -2.0131
  3073.1500      9.4092   4252.4502      0.0000      3.5469     -2.0113
  3073.1000      9.4092   4254.7822      0.0000      3.5675     -2.0146
  3073.0500      9.3756   4254.7822      0.0000      3.5675     -2.0079
  3073.0000      9.3756   4259.2324      0.0000      3.5774     -1.9988
  3072.9500      9.3756   4270.6733      0.0000      3.5675     -2.0186
  3072.9000      9.3208   4270.6733      0.0000      3.5675     -2.0208
  3072.8500      9.3208   4282.7852      0.0000      3.5675     -2.0024
  3072.8000      9.3208   4288.5483      0.0000      3.5873     -2.0195
  3072.7500      9.3756   4288.5483      0.0000      3.5873     -2.0021
  3072.7000      9.3756   4291.2495      0.0000      3.5370     -2.0122
  3072.6500      9.3756   4287.5244      0.0000      3.5370     -2.0143
  3072.6000      9.2690   4287.5244      0.0000      3.5370     -2.0143
  3072.5500      9.2690   4267.8623      0.0000      3.5774     -2.0204
  3072.5000      9.2690   4267.8623      0.0000      3.5774     -2.0064
  3072.4500      9.2842   4235.8657      0.0000      3.5774     -2.0204
  3072.4000      9.2842   4205.0171      0.0000      3.5675     -2.0204
  3072.3500      9.2842   4205.0171      0.0000      3.5675     -2.0180
  3072.3000      9.3574   4186.6895      0.0000      3.5675     -1.9997
  3072.2500      9.3574   4189.5854      0.0000      3.5675     -2.0064
  3072.2000      9.3574   4189.5854      0.0000      3.5675     -1.9942
  3072.1500      9.3574   4213.0439      0.0000      3.5675     -2.0143
  3072.1000      9.3391   4241.2524      0.0000      3.5469     -2.0229
  3072.0500      9.3391   4241.2524      0.0000      3.5469     -2.0000
  3072.0000      9.3391   4260.5186      0.0000      3.5774     -2.0146
  3071.9500      9.4275   4269.5361      0.0000      3.5774     -2.0018
  3071.9000      9.4275   4269.5361      0.0000      3.5774     -2.0116
  3071.8500      9.4275   4267.2290      0.0000      3.5774     -2.0079
  3071.8000      9.3939   4255.8306      0.0000      3.5675     -2.0134
  3071.7500      9.3939   4255.8306      0.0000      3.5675     -2.0137
  3071.7000      9.3939   4247.5215      0.0000      3.5370     -2.0168
  3071.6500      9.3756   4247.4614      0.0000      3.5675     -2.0171
  3071.6000      9.3756   4247.4614      0.0000      3.5675     -1.9927
  3071.5500      9.3756   4250.4287      0.0000      3.5774     -2.0085
  3071.5000      9.3574   4257.6475      0.0000      3.5774     -1.9890
  3071.4500      9.3574   4257.6475      0.0000      3.5774     -2.0156
  3071.4000      9.3574   4269.7720      0.0000      3.5774     -2.0089
  3071.3500      9.2842   4276.1055      0.0000      3.5675     -2.0085
  3071.3000      9.2842   4276.1055      0.0000      3.5675     -2.0085
  3071.2500      9.2842   4274.7622      0.0000      3.5774     -2.0125
  3071.2000      9.3574   4272.9937      0.0000      3.5774     -2.0128
  3071.1500      9.3574   4272.9937      0.0000      3.5774     -2.0037
  3071.1000      9.3574   4263.9087      0.0000      3.5774     -2.0082
  3071.0500      9.3025   4244.9434      0.0000      3.5469     -2.0085
  3071.0000      9.3025   4244.9434      0.0000      3.5469     -2.0192
  3070.9500      9.3025   4231.9277      0.0000      3.5675     -2.0174
  3070.9000      9.3025   4231.9277      0.0000      3.5675     -2.0128
  3070.8500      9.3025   4226.9761      0.0000      3.5675     -2.0232
  3070.8000      9.3025   4219.9878      0.0000      3.5469     -2.0098
  3070.7500      9.3025   4219.9878      0.0000      3.5469     -1.9985
  3070.7000      9.3939   4215.7295      0.0000      3.5469     -2.0165
  3070.6500      9.3939   4216.7915      0.0000      3.5469     -2.0052
  3070.6000      9.3939   4216.7915      0.0000      3.5469     -2.0116
  3070.5500      9.3391   4214.7471      0.0000      3.5774     -2.0107
  3070.5000      9.3391   4215.1943      0.0000      3.5469     -2.0211
  3070.4500      9.3391   4215.1943      0.0000      3.5469     -2.0049
  3070.4000      9.3939   4224.5439      0.0000      3.5675     -2.0134
  3070.3500      9.3939   4230.8613      0.0000      3.5568     -2.0040
  3070.3000      9.3939   4230.8613      0.0000      3.5568     -2.0137
  3070.2500      9.3939   4232.0669      0.0000      3.5774     -2.0012
  3070.2000      9.3939   4236.0454      0.0000      3.5980     -2.0101
  3070.1500      9.3939   4236.0454      0.0000      3.5980     -1.9982
  3070.1000      9.3391   4235.1182      0.0000      3.5469     -2.0116
  3070.0500      9.3391   4225.9092      0.0000      3.5675     -2.0027
  3070.0000      9.3391   4225.9092      0.0000      3.5675     -2.0208
  3069.9500      9.3574   4219.2729      0.0000      3.5675     -2.0031
  3069.9000      9.3574   4215.7061      0.0000      3.5675     -1.9957
  3069.8500      9.3574   4215.7061      0.0000      3.5675     -2.0122
  3069.8000      9.3574   4212.0254      0.0000      3.5980     -2.0381
  3069.7500      9.3574   4214.7036      0.0000      3.5675     -2.0092
  3069.7000      9.3574   4214.7036      0.0000      3.5675     -2.0131
  3069.6500      9.2690   4223.0444      0.0000      3.5675     -2.0165
  3069.6000      9.2690   4231.6187      0.0000      3.5675     -2.0082
  3069.5500      9.2690   4231.6187      0.0000      3.5675     -2.0024
  3069.5000      9.2690   4244.6821      0.0000      3.5675     -2.0116
  3069.4500      9.3574   4259.3311      0.0000      3.5675     -2.0162
  3069.4000      9.3574   4259.3311      0.0000      3.5675     -2.0015
  3069.3500      9.3574   4262.3491      0.0000      3.5469     -2.0006
  3069.3000      9.3391   4262.3491      0.0000      3.5469     -2.0082
  3069.2500      9.3391   4256.4136      0.0000      3.5675     -2.0137
  3069.2000      9.3391   4255.3223      0.0000      3.5675     -1.9985
  3069.1500      9.3025   4255.3223      0.0000      3.5675     -2.0217
  3069.1000      9.3025   4258.9756      1.0000      3.5774     -1.9973
  3069.0500      9.3025   4258.6865      0.0000      3.5774     -2.0125
  3069.0000      9.4092   4258.6865      0.0000      3.5774     -1.9988
  3068.9500      9.4092   4250.9336      0.0000      3.5774     -2.0211
  3068.9000      9.4092   4233.3843      0.0000      3.5774     -2.0076
  3068.8500      9.3208   4233.3843      0.0000      3.5774     -2.0195
  3068.8000      9.3208   4208.0601      0.0000      3.5675     -2.0009
  3068.7500      9.3208   4187.6001      0.0000      3.5469     -1.9438
  3068.7000      9.3574   4187.6001      0.0000      3.5469     -2.0323
  3068.6500      9.3574   4179.0356      0.0000      3.5774     -1.9915
  3068.6000      9.3574   4174.2891      0.0000      3.5469     -1.9551
  3068.5500      9.3574   4174.2891      0.0000      3.5469     -2.0070
  3068.5000      9.3574   4169.3706      0.0000      3.5469     -2.0061
  3068.4500      9.3574   4172.1484      0.0000      3.5675     -2.0061
  3068.4000      9.3208   4172.1484      0.0000      3.5675     -2.0180
  3068.3500      9.3208   4185.4512      0.0000      3.5774     -2.0177
  3068.3000      9.3208   4204.6738      0.0000      3.5774     -2.0079
  3068.2500      9.3391   4204.6738      0.0000      3.5774     -2.0000
  3068.2000      9.3391   4226.0264      0.0000      3.5873     -2.0125
  3068.1500      9.3391   4237.8276      0.0000      3.5469     -2.0012
  3068.1000      9.3208   4237.8276      0.0000      3.5469     -2.0140
  3068.0500      9.3208   4229.6392      0.0000      3.5774     -2.0052
  3068.0000      9.3208   4213.4600      0.0000      3.5774     -2.0211
  3067.9500      9.3208   4213.4600      0.0000      3.5774     -2.0110
  3067.9000      9.3025   4200.1118      0.0000      3.5774     -1.9994
