~Version Information
VERS.                      2.0: CWLS Log ASCII Standard - VERSION 2.0
WRAP.                       NO: One line per depth step
~Well Information Block
STRT.M               3169.9500: START DEPTH
STOP.M               3076.7000: STOP DEPTH
STEP.M                 -0.0500: STEP
NULL.                -999.2500: NULL VALUE
COMP.                  Statoil: COMPANY
WELL.                15/9-F-12: WELL
FLD.                     Volve: FIELD
LOC.                          : LOCATION
SRVC.          Halliburton Logging Services: SERVICE COMPANY
DATE.          Wed Nov 26 07-57-02 2014: LOG DATE
UWI.                          : UNIQUE WELL ID
SECT.                         : SECTION
TOWN.                         : TOWNSHIP
RANG.                         : RANGE
API.                          : API#
OS.                           : OTHER SERVICES
PDAT.FT                       : PERMANENT DATUM
EEL.FT                        : ELEVATION
LMF.FT                        : LOG MEASURED FROM
DMF.FT                        : DRILLING MEASURED FROM
EKB.FT                        : KB
EDF.FT                        : DF
EGL.FT                        : GL
DATE1.                        : DATE1
RUN1.                         : RUN NUMBER
TDD1.FT                       : DEPTH DRILLER
TDL1.FT                       : DEPTH LOGGER
BLI1.FT                       : BOTTOM LOGGED INTERVAL
TLI1.FT                       : TOP LOG INTERVAL
CDD1.IN_FT                    : CASING DRILLER
CDL1.FT                       : CASING LOGGER
BS1.IN                        : BIT SIZE
DFT1.                         : TYPE FLUID IN HOLE
DFDV1.GM/C3_CP                : DENSITY/VISCOSITY
DFPL1.C3                      : PH/FLUID LOSS
MSS1.                         : SOURCE OF SAMPLE
RMT1.OHHM_DEGF                : RM@MEASURED TEMP
RMFT1.OHMM_DEGF                : RMF@MEASURED TEMP
RMCT1.OHMM_DEGF                : RMC@MEASURED TEMP
RMFS1.                        : SOURCE OF RMF/RMC
RMBT1.OHMM_DEGF                : RM@BHT
TCS1.                         : TIME CIRCULATION STOPPED
TLOB1.                        : TIME LOGGER ON BOTTOM
BHT1.DEGF                     : MAXIMUM RECORDED TEMPERATURE
LUN1.                         : EQUIPMENT NUMBER
LUL1.                         : LOCATION
ENGI1.                        : RECORDED BY
WITN1.                        : WITNESSED BY
~Curve Information Block
DEPT.M             0 000 00 00: Depth
LSPD.M/MIN                   0: Line Speed
LTEN.LB                      0: Surface Line Tension
MINMK.                       0: Minute Mark Ticks
GR.GAPI                      0: Gamma Ray
CCL.                         0: Casing Collar Locator
ACCX.                        0: X Axis Accelerometer
ACCY.                        0: Y Axis Accelerometer
ACCZ.                        0: Z Axis Accelerometer
RB.DEG                       0: Relative Bearing
DEVI.DEG                     0: Deviation
TOTG.GEE                     0: Total G
RBRef.DEG                    0: RB Reference
IntTemp.DEGF                 0: Internal Electronics Temperature
~Parameter Information Block
~A  Depth       LSPD        LTEN       MINMK         GR         CCL         ACCX        ACCY        ACCZ         RB         DEVI        TOTG       RBRef      IntTemp   
# ...
  3081.1500      9.4458   4121.8223      0.0000     25.5014    522.0000   2533.3999   1492.5000   2069.5000     30.5036      0.0250   3595.6226    -30.5036    226.3248
  3081.1000      9.4458   4088.0081      0.0000     30.0753    535.0000   2538.8000   1508.0000   2070.8000     30.7095      0.0250   3606.6304    -30.7095    226.3339
  3081.0500      9.4823   4087.0044      0.0000     33.3335    536.0000   2569.1001   1509.2000   2035.2000     30.4318      0.0249   3608.3235    -30.4318    226.3339
  3081.0000      9.4823   4124.8818      0.0000     34.3360    521.0000   2554.2000   1531.0000   2064.5000     30.9387      0.0248   3623.5422    -30.9387    226.3269
  3080.9500      9.4823   4138.1436      0.0000     33.6468    531.0000   2560.8999   1525.7000   2103.0000     30.7851      0.0247   3648.0923    -30.7851    226.3191
  3080.9000      9.4640   4131.9966      0.0000     31.7044    516.0000   2564.5000   1524.8000   2110.1001     30.7349      0.0246   3654.3396    -30.7349    226.3086
  3080.8500      9.4640   4100.7520      0.0000     29.1981    528.0000   2564.8000   1495.7000   2097.0000     30.2492      0.0248   3634.9314    -30.2492    226.2896
  3080.8000      9.4640   4071.1709      0.0000     24.8748    515.0000   2584.0000   1469.6000   2094.8000     29.6282      0.0247   3636.6147    -29.6282    226.2601
  3080.7500      9.4275   4090.0320      0.0000     22.0552    530.0000   2577.6001   1464.9000   2127.3999     29.6104      0.0247   3649.0801    -29.6104    226.2432
  3080.7000      9.4275   4124.7524      0.0000     20.4888    538.0000   -999.2500   -999.2500   -999.2500   -999.2500   -999.2500   -999.2500   -999.2500   -999.2500
  3080.6500      9.4275   4130.7358      0.0000     18.2332    522.0000   -999.2500   -999.2500   -999.2500   -999.2500   -999.2500   -999.2500   -999.2500   -999.2500
  3080.6000      9.4092   4108.7051      0.0000     16.6041    536.0000   -999.2500   -999.2500   -999.2500   -999.2500   -999.2500   -999.2500   -999.2500   -999.2500
  3080.5500      9.4092   4111.2651      0.0000     15.7896    529.0000   -999.2500   -999.2500   -999.2500   -999.2500   -999.2500   -999.2500   -999.2500   -999.2500
  3080.5000      9.4092   4148.4565      0.0000     16.4161    529.0000   -999.2500   -999.2500   -999.2500   -999.2500   -999.2500   -999.2500   -999.2500   -999.2500
  3080.4500      9.4092   4176.5903      0.0000     17.7946    528.0000   -999.2500   -999.2500   -999.2500   -999.2500   -999.2500   -999.2500   -999.2500   -999.2500
  3080.4000      9.4092   4148.8403      0.0000     19.0477    531.0000   -999.2500   -999.2500   -999.2500   -999.2500   -999.2500   -999.2500   -999.2500   -999.2500
  3080.3500      9.4092   4111.7598      0.0000     20.8648    527.0000   -999.2500   -999.2500   -999.2500   -999.2500   -999.2500   -999.2500   -999.2500   -999.2500
  3080.3000      9.3939   4107.6172      0.0000     21.6166    526.0000   -999.2500   -999.2500   -999.2500   -999.2500   -999.2500   -999.2500   -999.2500   -999.2500
  3080.2500      9.3939   4136.5703      0.0000     21.7420    536.0000   -999.2500   -999.2500   -999.2500   -999.2500   -999.2500   -999.2500   -999.2500   -999.2500
  3080.2000      9.3939   4166.6074      0.0000     21.2407    519.0000   -999.2500   -999.2500   -999.2500   -999.2500   -999.2500   -999.2500   -999.2500   -999.2500
  3080.1500      9.3939   4171.3887      0.0000     21.3034    533.0000   -999.2500   -999.2500   -999.2500   -999.2500   -999.2500   -999.2500   -999.2500   -999.2500
  3080.1000      9.3756   4136.7573      0.0000     21.5540    529.0000   -999.2500   -999.2500   -999.2500   -999.2500   -999.2500   -999.2500   -999.2500   -999.2500
  3080.0500      9.3756   4116.0352      0.0000     22.5565    527.0000   -999.2500   -999.2500   -999.2500   -999.2500   -999.2500   -999.2500   -999.2500   -999.2500
  3080.0000      9.3756   4127.9209      0.0000     22.7445    531.0000   -999.2500   -999.2500   -999.2500   -999.2500   -999.2500   -999.2500   -999.2500   -999.2500
  3079.9500      9.3574   4157.2979      0.0000     24.0603    525.0000   -999.2500   -999.2500   -999.2500   -999.2500   -999.2500   -999.2500   -999.2500   -999.2500
  3079.9000      9.3574   4142.4873      0.0000     24.3736    533.0000   -999.2500   -999.2500   -999.2500   -999.2500   -999.2500   -999.2500   -999.2500   -999.2500
  3079.8500      9.3574   4108.7339      0.0000     23.8096    517.0000   -999.2500   -999.2500   -999.2500   -999.2500   -999.2500   -999.2500   -999.2500   -999.2500
  3079.8000      9.3756   4107.6118      0.0000     22.4938    522.0000   -999.2500   -999.2500   -999.2500   -999.2500   -999.2500   -999.2500   -999.2500   -999.2500
  3079.7500      9.3756   4178.2808      0.0000     20.8648    534.0000   -999.2500   -999.2500   -999.2500   -999.2500   -999.2500   -999.2500   -999.2500   -999.2500
  3079.7000      9.3756   4213.8203      0.0000     20.1129    527.0000   -999.2500   -999.2500   -999.2500   -999.2500   -999.2500   -999.2500   -999.2500   -999.2500
  3079.6500      9.4092   4227.9702      0.0000     18.7344    528.0000   -999.2500   -999.2500   -999.2500   -999.2500   -999.2500   -999.2500   -999.2500   -999.2500
  3079.6000      9.4092   4199.7969      0.0000     17.4186    526.0000   -999.2500   -999.2500   -999.2500   -999.2500   -999.2500   -999.2500   -999.2500   -999.2500
  3079.5500      9.4092   4198.6084      0.0000     17.4186    538.0000   -999.2500   -999.2500   -999.2500   -999.2500   -999.2500   -999.2500   -999.2500   -999.2500
  3079.5000      9.4275   4223.7070      0.0000     17.1680    512.0000   -999.2500   -999.2500   -999.2500   -999.2500   -999.2500   -999.2500   -999.2500   -999.2500
  3079.4500      9.4275   4242.2139      0.0000     16.3535    538.0000   -999.2500   -999.2500   -999.2500   -999.2500   -999.2500   -999.2500   -999.2500   -999.2500
  3079.4000      9.4275   4218.1753      0.0000     15.6642    526.0000   -999.2500   -999.2500   -999.2500   -999.2500   -999.2500   -999.2500   -999.2500   -999.2500
  3079.3500      9.4458   4192.3540      0.0000     15.2883    524.0000   -999.2500   -999.2500   -999.2500   -999.2500   -999.2500   -999.2500   -999.2500   -999.2500
  3079.3000      9.4458   4199.2500      0.0000     14.7244    518.0000   -999.2500   -999.2500   -999.2500   -999.2500   -999.2500   -999.2500   -999.2500   -999.2500
  3079.2500      9.4458   4240.3730      0.0000     14.6617    534.0000   -999.2500   -999.2500   -999.2500   -999.2500   -999.2500   -999.2500   -999.2500   -999.2500
  3079.2000      9.4092   4280.2803      0.0000     14.8497    532.0000   -999.2500   -999.2500   -999.2500   -999.2500   -999.2500   -999.2500   -999.2500   -999.2500
  3079.1500      9.4092   4269.3120      0.0000     14.6617    533.0000   -999.2500   -999.2500   -999.2500   -999.2500   -999.2500   -999.2500   -999.2500   -999.2500
  3079.1000      9.4092   4241.1860      0.0000     14.4111    528.0000   -999.2500   -999.2500   -999.2500   -999.2500   -999.2500   -999.2500   -999.2500   -999.2500
  3079.0500      9.4092   4210.2358      0.0000     14.5991    540.0000   -999.2500   -999.2500   -999.2500   -999.2500   -999.2500   -999.2500   -999.2500   -999.2500
  3079.0000      9.4092   4217.6060      0.0000     15.9775    517.0000   -999.2500   -999.2500   -999.2500   -999.2500   -999.2500   -999.2500   -999.2500   -999.2500
  3078.9500      9.4092   4196.8530      0.0000     18.5465    521.0000   -999.2500   -999.2500   -999.2500   -999.2500   -999.2500   -999.2500   -999.2500   -999.2500
  3078.9000      9.4092   4129.2905      0.0000     21.4913    513.0000   -999.2500   -999.2500   -999.2500   -999.2500   -999.2500   -999.2500   -999.2500   -999.2500
  3078.8500      9.4092   4050.2678      0.0000     25.2508    524.0000   -999.2500   -999.2500   -999.2500   -999.2500   -999.2500   -999.2500   -999.2500   -999.2500
  3078.8000      9.4092   4055.1213      0.0000     27.2558    520.0000   -999.2500   -999.2500   -999.2500   -999.2500   -999.2500   -999.2500   -999.2500   -999.2500
