~Version Information
VERS.                      2.0: CWLS Log ASCII Standard - VERSION 2.0
WRAP.                       NO: One line per depth step
~Well Information Block
STRT.M               3779.9000: START DEPTH
STOP.M               3659.5000: STOP DEPTH
STEP.M                 -0.0500: STEP
NULL.                -999.2500: NULL VALUE
COMP.                  STATOIL: COMPANY
WELL.               15/9-F-1-C: WELL
FLD.                     VOLVE: FIELD
LOC.                          : LOCATION
SRVC.          Halliburton Logging Services: SERVICE COMPANY
DATE.          Wed Dec 03 07-18-31 2014: LOG DATE
UWI.                          : UNIQUE WELL ID
CTRY.                   NORWAY: COUNTRY
SECT.                         : SECTION
TOWN.                         : TOWNSHIP
RANG.                         : RANGE
API.                          : API#
OS.                   --NONE--: OTHER SERVICES
PDAT.FT                  M.S.L: PERMANENT DATUM
EEL.FT                   54.9M: ELEVATION
LMF.FT                   R.K.B: LOG MEASURED FROM
DMF.FT                   R.K.B: DRILLING MEASURED FROM
EKB.FT                   54.9M: KB
EDF.FT                   54.9M: DF
EGL.FT                    -91M: GL
DATE1.         03-DEC-14 @ 05:47: DATE1
RUN1.                    1 & 2: RUN NUMBER
TDD1.FT                  4094M: DEPTH DRILLER
TDL1.FT                  3782M: DEPTH LOGGER
BLI1.FT                  3772M: BOTTOM LOGGED INTERVAL
TLI1.FT                  3572M: TOP LOG INTERVAL
CDD1.IN_FT                    : CASING DRILLER
CDL1.FT                       : CASING LOGGER
BS1.IN                    8.5": BIT SIZE
DFT1.                SEA WATER: TYPE FLUID IN HOLE
DFDV1.GM/C3_CP          1.03SG: DENSITY/VISCOSITY
DFPL1.C3                      : PH/FLUID LOSS
MSS1.                         : SOURCE OF SAMPLE
RMT1.OHHM_DEGF                : RM@MEASURED TEMP
RMFT1.OHMM_DEGF                : RMF@MEASURED TEMP
RMCT1.OHMM_DEGF                : RMC@MEASURED TEMP
RMFS1.                        : SOURCE OF RMF/RMC
RMBT1.OHMM_DEGF                : RM@BHT
TCS1.                         : TIME CIRCULATION STOPPED
TLOB1.                36 HOURS: TIME LOGGER ON BOTTOM
BHT1.DEGF                 FULL: MAXIMUM RECORDED TEMPERATURE
LUN1.                 12030699: EQUIPMENT NUMBER
LUL1.                   NORWAY: LOCATION
ENGI1.              C.JAMIESON: RECORDED BY
WITN1.                A.ALBAWI: WITNESSED BY
~Curve Information Block
DEPT.M             0 000 00 00: Depth
LSPD.M/MIN                   0: Line Speed
LTEN.LB                      0: Surface Line Tension
MINMK.                       0: Minute Mark Ticks
HVOLTA.V                     0: Head Voltage Apparent
CCL.                         0: Casing Collar Locator
~Parameter Information Block
SRFTEMP.DEGC           12.0000: Surface Temperature
MudWgt.LB/GAL           8.5600: Mud Weight
CASETHCK.IN             0.4530: Casing Thickness
BITSIZE.IN             12.2500: Borehole I.D.
~Other Information
TOOL STRING DEPLOYED BY ALTUS INTERVENTION WIRELINE UNIT ON 7/16" CABLE
CABLE HEAD BUILT BY ALTUS
LOG CORRELATED TO SHLUMBERGER 4.5" HSD OX POWER JET PULS DATED 09.APRIL.2014
CORRELATION LOG IS SHALLOWER BY 1.4M, DEPTH SHIFTED 1.4M DOWN AS PER
CLIENTS REQUEST.
4.655" HSC GUN 10 AND 350 DEGREE PHASING, 39 GR MILLENIUM, 4 SHOTS PER FOOT.
ATTEMPT WAS MADE TO RUN 4 GUNS IN ONE STRING BUT AT 3600M PICK UP WEIGHT 
WAS TOO HIGH TO CONTINUE.  CLIENT D4ECIDED TO SPLIT UP ONTO TWO RUNS.
RUN #1 CCL TO TOP SHOT 3.25 M, CCL STOP DEPT: 3729.75 M
PERFORATION INTERVAL 3733M - 3742.6M
RUN #2 CCL TO TOP SHOT 3.25 M, CCL STOP DEPT: 3711.75 M
PERFORATION INTERVAL 3715M - 3724.6M

~A  Depth       LSPD        LTEN       MINMK       HVOLTA       CCL     
# ...
  3662.3000      9.4092   6755.8032      0.0000      3.4958     -2.1123
  3662.2500      9.4092   6794.9219      0.0000      3.5774     -2.0851
  3662.2000      9.4092   6832.9565      0.0000      3.4859     -2.0339
  3662.1500      9.4092   6832.9565      0.0000      3.4859     -2.0009
  3662.1000      9.4092   6870.2964      0.0000      3.5057     -1.9667
  3662.0500      9.4092   6916.9360      0.0000      3.5156     -1.9734
  3662.0000      9.3574   6916.9360      0.0000      3.5156     -2.0116
  3661.9500      9.3574   6957.5669      0.0000      3.5057     -2.0403
  3661.9000      9.3574   6979.2856      1.0000      3.4653     -2.0357
  3661.8500      9.3574   6979.2856      1.0000      3.4653     -2.0165
  3661.8000      9.3756   6991.4438      0.0000      3.4859     -2.0357
  3661.7500      9.3756   6999.3447      0.0000      3.5255     -2.0241
  3661.7000      9.3756   6999.3447      0.0000      3.5255     -1.9246
  3661.6500      9.3025   7001.5200      0.0000      3.5156     -1.9255
  3661.6000      9.3025   7001.1602      0.0000      3.4958     -2.1031
  3661.5500      9.3025   7001.1602      0.0000      3.4958     -2.0943
  3661.5000      9.3208   6987.1279      0.0000      3.4958     -1.9585
  3661.4500      9.3208   6987.1279      0.0000      3.4958     -2.1483
  3661.4000      9.3208   6942.7090      0.0000      3.4958     -1.9457
  3661.3500      9.3756   6880.9175      0.0000      3.4950     -2.2097
  3661.3000      9.3756   6880.9175      0.0000      3.4950     -2.1691
  3661.2500      9.3756   6820.7207      0.0000      3.5156     -2.2722
  3661.2000      9.3756   6759.2505      0.0000      3.4958     -1.9313
  3661.1500      9.3756   6759.2505      0.0000      3.4958     -1.7144
  3661.1000      9.3756   6701.1577      0.0000      3.4859     -1.7791
  3661.0500      9.4640   6661.3354      0.0000      3.5057     -1.7501
  3661.0000      9.4640   6661.3354      0.0000      3.5057     -1.9432
  3660.9500      9.4640   6636.0278      0.0000      3.5156     -2.1877
  3660.9000      9.4640   6616.2935      0.0000      3.5156     -2.0076
  3660.8500      9.4640   6616.2935      0.0000      3.5156     -1.9747
  3660.8000      9.4640   6605.2476      0.0000      3.4958     -1.8480
  3660.7500      9.4640   6604.6909      0.0000      3.4958     -1.9414
  3660.7000      9.4275   6604.6909      0.0000      3.4958     -2.0940
  3660.6500      9.4275   6621.1382      0.0000      3.4859     -2.0095
  3660.6000      9.4275   6666.2534      0.0000      3.5057     -2.0201
  3660.5500      9.4092   6666.2534      0.0000      3.5057     -2.0247
  3660.5000      9.4092   6725.8687      0.0000      3.4950     -1.9960
  3660.4500      9.4092   6771.6992      0.0000      3.5263     -2.0089
  3660.4000      9.3574   6771.6992      0.0000      3.5263     -2.0021
  3660.3500      9.3574   6804.5869      0.0000      3.4760     -2.0021
  3660.3000      9.3574   6837.0483      0.0000      3.4958     -2.0165
  3660.2500      9.3391   6837.0483      0.0000      3.4958     -2.0491
  3660.2000      9.3391   6857.5845      0.0000      3.5156     -2.0204
  3660.1500      9.3391   6854.6060      0.0000      3.5362     -2.0238
  3660.1000      9.3208   6854.6060      0.0000      3.5362     -2.0027
  3660.0500      9.3208   6835.1201      0.0000      3.5263     -2.1651
  3660.0000      9.3208   6801.9751      0.0000      3.4958     -2.0400
  3659.9500      9.3208   6801.9751      0.0000      3.4958     -1.8013
  3659.9000      9.3208   -999.2500      0.0000      3.4851     -2.2261
  3659.8500      9.3208   -999.2500      0.0000      3.4851     -4.6923
  3659.8000      9.3756   -999.2500      0.0000      3.4851     -5.9703
  3659.7500      9.3756   -999.2500      0.0000      3.4958     -1.7156
  3659.7000      9.3756   -999.2500      0.0000      3.4958     -2.0916
  3659.6500      9.4458   -999.2500      0.0000      3.4958     -2.4971
  3659.6000      9.4458   -999.2500      0.0000      3.4554     -1.9261
  3659.5500      9.4458   -999.2500      0.0000      3.4554     -2.0479
  3659.5000      9.4458   -999.2500      0.0000      3.5667     -1.9011
