~Version Information
VERS.                      2.0: CWLS Log ASCII Standard - VERSION 2.0
WRAP.                       NO: One line per depth step
~Well Information Block
STRT.M               3779.9000: START DEPTH
STOP.M               3659.5000: STOP DEPTH
STEP.M                 -0.0500: STEP
NULL.                -999.2500: NULL VALUE
COMP.                  STATOIL: COMPANY
WELL.               15/9-F-1-C: WELL
FLD.                     VOLVE: FIELD
LOC.                          : LOCATION
SRVC.          Halliburton Logging Services: SERVICE COMPANY
DATE.          Wed Dec 03 07-18-31 2014: LOG DATE
UWI.                          : UNIQUE WELL ID
CTRY.                   NORWAY: COUNTRY
SECT.                         : SECTION
TOWN.                         : TOWNSHIP
RANG.                         : RANGE
API.                          : API#
OS.                   --NONE--: OTHER SERVICES
PDAT.FT                  M.S.L: PERMANENT DATUM
EEL.FT                   54.9M: ELEVATION
LMF.FT                   R.K.B: LOG MEASURED FROM
DMF.FT                   R.K.B: DRILLING MEASURED FROM
EKB.FT                   54.9M: KB
EDF.FT                   54.9M: DF
EGL.FT                    -91M: GL
DATE1.         03-DEC-14 @ 05:47: DATE1
RUN1.                    1 & 2: RUN NUMBER
TDD1.FT                  4094M: DEPTH DRILLER
TDL1.FT                  3782M: DEPTH LOGGER
BLI1.FT                  3772M: BOTTOM LOGGED INTERVAL
TLI1.FT                  3572M: TOP LOG INTERVAL
CDD1.IN_FT                    : CASING DRILLER
CDL1.FT                       : CASING LOGGER
BS1.IN                    8.5": BIT SIZE
DFT1.                SEA WATER: TYPE FLUID IN HOLE
DFDV1.GM/C3_CP          1.03SG: DENSITY/VISCOSITY
DFPL1.C3                      : PH/FLUID LOSS
MSS1.                         : SOURCE OF SAMPLE
RMT1.OHHM_DEGF                : RM@MEASURED TEMP
RMFT1.OHMM_DEGF                : RMF@MEASURED TEMP
RMCT1.OHMM_DEGF                : RMC@MEASURED TEMP
RMFS1.                        : SOURCE OF RMF/RMC
RMBT1.OHMM_DEGF                : RM@BHT
TCS1.                         : TIME CIRCULATION STOPPED
TLOB1.                36 HOURS: TIME LOGGER ON BOTTOM
BHT1.DEGF                 FULL: MAXIMUM RECORDED TEMPERATURE
LUN1.                 12030699: EQUIPMENT NUMBER
LUL1.                   NORWAY: LOCATION
ENGI1.              C.JAMIESON: RECORDED BY
WITN1.                A.ALBAWI: WITNESSED BY
~Curve Information Block
DEPT.M             0 000 00 00: Depth
LSPD.M/MIN                   0: Line Speed
LTEN.LB                      0: Surface Line Tension
MINMK.                       0: Minute Mark Ticks
HVOLTA.V                     0: Head Voltage Apparent
CCL.                         0: Casing Collar Locator
~Parameter Information Block
SRFTEMP.DEGC           12.0000: Surface Temperature
MudWgt.LB/GAL           8.5600: Mud Weight
CASETHCK.IN             0.4530: Casing Thickness
BITSIZE.IN             12.2500: Borehole I.D.
~Other Information
TOOL STRING DEPLOYED BY ALTUS INTERVENTION WIRELINE UNIT ON 7/16" CABLE
CABLE HEAD BUILT BY ALTUS
LOG CORRELATED TO SHLUMBERGER 4.5" HSD OX POWER JET PULS DATED 09.APRIL.2014
CORRELATION LOG IS SHALLOWER BY 1.4M, DEPTH SHIFTED 1.4M DOWN AS PER
CLIENTS REQUEST.
4.655" HSC GUN 10 AND 350 DEGREE PHASING, 39 GR MILLENIUM, 4 SHOTS PER FOOT.
ATTEMPT WAS MADE TO RUN 4 GUNS IN ONE STRING BUT AT 3600M PICK UP WEIGHT 
WAS TOO HIGH TO CONTINUE.  CLIENT D4ECIDED TO SPLIT UP ONTO TWO RUNS.
RUN #1 CCL TO TOP SHOT 3.25 M, CCL STOP DEPT: 3729.75 M
PERFORATION INTERVAL 3733M - 3742.6M
RUN #2 CCL TO TOP SHOT 3.25 M, CCL STOP DEPT: 3711.75 M
PERFORATION INTERVAL 3715M - 3724.6M

~A  Depth       LSPD        LTEN       MINMK       HVOLTA       CCL     
# ...
  3684.7000      9.4458   6525.6162      0.0000      3.5561     -2.0095
  3684.6500      9.4275   6547.0688      0.0000      3.4447     -2.0348
  3684.6000      9.4275   6563.4868      0.0000      3.4851     -2.0632
  3684.5500      9.4275   6563.4868      0.0000      3.4851     -2.0305
  3684.5000      9.3208   6579.2271      0.0000      3.4958     -2.0403
  3684.4500      9.3208   6589.4668      0.0000      3.5667     -2.0204
  3684.4000      9.3208   6589.4668      0.0000      3.5667     -1.9878
  3684.3500      9.3939   6600.0850      0.0000      3.5667     -2.0143
  3684.3000      9.3939   6609.4634      0.0000      3.5767     -1.9820
  3684.2500      9.3939   6609.4634      0.0000      3.5767     -2.0195
  3684.2000      9.3574   6607.1108      0.0000      3.5057     -1.9689
  3684.1500      9.3574   6605.8311      0.0000      3.5469     -1.9933
  3684.1000      9.3574   6605.8311      0.0000      3.5469     -1.9945
  3684.0500      9.3574   6620.1128      0.0000      3.4248     -2.0424
  3684.0000      9.3574   6634.0967      0.0000      3.4958     -2.0085
  3683.9500      9.3574   6634.0967      0.0000      3.4958     -1.9985
  3683.9000      9.3574   6640.0825      0.0000      3.4042     -1.9887
  3683.8500      9.4823   6651.0659      0.0000      3.5461     -2.0198
  3683.8000      9.4823   6651.0659      0.0000      3.5461     -2.0061
  3683.7500      9.4823   6657.4175      0.0000      3.5461     -2.0046
  3683.7000      9.3939   6657.4175      0.0000      3.5461     -2.1669
  3683.6500      9.3939   6645.3311      0.0000      3.5263     -1.9377
  3683.6000      9.3939   6632.7305      0.0000      3.5065     -2.0586
  3683.5500      9.4275   6632.7305      0.0000      3.5065     -2.0195
  3683.5000      9.4275   6628.4292      0.0000      3.5263     -1.9225
  3683.4500      9.4275   6612.7085      0.0000      3.5469     -2.0839
  3683.4000      9.4458   6612.7085      0.0000      3.5469     -1.9448
  3683.3500      9.4458   6584.2656      0.0000      3.5561     -2.1697
  3683.3000      9.4458   6562.5454      0.0000      3.5263     -2.0717
  3683.2500      9.3574   6562.5454      0.0000      3.5263     -2.2518
  3683.2000      9.3574   6552.0181      0.0000      3.4958     -1.7681
  3683.1500      9.3574   6553.7861      0.0000      3.5370     -2.1196
  3683.1000      9.4458   6553.7861      0.0000      3.5370     -1.3045
  3683.0500      9.4458   6575.4639      0.0000      3.4859     -1.9344
  3683.0000      9.4458   6610.5552      0.0000      3.4653     -1.9176
  3682.9500      9.3756   6610.5552      0.0000      3.4653     -2.2130
  3682.9000      9.3756   6649.9790      0.0000      3.5156     -2.1978
  3682.8500      9.3756   6693.6460      0.0000      3.5156     -2.1511
  3682.8000      9.3756   6693.6460      0.0000      3.5156     -2.1312
  3682.7500      9.3574   6730.2568      0.0000      3.4859     -1.9307
  3682.7000      9.3574   6745.7681      0.0000      3.4958     -2.0638
  3682.6500      9.3574   6745.7681      0.0000      3.4958     -1.9545
  3682.6000      9.3756   6745.7622      0.0000      3.4447     -1.8138
  3682.5500      9.3756   6735.9639      0.0000      3.4752     -3.1179
  3682.5000      9.3756   6735.9639      0.0000      3.4752     -1.8517
  3682.4500      9.3208   6709.2075      0.0000      3.5461     -1.9713
  3682.4000      9.3208   6670.3540      0.0000      3.5561     -1.5984
  3682.3500      9.3208   6670.3540      0.0000      3.5561     -1.9792
  3682.3000      9.3756   6631.4224      0.0000      3.4859     -2.1633
  3682.2500      9.3756   6590.0391      0.0000      3.5271     -1.9701
  3682.2000      9.3756   6590.0391      0.0000      3.5271     -2.0662
  3682.1500      9.4275   6552.0190      0.0000      3.4950     -1.8889
  3682.1000      9.4275   6552.0190      0.0000      3.4950     -2.2887
  3682.0500      9.4275   6534.6895      0.0000      3.4752     -2.1529
  3682.0000      9.3756   6534.0430      0.0000      3.4958     -2.0919
  3681.9500      9.3756   6534.0430      0.0000      3.4958     -1.9692
  3681.9000      9.3756   6539.3320      0.0000      3.5164     -1.9814
  3681.8500      9.4275   6559.4580      0.0000      3.3943     -2.0098
  3681.8000      9.4275   6559.4580      0.0000      3.3943     -2.0131
  3681.7500      9.4275   6592.6216      0.0000      3.5057     -2.0320
  3681.7000      9.3939   6617.9038      0.0000      3.5057     -2.0052
  3681.6500      9.3939   6617.9038      0.0000      3.5057     -2.0128
  3681.6000      9.3939   6635.3359      0.0000      3.4653     -1.9969
  3681.5500      9.3939   6652.8267      0.0000      3.4355     -2.0604
  3681.5000      9.3574   6652.8267      0.0000      3.4355     -1.9417
  3681.4500      9.3574   6656.3608      0.0000      3.4660     -2.0015
  3681.4000      9.3574   6645.3174      0.0000      3.4645     -1.9585
  3681.3500      9.4092   6645.3174      0.0000      3.4645     -1.8996
  3681.3000      9.4092   6641.2695      0.0000      3.5156     -2.0229
  3681.2500      9.4092   6645.0083      0.0000      3.4760     -2.0412
  3681.2000      9.3939   6645.0083      0.0000      3.4760     -2.1163
  3681.1500      9.3939   6645.2700      0.0000      3.5156     -2.0397
  3681.1000      9.3939   6648.5776      0.0000      3.5057     -2.0204
  3681.0500      9.4092   6648.5776      0.0000      3.5057     -2.0537
  3681.0000      9.4092   6656.1406      0.0000      3.5255     -1.9554
  3680.9500      9.4092   6652.8062      0.0000      3.4447     -1.9948
  3680.9000      9.4458   6652.8062      0.0000      3.4447     -2.0000
  3680.8500      9.4458   6638.4136      0.0000      3.5156     -2.0031
  3680.8000      9.4458   6624.2432      0.0000      3.4859     -2.0507
  3680.7500      9.3939   6624.2432      0.0000      3.4859     -2.0027
  3680.7000      9.3939   6613.3682      0.0000      3.5255     -2.0793
  3680.6500      9.3939   6609.8037      1.0000      3.3844     -1.9423
  3680.6000      9.4092   6609.8037      1.0000      3.3844     -2.0659
  3680.5500      9.4092   6608.6646      0.0000      3.5255     -1.9924
  3680.5000      9.4092   6608.6646      0.0000      3.5255     -2.0012
  3680.4500      9.4092   6592.4624      0.0000      3.4950     -2.0064
  3680.4000      9.4092   6569.6792      0.0000      3.5263     -2.0122
  3680.3500      9.4092   6569.6792      0.0000      3.5263     -2.0543
  3680.3000      9.4092   6568.1860      0.0000      3.5263     -2.0613
  3680.2500      9.3939   6584.5635      0.0000      3.4653     -2.0940
  3680.2000      9.3939   6584.5635      0.0000      3.4653     -1.9924
  3680.1500      9.3939   6599.3779      0.0000      3.4950     -2.0281
  3680.1000      9.4092   6616.3984      0.0000      3.4950     -1.9786
  3680.0500      9.4092   6616.3984      0.0000      3.4950     -2.0543
  3680.0000      9.4092   6636.3633      0.0000      3.5164     -1.9677
  3679.9500      9.3756   6643.4395      0.0000      3.5156     -2.0623
  3679.9000      9.3756   6643.4395      0.0000      3.5156     -2.0180
  3679.8500      9.3756   6642.3433      0.0000      3.4248     -2.0577
  3679.8000      9.3756   6650.2466      0.0000      3.5461     -2.0064
  3679.7500      9.3756   6650.2466      0.0000      3.5461     -1.9939
  3679.7000      9.3756   6662.9121      0.0000      3.5461     -2.0412
  3679.6500      9.3939   6671.2378      0.0000      3.4653     -1.8764
  3679.6000      9.3939   6671.2378      0.0000      3.4653     -2.0253
  3679.5500      9.3939   6675.7505      0.0000      3.4958     -2.0055
  3679.5000      9.3574   6671.4346      0.0000      3.5164     -1.9908
  3679.4500      9.3574   6671.4346      0.0000      3.5164     -1.9799
  3679.4000      9.3574   6657.0659      0.0000      3.4355     -1.8407
  3679.3500      9.4092   6641.8550      0.0000      3.5057     -2.1016
  3679.3000      9.4092   6641.8550      0.0000      3.5057     -2.4395
  3679.2500      9.4092   6622.3599      0.0000      3.5858     -1.8511
  3679.2000      9.4092   6596.5073      0.0000      3.5362     -2.1575
  3679.1500      9.3939   6596.5073      0.0000      3.5362     -2.0824
