~Version Information
VERS.                      2.0: CWLS Log ASCII Standard - VERSION 2.0
WRAP.                       NO: One line per depth step
~Well Information Block
STRT.M               3782.3500: START DEPTH
STOP.M               3681.1500: STOP DEPTH
STEP.M                 -0.0500: STEP
NULL.                -999.2500: NULL VALUE
COMP.                  STATOIL: COMPANY
WELL.               15/9-F-1-C: WELL
FLD.                     VOLVE: FIELD
LOC.                          : LOCATION
SRVC.          Halliburton Logging Services: SERVICE COMPANY
DATE.          Thu Dec 04 04-49-02 2014: LOG DATE
UWI.                          : UNIQUE WELL ID
CTRY.                   NORWAY: COUNTRY
SECT.                         : SECTION
TOWN.                         : TOWNSHIP
RANG.                         : RANGE
API.                          : API#
OS.                   --NONE--: OTHER SERVICES
PDAT.FT                  M.S.L: PERMANENT DATUM
EEL.FT                   54.9M: ELEVATION
LMF.FT                   R.K.B: LOG MEASURED FROM
DMF.FT                   R.K.B: DRILLING MEASURED FROM
EKB.FT                   54.9M: KB
EDF.FT                   54.9M: DF
EGL.FT                    -91M: GL
DATE1.         03-DEC-14 @ 05:47: DATE1
RUN1.                    1 & 2: RUN NUMBER
TDD1.FT                  4094M: DEPTH DRILLER
TDL1.FT                  3782M: DEPTH LOGGER
BLI1.FT                  3772M: BOTTOM LOGGED INTERVAL
TLI1.FT                  3572M: TOP LOG INTERVAL
CDD1.IN_FT                    : CASING DRILLER
CDL1.FT                       : CASING LOGGER
BS1.IN                    8.5": BIT SIZE
DFT1.                SEA WATER: TYPE FLUID IN HOLE
DFDV1.GM/C3_CP          1.03SG: DENSITY/VISCOSITY
DFPL1.C3                      : PH/FLUID LOSS
MSS1.                         : SOURCE OF SAMPLE
RMT1.OHHM_DEGF                : RM@MEASURED TEMP
RMFT1.OHMM_DEGF                : RMF@MEASURED TEMP
RMCT1.OHMM_DEGF                : RMC@MEASURED TEMP
RMFS1.                        : SOURCE OF RMF/RMC
RMBT1.OHMM_DEGF                : RM@BHT
TCS1.                         : TIME CIRCULATION STOPPED
TLOB1.                36 HOURS: TIME LOGGER ON BOTTOM
BHT1.DEGF                 FULL: MAXIMUM RECORDED TEMPERATURE
LUN1.                 12030699: EQUIPMENT NUMBER
LUL1.                   NORWAY: LOCATION
ENGI1.              C.JAMIESON: RECORDED BY
WITN1.                A.ALBAWI: WITNESSED BY
~Curve Information Block
DEPT.M             0 000 00 00: Depth
LSPD.M/MIN                   0: Line Speed
LTEN.LB                      0: Surface Line Tension
MINMK.                       0: Minute Mark Ticks
HVOLTA.V                     0: Head Voltage Apparent
CCL.                         0: Casing Collar Locator
~Parameter Information Block
SRFTEMP.DEGC           12.0000: Surface Temperature
MudWgt.LB/GAL           8.5600: Mud Weight
CASETHCK.IN             0.4530: Casing Thickness
BITSIZE.IN             12.2500: Borehole I.D.
~Other Information
TOOL STRING DEPLOYED BY ALTUS INTERVENTION WIRELINE UNIT ON 7/16" CABLE
CABLE HEAD BUILT BY ALTUS
LOG CORRELATED TO SHLUMBERGER 4.5" HSD OX POWER JET PULS DATED 09.APRIL.2014
CORRELATION LOG IS SHALLOWER BY 1.4M, DEPTH SHIFTED 1.4M DOWN AS PER
CLIENTS REQUEST.
4.655" HSC GUN 10 AND 350 DEGREE PHASING, 39 GR MILLENIUM, 4 SHOTS PER FOOT.
ATTEMPT WAS MADE TO RUN 4 GUNS IN ONE STRING BUT AT 3600M PICK UP WEIGHT 
WAS TOO HIGH TO CONTINUE.  CLIENT D4ECIDED TO SPLIT UP ONTO TWO RUNS.
RUN #1 CCL TO TOP SHOT 3.25 M, CCL STOP DEPT: 3729.75 M
PERFORATION INTERVAL 3733M - 3742.6M
RUN #2 CCL TO TOP SHOT 3.25 M, CCL STOP DEPT: 3711.75 M
PERFORATION INTERVAL 3715M - 3724.6M

~A  Depth       LSPD        LTEN       MINMK       HVOLTA       CCL     
# ...
  3743.1500      9.4092   6801.2607      0.0000      3.4851     -0.0122
  3743.1000      9.3756   6848.6543      0.0000      3.5156     -0.0040
  3743.0500      9.3756   6880.1816      0.0000      3.4851     -0.0171
  3743.0000      9.3756   6880.1816      0.0000      3.4851     -0.0162
  3742.9500      9.3756   6895.9023      0.0000      3.4851      0.0464
  3742.9000      9.3208   6891.3789      0.0000      3.4546     -0.0110
  3742.8500      9.3208   6891.3789      0.0000      3.4546     -0.2405
  3742.8000      9.3208   6856.8423      0.0000      3.4142     -0.3720
  3742.7500      9.3574   6802.8594      0.0000      3.5156      1.3190
  3742.7000      9.3574   6802.8594      0.0000      3.5156      0.2902
  3742.6500      9.3574   6743.9272      0.0000      3.4546     -2.4927
  3742.6000      9.3574   6683.6777      0.0000      3.5156     -5.5731
  3742.5500      9.3574   6683.6777      0.0000      3.5156     -0.3894
  3742.5000      9.3574   6633.8730      0.0000      3.5156      0.8090
  3742.4500      9.4092   6633.8730      0.0000      3.5156      0.4843
  3742.4000      9.4092   6603.1826      0.0000      3.4752     -0.2533
  3742.3500      9.4092   6581.8765      0.0000      3.4546     -0.1260
  3742.3000      9.4458   6581.8765      0.0000      3.4546     -0.3613
  3742.2500      9.4458   6569.6338      0.0000      3.4950     -0.0729
  3742.2000      9.4458   6578.6558      0.0000      3.4950     -0.0687
  3742.1500      9.4458   6578.6558      0.0000      3.4950      0.0400
  3742.1000      9.4458   6598.7827      0.0000      3.5057     -0.0299
  3742.0500      9.4458   6610.4146      0.0000      3.4851     -0.0510
  3742.0000      9.4458   6610.4146      0.0000      3.4851     -0.0125
  3741.9500      9.4458   6615.8999      0.0000      3.4241      0.0174
  3741.9000      9.4458   6617.7500      0.0000      3.5156     -0.0168
  3741.8500      9.4458   6617.7500      0.0000      3.5156      0.0735
  3741.8000      9.4092   6609.1240      0.0000      3.4752     -0.0626
  3741.7500      9.4092   6600.8315      0.0000      3.4851      0.0604
  3741.7000      9.4092   6600.8315      0.0000      3.4851      0.1825
  3741.6500      9.3939   6608.2578      0.0000      3.5156     -0.0696
  3741.6000      9.3939   6624.4731      0.0000      3.4851      0.0586
  3741.5500      9.3939   6624.4731      0.0000      3.4851     -0.0067
  3741.5000      9.3939   6639.9521      0.0000      3.4241     -0.1657
  3741.4500      9.3939   6652.6772      0.0000      3.4546      0.0513
  3741.4000      9.3939   6652.6772      0.0000      3.4546     -0.2383
  3741.3500      9.3939   6651.8779      0.0000      3.5156     -0.1096
  3741.3000      9.3939   6637.7925      0.0000      3.4645      0.0803
  3741.2500      9.3939   6637.7925      0.0000      3.4645      0.0162
  3741.2000      9.3756   6632.8867      0.0000      3.4447     -0.0626
  3741.1500      9.3756   6641.2183      0.0000      3.5156     -0.0055
  3741.1000      9.3756   6641.2183      0.0000      3.5156     -0.0125
  3741.0500      9.4092   6646.7754      0.0000      3.4950      0.1584
  3741.0000      9.4092   6651.5117      0.0000      3.4851     -0.1541
  3740.9500      9.4092   6651.5117      0.0000      3.4851      0.1086
  3740.9000      9.4092   6664.4692      0.0000      3.5561     -0.0818
  3740.8500      9.4275   6664.4692      0.0000      3.5561      0.0238
  3740.8000      9.4275   6679.9331      0.0000      3.4950     -0.0385
  3740.7500      9.4275   6696.2954      0.0000      3.4447     -0.0116
  3740.7000      9.4275   6696.2954      0.0000      3.4447     -0.0336
  3740.6500      9.4275   6717.4565      0.0000      3.4950      0.0092
  3740.6000      9.4275   6734.1992      0.0000      3.4744     -0.0485
  3740.5500      9.4275   6734.1992      0.0000      3.4744     -0.0436
  3740.5000      9.4275   6743.8677      0.0000      3.4958     -0.0290
  3740.4500      9.4275   6754.3906      0.0000      3.4851      0.0787
  3740.4000      9.3574   6754.3906      0.0000      3.4851      0.0848
  3740.3500      9.3574   6753.9175      0.0000      3.4645     -0.1523
  3740.3000      9.3574   6732.3188      0.0000      3.4950      0.1901
  3740.2500      9.3574   6732.3188      0.0000      3.4950      0.1074
  3740.2000      9.3574   6710.1763      0.0000      3.5255     -0.1025
  3740.1500      9.3574   6703.1494      0.0000      3.4752      0.0598
  3740.1000      9.3574   6703.1494      0.0000      3.4752     -0.0290
  3740.0500      9.3574   6705.3403      0.0000      3.5561      0.0174
  3740.0000      9.3574   6719.6450      0.0000      3.4851     -0.0363
  3739.9500      9.3939   6719.6450      0.0000      3.4851      0.0006
  3739.9000      9.3939   6750.7891      0.0000      3.4752     -0.0027
  3739.8500      9.3939   6779.9106      0.0000      3.4241      0.0079
  3739.8000      9.4092   6779.9106      0.0000      3.4241     -0.0269
  3739.7500      9.4092   6789.9331      0.0000      3.4950      0.0046
  3739.7000      9.4092   6786.6553      0.0000      3.4851      0.0134
  3739.6500      9.4092   6786.6553      0.0000      3.4851      0.0317
  3739.6000      9.4092   6776.7358      0.0000      3.4950     -0.0311
  3739.5500      9.4092   6763.8989      0.0000      3.4447      0.0116
  3739.5000      9.4092   6763.8989      0.0000      3.4447      0.1712
  3739.4500      9.4092   6753.6768      0.0000      3.5561     -0.1230
  3739.4000      9.4092   6736.2959      0.0000      3.4851     -0.3259
  3739.3500      9.4092   6736.2959      0.0000      3.4851      0.3439
  3739.3000      9.3939   6696.7246      0.0000      3.4447      0.0937
  3739.2500      9.3939   6696.7246      0.0000      3.4447      0.4874
  3739.2000      9.3939   6641.7686      0.0000      3.4851      0.1425
  3739.1500      9.3939   6585.1787      0.0000      3.4752     -0.4871
  3739.1000      9.3939   6585.1787      0.0000      3.4752      0.0732
  3739.0500      9.3939   6530.4702      0.0000      3.4950     -0.5215
  3739.0000      9.4275   6488.0049      0.0000      3.4851      0.2515
  3738.9500      9.4275   6488.0049      0.0000      3.4851      0.2081
  3738.9000      9.4275   6470.8208      0.0000      3.4851      0.0171
  3738.8500      9.4458   6478.3970      0.0000      3.4752     -0.0253
  3738.8000      9.4458   6478.3970      0.0000      3.4752      0.0027
  3738.7500      9.4458   6511.2593      0.0000      3.5561      0.0003
  3738.7000      9.4092   6566.0625      0.0000      3.3943     -0.0128
  3738.6500      9.4092   6566.0625      0.0000      3.3943     -0.0113
  3738.6000      9.4092   6617.9512      0.0000      3.5057     -0.0119
  3738.5500      9.4092   6651.9424      0.0000      3.5965     -0.0156
  3738.5000      9.4458   6651.9424      0.0000      3.5965     -0.0125
  3738.4500      9.4458   6683.2578      0.0000      3.3936     -0.0189
  3738.4000      9.4458   6717.1060      0.0000      3.5149     -0.0125
  3738.3500      9.3939   6717.1060      0.0000      3.5149     -0.0125
  3738.3000      9.3939   6741.0586      0.0000      3.4546     -0.0134
  3738.2500      9.3939   6764.0898      0.0000      3.5461     -0.0177
  3738.2000      9.4092   6764.0898      0.0000      3.5461      0.0049
  3738.1500      9.4092   6795.5430      0.0000      3.4340     -0.0119
  3738.1000      9.4092   6813.2607      0.0000      3.4241     -0.0125
  3738.0500      9.4092   6813.2607      0.0000      3.4241     -0.0171
  3738.0000      9.4092   6805.5884      0.0000      3.4752      0.0928
  3737.9500      9.4092   6787.7764      0.0000      3.4950      0.3610
  3737.9000      9.3756   6787.7764      0.0000      3.4950      0.0537
  3737.8500      9.3756   6765.9399      0.0000      3.4950      0.0922
  3737.8000      9.3756   6742.8638      0.0000      3.4950      0.1184
  3737.7500      9.4092   6742.8638      0.0000      3.4950      0.1184
  3737.7000      9.4092   6732.6646      0.0000      3.5156     -0.1807
  3737.6500      9.4092   6732.6646      0.0000      3.5156     -0.0732
  3737.6000      9.3756   6733.8105      0.0000      3.5057      0.0168
