~Version Information
VERS.                      2.0: CWLS Log ASCII Standard - VERSION 2.0
WRAP.                       NO: One line per depth step
~Well Information Block
STRT.M               3135.0500: START DEPTH
STOP.M               3039.9000: STOP DEPTH
STEP.M                 -0.0500: STEP
NULL.                -999.2500: NULL VALUE
COMP.                  Statoil: COMPANY
WELL.                15/9-F-12: WELL
FLD.                     Volve: FIELD
LOC.                          : LOCATION
SRVC.          Halliburton Logging Services: SERVICE COMPANY
DATE.          Wed Nov 26 21-01-09 2014: LOG DATE
UWI.                          : UNIQUE WELL ID
SECT.                         : SECTION
TOWN.                         : TOWNSHIP
RANG.                         : RANGE
API.                          : API#
OS.                           : OTHER SERVICES
PDAT.FT                       : PERMANENT DATUM
EEL.FT                        : ELEVATION
LMF.FT                        : LOG MEASURED FROM
DMF.FT                        : DRILLING MEASURED FROM
EKB.FT                        : KB
EDF.FT                        : DF
EGL.FT                        : GL
DATE1.                        : DATE1
RUN1.                         : RUN NUMBER
TDD1.FT                       : DEPTH DRILLER
TDL1.FT                       : DEPTH LOGGER
BLI1.FT                       : BOTTOM LOGGED INTERVAL
TLI1.FT                       : TOP LOG INTERVAL
CDD1.IN_FT                    : CASING DRILLER
CDL1.FT                       : CASING LOGGER
BS1.IN                        : BIT SIZE
DFT1.                         : TYPE FLUID IN HOLE
DFDV1.GM/C3_CP                : DENSITY/VISCOSITY
DFPL1.C3                      : PH/FLUID LOSS
MSS1.                         : SOURCE OF SAMPLE
RMT1.OHHM_DEGF                : RM@MEASURED TEMP
RMFT1.OHMM_DEGF                : RMF@MEASURED TEMP
RMCT1.OHMM_DEGF                : RMC@MEASURED TEMP
RMFS1.                        : SOURCE OF RMF/RMC
RMBT1.OHMM_DEGF                : RM@BHT
TCS1.                         : TIME CIRCULATION STOPPED
TLOB1.                        : TIME LOGGER ON BOTTOM
BHT1.DEGF                     : MAXIMUM RECORDED TEMPERATURE
LUN1.                         : EQUIPMENT NUMBER
LUL1.                         : LOCATION
ENGI1.                        : RECORDED BY
WITN1.                        : WITNESSED BY
~Curve Information Block
DEPT.M             0 000 00 00: Depth
LSPD.M/MIN                   0: Line Speed
LTEN.LB                      0: Surface Line Tension
MINMK.                       0: Minute Mark Ticks
HVOLTA.V                     0: Head Voltage Apparent
CCL.                         0: Casing Collar Locator
~Parameter Information Block
SRFTEMP.DEGC           10.0000: Surface Temperature
MudWgt.LB/GAL           8.5000: Mud Weight
CASETHCK.IN             6.1840: Casing Thickness
BITSIZE.IN              8.5000: Borehole I.D.
~A  Depth       LSPD        LTEN       MINMK       HVOLTA       CCL     
# ...
  3107.0500      9.2507   4311.3018      0.0000      3.5873     -2.0128
  3107.0000      9.3574   4309.2451      0.0000      3.5675     -2.0034
  3106.9500      9.3574   4309.2451      0.0000      3.5675     -2.0058
  3106.9000      9.3574   4304.3687      0.0000      3.5469     -2.0079
  3106.8500      9.2842   4298.2627      0.0000      3.5774     -2.0272
  3106.8000      9.2842   4298.2627      0.0000      3.5774     -2.0113
  3106.7500      9.2842   4290.5762      0.0000      3.5469     -2.0278
  3106.7000      9.3208   4284.6577      0.0000      3.5774     -1.9960
  3106.6500      9.3208   4284.6577      0.0000      3.5774     -2.0235
  3106.6000      9.3208   4282.0762      0.0000      3.5774     -2.0180
  3106.5500      9.3208   4279.3828      0.0000      3.5873     -2.0259
  3106.5000      9.3939   4279.3828      0.0000      3.5873     -2.0052
  3106.4500      9.3939   4277.3706      1.0000      3.6179     -2.0113
  3106.4000      9.3939   4278.3643      0.0000      3.5774     -2.0006
  3106.3500      9.3208   4278.3643      0.0000      3.5774     -2.0198
  3106.3000      9.3208   4276.9189      0.0000      3.5774     -2.0043
  3106.2500      9.3208   4271.8262      0.0000      3.5370     -2.0052
  3106.2000      9.3391   4271.8262      0.0000      3.5370     -1.9948
  3106.1500      9.3391   4269.9253      0.0000      3.5774     -2.0192
  3106.1000      9.3391   4268.4116      0.0000      3.5774     -2.0153
  3106.0500      9.2842   4268.4116      0.0000      3.5774     -2.0006
  3106.0000      9.2842   4264.1592      0.0000      3.6079     -2.0049
  3105.9500      9.2842   4264.9629      0.0000      3.5469     -2.0073
  3105.9000      9.2690   4264.9629      0.0000      3.5469     -1.9936
  3105.8500      9.2690   4266.9009      0.0000      3.5774     -2.0183
  3105.8000      9.2690   4266.9009      0.0000      3.5774     -2.0143
  3105.7500      9.3208   4260.2085      0.0000      3.5873     -2.0262
  3105.7000      9.3208   4252.6660      0.0000      3.5774     -2.0119
  3105.6500      9.3208   4252.6660      0.0000      3.5774     -2.0092
  3105.6000      9.3025   4248.5098      0.0000      3.5774     -2.0079
  3105.5500      9.3025   4240.7637      0.0000      3.5469     -2.0064
  3105.5000      9.3025   4240.7637      0.0000      3.5469     -2.0165
  3105.4500      9.3756   4237.1528      0.0000      3.5370     -2.0089
  3105.4000      9.3756   4244.0430      0.0000      3.5774     -2.0079
  3105.3500      9.3756   4244.0430      0.0000      3.5774     -2.0174
  3105.3000      9.3756   4246.6094      0.0000      3.5774     -2.0110
  3105.2500      9.3756   4241.5444      0.0000      3.5675     -2.0031
  3105.2000      9.3756   4241.5444      0.0000      3.5675     -2.0082
  3105.1500      9.3756   4241.6016      0.0000      3.5469     -2.0006
  3105.1000      9.3208   4243.9644      0.0000      3.5675     -2.0107
  3105.0500      9.3208   4243.9644      0.0000      3.5675     -2.0122
  3105.0000      9.3208   4242.1362      0.0000      3.5774     -2.0034
  3104.9500      9.3756   4239.1563      0.0000      3.5675     -2.0165
  3104.9000      9.3756   4239.1563      0.0000      3.5675     -2.0031
  3104.8500      9.3756   4231.3833      0.0000      3.5675     -1.9982
  3104.8000      9.3391   4219.1104      0.0000      3.5774     -2.0085
  3104.7500      9.3391   4219.1104      0.0000      3.5774     -2.0143
  3104.7000      9.3391   4214.4351      0.0000      3.5774     -2.0320
  3104.6500      9.3025   4218.5757      0.0000      3.5568     -1.9991
  3104.6000      9.3025   4218.5757      0.0000      3.5568     -1.9896
  3104.5500      9.3025   4225.5098      0.0000      3.5774     -2.0073
  3104.5000      9.3574   4238.1807      0.0000      3.5675     -2.0177
  3104.4500      9.3574   4238.1807      0.0000      3.5675     -2.0037
  3104.4000      9.3574   4252.4893      0.0000      3.5774     -2.0284
  3104.3500      9.2141   4252.4893      0.0000      3.5774     -2.0143
  3104.3000      9.2141   4254.6948      0.0000      3.5675     -2.0024
  3104.2500      9.2141   4245.8462      0.0000      3.5469     -2.0195
  3104.2000      9.2690   4245.8462      0.0000      3.5469     -2.0055
  3104.1500      9.2690   4236.7368      0.0000      3.5774     -1.9863
  3104.1000      9.2690   4228.9600      0.0000      3.5370     -2.0055
  3104.0500      9.3208   4228.9600      0.0000      3.5370     -2.0122
  3104.0000      9.3208   4222.0659      0.0000      3.5469     -2.0104
  3103.9500      9.3208   4218.5200      0.0000      3.5774     -2.0143
  3103.9000      9.2842   4218.5200      0.0000      3.5774     -1.9976
  3103.8500      9.2842   4215.8496      0.0000      3.5469     -2.0220
  3103.8000      9.2842   4211.0547      0.0000      3.5774     -2.0223
  3103.7500      9.4275   4211.0547      0.0000      3.5774     -1.9854
  3103.7000      9.4275   4208.6646      0.0000      3.5370     -2.0375
  3103.6500      9.4275   4211.7188      0.0000      3.5774     -2.0012
  3103.6000      9.3391   4211.7188      0.0000      3.5774     -1.9988
  3103.5500      9.3391   4213.9673      0.0000      3.5675     -1.9985
  3103.5000      9.3391   4212.4312      0.0000      3.5469     -2.0122
  3103.4500      9.3391   4212.4312      0.0000      3.5469     -2.0040
  3103.4000      9.3391   4211.3159      0.0000      3.5469     -2.0128
  3103.3500      9.3391   4208.9512      0.0000      3.5774     -1.9911
  3103.3000      9.3391   4208.9512      0.0000      3.5774     -2.0140
  3103.2500      9.3025   4203.0718      0.0000      3.5675     -2.0211
  3103.2000      9.3025   4201.9653      0.0000      3.5469     -2.0204
  3103.1500      9.3025   4201.9653      0.0000      3.5469     -2.0015
  3103.1000      9.2842   4208.8687      0.0000      3.5774     -2.0180
  3103.0500      9.2842   4215.7627      0.0000      3.5774     -1.9982
  3103.0000      9.2842   4215.7627      0.0000      3.5774     -2.0171
  3102.9500      9.3208   4223.0820      0.0000      3.5774     -2.0089
  3102.9000      9.3208   4232.0571      0.0000      3.5469     -1.9994
  3102.8500      9.3208   4232.0571      0.0000      3.5469     -2.0015
  3102.8000      9.2842   4232.1611      0.0000      3.5675     -2.0198
  3102.7500      9.2842   4232.1611      0.0000      3.5675     -2.0110
  3102.7000      9.2842   4226.1294      0.0000      3.5675     -2.0244
  3102.6500      9.3025   4226.7734      0.0000      3.5774     -2.0290
  3102.6000      9.3025   4226.7734      0.0000      3.5774     -1.9942
  3102.5500      9.3025   4228.5371      0.0000      3.5774     -1.9933
  3102.5000      9.3208   4226.8062      0.0000      3.5469     -2.0076
  3102.4500      9.3208   4226.8062      0.0000      3.5469     -2.0125
  3102.4000      9.3208   4230.6602      0.0000      3.5675     -2.0085
  3102.3500      9.2842   4236.5942      0.0000      3.5774     -1.9991
  3102.3000      9.2842   4236.5942      0.0000      3.5774     -2.0146
  3102.2500      9.2842   4237.8716      0.0000      3.5469     -2.0134
  3102.2000      9.3756   4243.2231      0.0000      3.5675     -2.0327
  3102.1500      9.3756   4243.2231      0.0000      3.5675     -2.0089
  3102.1000      9.3756   4252.3691      0.0000      3.5774     -2.0021
  3102.0500      9.3756   4255.2261      0.0000      3.5675     -2.0043
  3102.0000      9.3756   4255.2261      0.0000      3.5675     -2.0064
  3101.9500      9.3756   4256.5430      0.0000      3.5774     -2.0110
  3101.9000      9.3756   4259.1030      0.0000      3.5774     -2.0116
  3101.8500      9.3025   4259.1030      0.0000      3.5774     -2.0089
  3101.8000      9.3025   4254.7422      0.0000      3.5774     -2.0143
  3101.7500      9.3025   4248.4937      0.0000      3.5873     -2.0073
  3101.7000      9.3756   4248.4937      0.0000      3.5873     -2.0183
  3101.6500      9.3756   4247.7651      0.0000      3.5774     -2.0201
  3101.6000      9.3756   4244.6880      0.0000      3.5774     -2.0146
  3101.5500      9.2690   4244.6880      0.0000      3.5774     -2.0119
  3101.5000      9.2690   4238.1528      0.0000      3.5774     -2.0186
