~Version Information
VERS.             2.0 : CWLS log ASCII standard - Version 2.0
WRAP.             NO  : One line per depth step
#
~Well Information Block
#MNEM.UNIT                   Data Type:Information
#__________________________________________________________
 STRT .M           2450.13480  :START INDEX                  
  STOP.M           3113.3796 : STOP INDEX                    
 STEP .M              0.00000  :STEP                         
  NULL.              -999.25 : NULL VALUE                    
  COMP.              Statoil : COMPANY                       
  WELL.            15_9_F-12 : WELL                          
   FLD.                Volve : FIELD                         
   LOC.           Maersk Inspirer : LOCATION                      
  PROV.                      : PROVINCE                      
  CNTY.                      : COUNTY                        
  STAT.                      : STATE                         
  CTRY.                      : COUNTRY                       
  SRVC.              SLB D&M : SERVICE COMPANY               
  DATE.                      : LOG DATE                      
   UWI.                      : UNIQUE WELL ID                
   API.                      : API NUMBER                    
#
~Curve Information Block
#MNEM.UNIT                     : Curve Description
#---------                     --------------------
DEPT        .M                 : Bit Depth 2hz                                                   
TVDE        .M                 : SVY TVD_EXTR 2hz                                                
ARC_GR_RT   .GAPI              : ARC Gamma Ray, Real-Time                                        
ROP5        .M/HR              : 5ft ROP 2hz                                                     
SWOB        .KKGF              : Surface Weight on Bit 2hz                                       
RPM         .RPM               : SRF SRPM 2hz                                                    
TFLO        .LPM               : HSPM Total Pump Flow 2hz                                        
TRPM_RT     .RPM               : MWD TUR_RPM 2hz                                                 
SPPA        .BAR               : SRF PUMPRS 2hz                                                  
TQA         .KMN               : SRF STOR 2hz                                                    
SHKRSK_RT   .----              : MWD SHKRSK 2hz                                                  
SHK2_RT     .----              : ARC Shock Level, Real-Time                                      
SHK_ADN_RT  .----              : ADN Shock Level, Real-Time                                      
PDSHKRSK    .----              : PowerDrive Shock Risk 2hz                                       
ECD_ARC     .G/C3              : Equivalent Circulating Density                                  
ATMP        .DEGC              : ARC Annular Temperature                                         
APRS_ARC    .BAR               : ARC Annular Pressure                                            
#
~Parameter Information Block
#MNEM.UNIT                       Value:Description
#__________________________________________________________
#
~Other Information Block

#
~A    DEPT       TVDE  ARC_GR_RT       ROP5       SWOB        RPM       TFLO    TRPM_RT       SPPA        TQA  SHKRSK_RT    SHK2_RT SHK_ADN_RT   PDSHKRSK    ECD_ARC       ATMP   APRS_ARC
# ...
 2515.6667  2428.7551    -999.25    13.0560     1.2301    70.0492  3323.2142  2500.0000   196.4125    24.4713     0.0000    -999.25    -999.25    -999.25     1.3908    55.0000   330.8795
 2515.8191  2428.8959    -999.25    13.5434     0.9327    69.9836  3323.2142    -999.25   196.2576    25.5922    -999.25     0.0000    -999.25    -999.25     1.3907    55.0000   330.8795
 2515.9717  2429.0362    -999.25    14.0776     0.9573    69.8853  3323.2142    -999.25   196.1119    27.2441    -999.25    -999.25    -999.25     0.0000     1.3910    56.0000   330.9485
 2516.1240  2429.1777   129.3108    14.6468     1.0778    69.2951  3323.2142  2500.0000   195.8929    26.5093     0.0000    -999.25    -999.25    -999.25     1.3909    56.0000   330.9485
 2516.2764  2429.3276    -999.25    15.2642     1.0146    69.1475  3323.2142    -999.25   195.7388    26.1091    -999.25     0.0000    -999.25    -999.25     1.3908    56.0000   330.9485
 2516.4287  2429.4689    -999.25    15.9397     0.9658    69.8361  3323.2142    -999.25   195.9702    28.0506     0.0000    -999.25    -999.25     0.0000     1.3907    56.0000   330.9485
 2516.5813  2429.6093    -999.25    16.6760     1.1311    68.7869  3323.2142  2500.0000   196.3247    25.2427    -999.25    -999.25    -999.25    -999.25     1.3912    56.0000   331.0864
 2516.7336  2429.7506    -999.25    17.4868     1.0508    68.4754  3323.2142    -999.25   196.7247    26.2331    -999.25     0.0000    -999.25     0.0000     1.3911    56.0000   331.0864
 2516.8860  2429.9005   132.3355    17.9006     1.3208    69.1452  3323.2142    -999.25   196.7735    24.2932     0.0000    -999.25    -999.25    -999.25     1.3913    56.0000   331.1553
 2517.0383  2430.0409    -999.25    17.9696     1.6391    68.8525  3323.2142  2460.9375   196.9331    24.6626    -999.25     0.0000     0.0000    -999.25     1.3918    56.0000   331.2932
 2517.1909  2430.1822    -999.25    17.9686     1.2221    69.2951  3323.2142    -999.25   197.1034    25.2395    -999.25    -999.25    -999.25     0.0000     1.3918    56.0000   331.2932
 2517.3433  2430.3227    -999.25    17.9687     1.6260    68.7049  3323.2142  2500.0000   196.6781    25.2176     0.0000    -999.25    -999.25    -999.25     1.3920    56.0000   331.3622
 2517.4956  2430.4734   129.3108    17.9705     1.2751    69.6557  3323.2142    -999.25   196.3949    25.4833    -999.25     0.0000    -999.25    -999.25     1.3919    56.0000   331.3622
 2517.6479  2430.6138    -999.25    17.9739     1.4004    69.5410  3323.2142    -999.25   196.3379    25.4573    -999.25    -999.25    -999.25     0.0000     1.3918    56.0000   331.3622
 2517.8003  2430.7553   126.3210    17.9730     1.0739    69.3607  3323.2142  2500.0000   196.1983    26.6966     0.0000    -999.25    -999.25    -999.25     1.3917    56.0000   331.3622
 2517.9529  2430.8955    -999.25    17.9668     1.5377    68.4590  3323.2142    -999.25   196.1117    24.7443    -999.25     0.0000    -999.25    -999.25     1.3916    56.0000   331.3622
 2518.1052  2431.0455    -999.25    17.9663     1.1335    69.6394  3323.2142    -999.25   196.2749    26.0326     0.0000    -999.25    -999.25     0.0000     1.3915    56.0000   331.3622
 2518.2576  2431.1868    -999.25    17.9619     1.2038    69.0164  3323.2142  2500.0000   196.4181    26.8433    -999.25    -999.25    -999.25    -999.25     1.3918    56.0000   331.4311
 2518.4099  2431.3273   129.3108    18.0577     2.2293    68.0690  3323.2142    -999.25   196.5377    24.3909    -999.25     0.0000    -999.25     0.0000     1.3917    56.0000   331.4311
 2518.5625  2431.4684    -999.25    15.1825     3.2014    69.5398  3323.2142  2500.0000   196.6634    24.3222     0.0000     0.0000     0.0000    -999.25     1.3916    56.0000   331.4311
 2518.7148  2431.6089    -999.25    14.5675     3.8966    68.1631  3323.2142  2500.0000   196.9786    23.5639     0.0000    -999.25    -999.25     0.0000     1.3924    56.0000   331.6379
 2518.8672  2431.7596    -999.25    11.6348     3.0023    69.4462  3323.2142  2500.0000   196.6503    26.1012     0.0000     0.0000    -999.25     0.0000     1.3923    56.0000   331.6379
 2519.0195  2431.8998    -999.25    11.4146     4.3806    70.4051  3323.2142  2500.0000   196.7702    24.1843     0.0000    -999.25    -999.25    -999.25     1.3925    56.0000   331.7069
 2519.1721  2432.0403   138.4898    11.0453     4.1116    69.0538  3323.2142    -999.25   196.8619    28.0610    -999.25     0.0000    -999.25     0.0000     1.3924    56.0000   331.7069
 2519.3245  2432.1814    -999.25     9.5821     3.1592    68.6901  3264.9665  2500.0000   196.0665    26.2605     0.0000     0.0000    -999.25     0.0000     1.3923    56.0000   331.7069
 2519.4768  2432.3314    -999.25     9.1379     4.4158    68.1710  3195.9655  2500.0000   195.9406    24.8135    -999.25     0.0000    -999.25    -999.25     1.3923    56.0000   331.7069
 2519.6292  2432.4724    -999.25     8.5774     4.5585    68.8633  3236.1894  2500.0000   195.7916    27.0624     0.0000     0.0000    -999.25     0.0000     1.3922    56.0000   331.7069
 2519.7815  2432.6130   132.3355     7.9649     4.6082    68.3063  3230.1645  2500.0000   195.6698    25.9217     0.0000     0.0000     0.0000     0.0000     1.3921    56.0000   331.7069
 2519.9341  2432.7539    -999.25     7.3124     3.1582    68.1878  3179.2699  2500.0000   195.3145    26.0344     0.0000     0.0000    -999.25     0.0000     1.3923    56.0000   331.7758
 2520.0864  2432.9038    -999.25     7.2206     4.1929    68.8872  3243.6832  2500.0000   195.3686    25.1661     0.0000     0.0000    -999.25     0.0000     1.3922    56.0000   331.7758
 2520.2388  2433.0443   138.4898     6.9419     4.1682    68.6316  3166.0905  2500.0000   195.9195    25.8214     0.0000     0.0000    -999.25    -999.25     1.3927    56.0000   331.9137
 2520.3911  2433.1854    -999.25     7.5097     4.2831    68.8712  3226.8749  2500.0000   196.1169    27.2134     0.0000    -999.25    -999.25     0.0000     1.3929    56.0000   331.9827
 2520.5437  2433.3259    -999.25     7.1898     4.2072    68.7222  3239.5187  2500.0000   196.5179    26.5719     0.0000     0.0000    -999.25     0.0000     1.3928    56.0000   331.9827
 2520.6960  2433.4762    -999.25     6.9532     3.7862    68.2276  3299.9907  2500.0000   196.8199    28.2438     0.0000     0.0000    -999.25     0.0000     1.3928    56.0000   331.9827
 2520.8484  2433.6168   126.3210     7.3759     4.0324    67.5203  3292.2330    -999.25   196.7700    26.9056    -999.25     0.0000    -999.25     0.0000     1.3927    56.0000   331.9827
 2521.0007  2433.7578    -999.25     7.3514     1.3686    68.6033  3295.3839  2500.0000   196.7574    27.4407     0.0000     0.0000     0.0000    -999.25     1.3926    56.0000   331.9827
 2521.1533  2433.8981    -999.25     7.7050     1.6221    70.0416  3321.9825    -999.25   195.9273    28.6230     0.0000    -999.25    -999.25     0.0000     1.3925    56.0000   331.9827
 2521.3057  2434.0480    -999.25     8.3138     1.8549    67.7636  3319.9918  2500.0000   196.3172    26.2039    -999.25    -999.25    -999.25    -999.25     1.3927    56.0000   332.0516
 2521.4580  2434.1889    -999.25     9.1891     1.4959    67.9091  3257.1526    -999.25   196.2523    27.0686    -999.25     0.0000    -999.25    -999.25     1.3926    56.0000   332.0516
 2521.6104  2434.3296   138.4898    10.4177     1.4539    69.1481  3318.2911    -999.25   195.3588    27.3350     0.0000    -999.25    -999.25     0.0000     1.3928    56.0000   332.1206
 2521.7627  2434.4707    -999.25    11.4869     1.4284    69.2182  3278.0994  2500.0000   195.3488    27.8902    -999.25    -999.25    -999.25    -999.25     1.3933    56.0000   332.2585
 2521.9153  2434.6202    -999.25    12.4864     1.2896    68.2000  3278.0989    -999.25   195.5600    24.9419    -999.25     0.0000    -999.25    -999.25     1.3933    56.0000   332.2585
 2522.0676  2434.7615    -999.25    13.9034     1.2111    68.5926  3285.4690    -999.25   195.4413    25.2691     0.0000    -999.25     0.0000     0.0000     1.3932    56.0000   332.2585
