~Version Information
VERS.                      2.0: CWLS Log ASCII Standard - VERSION 2.0
WRAP.                       NO: One line per depth step
~Well Information Block
STRT.M               3169.8000: START DEPTH
STOP.M               3077.9500: STOP DEPTH
STEP.M                 -0.0500: STEP
NULL.                -999.2500: NULL VALUE
COMP.                  Statoil: COMPANY
WELL.                15/9-F-12: WELL
FLD.                     Volve: FIELD
LOC.                          : LOCATION
SRVC.          Halliburton Logging Services: SERVICE COMPANY
DATE.          Wed Nov 26 07-41-16 2014: LOG DATE
UWI.                          : UNIQUE WELL ID
SECT.                         : SECTION
TOWN.                         : TOWNSHIP
RANG.                         : RANGE
API.                          : API#
OS.                           : OTHER SERVICES
PDAT.FT                       : PERMANENT DATUM
EEL.FT                        : ELEVATION
LMF.FT                        : LOG MEASURED FROM
DMF.FT                        : DRILLING MEASURED FROM
EKB.FT                        : KB
EDF.FT                        : DF
EGL.FT                        : GL
DATE1.                        : DATE1
RUN1.                         : RUN NUMBER
TDD1.FT                       : DEPTH DRILLER
TDL1.FT                       : DEPTH LOGGER
BLI1.FT                       : BOTTOM LOGGED INTERVAL
TLI1.FT                       : TOP LOG INTERVAL
CDD1.IN_FT                    : CASING DRILLER
CDL1.FT                       : CASING LOGGER
BS1.IN                        : BIT SIZE
DFT1.                         : TYPE FLUID IN HOLE
DFDV1.GM/C3_CP                : DENSITY/VISCOSITY
DFPL1.C3                      : PH/FLUID LOSS
MSS1.                         : SOURCE OF SAMPLE
RMT1.OHHM_DEGF                : RM@MEASURED TEMP
RMFT1.OHMM_DEGF                : RMF@MEASURED TEMP
RMCT1.OHMM_DEGF                : RMC@MEASURED TEMP
RMFS1.                        : SOURCE OF RMF/RMC
RMBT1.OHMM_DEGF                : RM@BHT
TCS1.                         : TIME CIRCULATION STOPPED
TLOB1.                        : TIME LOGGER ON BOTTOM
BHT1.DEGF                     : MAXIMUM RECORDED TEMPERATURE
LUN1.                         : EQUIPMENT NUMBER
LUL1.                         : LOCATION
ENGI1.                        : RECORDED BY
WITN1.                        : WITNESSED BY
~Curve Information Block
DEPT.M             0 000 00 00: Depth
LSPD.M/MIN                   0: Line Speed
LTEN.LB                      0: Surface Line Tension
MINMK.                       0: Minute Mark Ticks
GR.GAPI                      0: Gamma Ray
CCL.                         0: Casing Collar Locator
ACCX.                        0: X Axis Accelerometer
ACCY.                        0: Y Axis Accelerometer
ACCZ.                        0: Z Axis Accelerometer
RB.DEG                       0: Relative Bearing
DEVI.DEG                     0: Deviation
TOTG.GEE                     0: Total G
RBRef.DEG                    0: RB Reference
IntTemp.DEGF                 0: Internal Electronics Temperature
~Parameter Information Block
~A  Depth       LSPD        LTEN       MINMK         GR         CCL         ACCX        ACCY        ACCZ         RB         DEVI        TOTG       RBRef      IntTemp   
  3169.8000      0.1768   3553.5615      0.0000     41.3536   -999.2500  -2482.1001  -1549.9000   2146.3000    211.9819      0.0248   3628.9963    148.0181    224.5620
  3169.7500      0.9815   3534.2817      0.0000     45.1130   -999.2500  -2453.5000  -1576.2000   2139.5000    212.7179      0.0249   3616.8396    147.2821    224.5522
  3169.7000      1.7831   3572.1113      0.0000     52.0679   -999.2500  -2460.6001  -1577.3000   2138.6001    212.6608      0.0249   3621.6072    147.3392    224.5430
  3169.6500      2.6944   3752.5305      0.0000     55.5767   -999.2500  -2460.0000  -1580.6000   2162.3999    212.7216      0.0247   3636.7388    147.2784    224.5304
  3169.6000      2.6944   3831.0161      0.0000     56.4539   -999.2500  -2460.7000  -1584.6000   2180.5000    212.7800      0.0247   3649.7373    147.2200    224.5191
  3169.5500      3.6606   3807.8794      0.0000     56.8925   -999.2500  -2456.8000  -1582.8000   2180.1001    212.7918      0.0247   3646.0881    147.2082    224.5191
  3169.5000      4.1057   3801.2178      0.0000     53.1958   -999.2500  -2463.2000  -1593.3000   2184.8000    212.8965      0.0246   3657.7739    147.1035    224.5241
  3169.4500      4.1057   3905.4414      0.0000     45.2383   -999.2500  -2462.8999  -1597.6000   2195.3999    212.9701      0.0246   3665.7854    147.0299    224.5297
  3169.4000      4.4623   4026.5330      0.0000     39.4739   -999.2500  -2467.0000  -1573.1000   2208.0000    212.5239      0.0246   3665.5144    147.4761    224.5473
  3169.3500      4.4623   4065.7651      0.0000     38.4087   -999.2500  -2462.0000  -1570.2000   2226.3999    212.5287      0.0245   3672.0332    147.4713    224.5620
  3169.3000      4.8219   4016.8364      0.0000     44.1105    367.0000  -2472.8000  -1581.9000   2247.5000    212.6079      0.0243   3697.0806    147.3921    224.5691
  3169.2500      4.9621   4002.5105      0.0000     49.9376    367.0000  -2473.0000  -1577.9000   2264.3000    212.5399      0.0243   3705.7458    147.4601    224.5691
  3169.2000      4.9621   4053.0530      0.0000     50.7521    365.0000  -2472.2000  -1593.1000   2263.8999    212.7980      0.0242   3711.4663    147.2020    224.5684
  3169.1500      4.9804   4173.9839      0.0000     45.0504    370.0000  -2460.6001  -1597.6000   2249.7000    212.9946      0.0243   3697.0298    147.0054    224.5571
  3169.1000      4.9804   4211.9653      0.0000     39.8498    366.0000  -2446.1001  -1587.0000   2220.6001    212.9750      0.0246   3665.1111    147.0250    224.5529
  3169.0500      5.1786   4189.9492      0.0000     38.9726    363.0000  -2432.1001  -1615.5000   2192.1001    213.5937      0.0247   3651.0620    146.4063    224.5543
  3169.0000      5.1786   4170.5337      0.0000     40.2884    364.0000  -2426.7000  -1628.4000   2188.5000    213.8630      0.0247   3651.0398    146.1370    224.5529
  3168.9500      5.5352   4229.7837      0.0000     43.2960    366.0000  -2400.7000  -1680.0000   2150.3999    214.9842      0.0248   3634.5537    145.0158    224.5501
  3168.9000      5.5352   4307.7144      0.0000     46.3661    365.0000  -2358.8999  -1694.6000   2122.6001    215.6929      0.0250   3597.4309    144.3071    224.5494
  3168.8500      5.8552   4357.3818      0.0000     49.6243    366.0000  -2355.3000  -1692.5000   2113.1001    215.7007      0.0251   3588.4797    144.2993    224.5529
  3168.8000      5.8552   4348.6074      0.0000     52.9451    367.0000  -2337.3999  -1736.0000   2109.3999    216.6015      0.0250   3595.3723    143.3985    224.5529
  3168.7500      6.2484   4314.5625      0.0000     59.0855    364.0000  -2319.1001  -1828.1000   2143.8000    218.2480      0.0247   3649.1167    141.7520    224.5578
  3168.7000      6.2484   4366.2290      0.0000     59.7121    369.0000  -2304.0000  -1836.9000   2135.2000    218.5641      0.0247   3638.9143    141.4359    224.5641
  3168.6500      6.2484   4459.3984      0.0000     57.8950    365.0000  -2290.5000  -1825.8000   2139.2000    218.5590      0.0248   3627.1355    141.4410    224.5684
  3168.6000      6.5166   4524.7656      0.0000     51.8173    367.0000  -2293.8999  -1843.6000   2154.8000    218.7887      0.0247   3647.4651    141.2113    224.5670
  3168.5500      6.5166   4484.9219      0.0000     46.8674    366.0000  -2289.5000  -1852.1000   2153.2000    218.9713      0.0247   3648.0618    141.0287    224.5648
  3168.5000      6.5715   4473.7212      0.0000     42.2308    363.0000  -2272.3000  -1834.7000   2168.6001    218.9181      0.0247   3637.6226    141.0819    224.5634
  3168.4500      6.5715   4535.2866      0.0000     43.1706    364.0000  -2268.5000  -1844.4000   2191.3000    219.1128      0.0246   3653.7241    140.8872    224.5620
  3168.4000      6.6599   4632.0811      0.0000     45.7396    367.0000  -2259.8000  -1830.9000   2209.3999    219.0145      0.0246   3652.4429    140.9855    224.5529
  3168.3500      6.6599   4657.0352      0.0000     48.8724    373.0000  -2273.0000  -1844.1000   2223.3999    219.0526      0.0245   3675.6960    140.9474    224.5529
  3168.3000      6.6599   4641.9229      0.0000     52.3186    364.0000  -2280.6001  -1863.9000   2222.1001    219.2586      0.0244   3689.5784    140.7414    224.5557
  3168.2500      6.8397   4625.3823      0.0000     54.1356    365.0000  -2266.2000  -1888.2000   2233.5000    219.8011      0.0243   3699.9302    140.1989    224.5550
  3168.2000      6.8397   4660.2197      0.0000     57.2058    364.0000  -2225.5000  -1914.7000   2254.5000    220.7069      0.0243   3701.5803    139.2931    224.5487
  3168.1500      7.2146   4721.9365      0.0000     59.9627    363.0000  -2183.2000  -2006.0000   2221.3999    222.5779      0.0243   3704.7288    137.4221    224.5508
  3168.1000      7.2146   4783.1768      0.0000     62.0304    377.0000  -2141.6001  -2027.3000   2203.5000    223.4295      0.0244   3681.2781    136.5705    224.5536
  3168.0500      7.2146   4766.8071      0.0000     60.6519    366.0000  -2073.1001  -2131.8000   2173.3000    225.7998      0.0244   3683.1438    134.2002    224.5508
  3168.0000      7.5529   4737.6255      0.0000     56.9552    368.0000  -1974.7000  -2203.0000   2143.3000    228.1279      0.0246   3653.2703    131.8721    224.5515
  3167.9500      7.5529   4774.7695      0.0000     54.0730    365.0000  -1896.8000  -2243.8000   2133.3000    229.7904      0.0248   3630.9033    130.2096    224.5564
  3167.9000      7.9096   4902.5576      0.0000     49.6870    369.0000  -1851.3000  -2320.6001   2110.0000    231.4183      0.0247   3642.0593    128.5817    224.5599
  3167.8500      7.9096   4926.3608      0.0000     49.9376    366.0000  -1818.5000  -2339.8999   2098.0000    232.1467      0.0248   3630.9333    127.8533    224.5571
  3167.8000      7.9096   4894.7061      0.0000     51.4414    366.0000  -1782.5000  -2344.3000   2126.1001    232.7523      0.0248   3632.2651    127.2477    224.5578
  3167.7500      7.9096   4858.5723      0.0000     53.5717    367.0000  -1768.7000  -2362.3000   2138.3999    233.1771      0.0247   3644.3813    126.8229    224.5501
  3167.7000      8.3028   4873.4219      0.0000     57.5191    365.0000  -1750.6000  -2363.8000   2157.1001    233.4768      0.0247   3647.6338    126.5232    224.5487
  3167.6500      8.3028   4908.1138      0.0000     59.1482    363.0000  -1757.4000  -2374.8999   2164.3999    233.4990      0.0246   3662.4080    126.5010    224.5508
  3167.6000      8.3028   4914.2661      0.0000     58.0203    366.0000  -1752.6000  -2389.0000   2191.3000    233.7358      0.0244   3685.2034    126.2642    224.5620
  3167.5500      8.4826   4858.9736      0.0000     53.6344    365.0000  -1731.5000  -2401.8000   2217.7000    234.2115      0.0243   3699.3147    125.7885    224.5719
  3167.5000      8.4826   4815.8198      0.0000     47.7446    367.0000  -1735.1000  -2409.8999   2223.1001    234.2466      0.0243   3709.4963    125.7534    224.5782
  3167.4500      8.4826   4817.1724      0.0000     41.4162    374.0000  -1712.6000  -2450.1001   2229.5000    235.0468      0.0241   3729.1633    124.9532    224.5782
