~Version Information
VERS.                      2.0: CWLS Log ASCII Standard - VERSION 2.0
WRAP.                       NO: One line per depth step
~Well Information Block
STRT.M               3169.8000: START DEPTH
STOP.M               3077.9500: STOP DEPTH
STEP.M                 -0.0500: STEP
NULL.                -999.2500: NULL VALUE
COMP.                  Statoil: COMPANY
WELL.                15/9-F-12: WELL
FLD.                     Volve: FIELD
LOC.                          : LOCATION
SRVC.          Halliburton Logging Services: SERVICE COMPANY
DATE.          Wed Nov 26 07-41-16 2014: LOG DATE
UWI.                          : UNIQUE WELL ID
SECT.                         : SECTION
TOWN.                         : TOWNSHIP
RANG.                         : RANGE
API.                          : API#
OS.                           : OTHER SERVICES
PDAT.FT                       : PERMANENT DATUM
EEL.FT                        : ELEVATION
LMF.FT                        : LOG MEASURED FROM
DMF.FT                        : DRILLING MEASURED FROM
EKB.FT                        : KB
EDF.FT                        : DF
EGL.FT                        : GL
DATE1.                        : DATE1
RUN1.                         : RUN NUMBER
TDD1.FT                       : DEPTH DRILLER
TDL1.FT                       : DEPTH LOGGER
BLI1.FT                       : BOTTOM LOGGED INTERVAL
TLI1.FT                       : TOP LOG INTERVAL
CDD1.IN_FT                    : CASING DRILLER
CDL1.FT                       : CASING LOGGER
BS1.IN                        : BIT SIZE
DFT1.                         : TYPE FLUID IN HOLE
DFDV1.GM/C3_CP                : DENSITY/VISCOSITY
DFPL1.C3                      : PH/FLUID LOSS
MSS1.                         : SOURCE OF SAMPLE
RMT1.OHHM_DEGF                : RM@MEASURED TEMP
RMFT1.OHMM_DEGF                : RMF@MEASURED TEMP
RMCT1.OHMM_DEGF                : RMC@MEASURED TEMP
RMFS1.                        : SOURCE OF RMF/RMC
RMBT1.OHMM_DEGF                : RM@BHT
TCS1.                         : TIME CIRCULATION STOPPED
TLOB1.                        : TIME LOGGER ON BOTTOM
BHT1.DEGF                     : MAXIMUM RECORDED TEMPERATURE
LUN1.                         : EQUIPMENT NUMBER
LUL1.                         : LOCATION
ENGI1.                        : RECORDED BY
WITN1.                        : WITNESSED BY
~Curve Information Block
DEPT.M             0 000 00 00: Depth
LSPD.M/MIN                   0: Line Speed
LTEN.LB                      0: Surface Line Tension
MINMK.                       0: Minute Mark Ticks
GR.GAPI                      0: Gamma Ray
CCL.                         0: Casing Collar Locator
ACCX.                        0: X Axis Accelerometer
ACCY.                        0: Y Axis Accelerometer
ACCZ.                        0: Z Axis Accelerometer
RB.DEG                       0: Relative Bearing
DEVI.DEG                     0: Deviation
TOTG.GEE                     0: Total G
RBRef.DEG                    0: RB Reference
IntTemp.DEGF                 0: Internal Electronics Temperature
~Parameter Information Block
~A  Depth       LSPD        LTEN       MINMK         GR         CCL         ACCX        ACCY        ACCZ         RB         DEVI        TOTG       RBRef      IntTemp   
# ...
  3124.2000      9.6591   4627.4351      0.0000     44.5491    369.0000  -1579.2000  -2418.3000   2255.7000    236.8546      0.0246   3664.7278    123.1454    224.6105
  3124.1500      9.6439   4677.3721      0.0000     44.6744    370.0000  -1520.1000  -2502.7000   2270.7000    238.7262      0.0243   3705.4404    121.2738    224.6162
  3124.1000      9.6439   4688.3403      0.0000     43.2960    352.0000  -1458.2000  -2540.3000   2221.5000    240.1430      0.0245   3676.2119    119.8570    224.6345
  3124.0500      9.6439   4676.4897      0.0000     41.7295    362.0000  -1410.5000  -2550.8999   2213.2000    241.0600      0.0246   3659.8982    118.9401    224.6555
  3124.0000      9.6591   4691.1440      0.0000     39.0353    373.0000  -1341.5000  -2570.1001   2212.5000    242.4371      0.0247   3646.9429    117.5629    224.6816
  3123.9500      9.6591   4722.9175      0.0000     35.7771    363.0000  -1282.3000  -2620.8000   2182.6001    243.9285      0.0247   3643.7109    116.0715    224.7012
  3123.9000      9.6591   4722.7148      0.0000     32.8322    339.0000  -1203.6000  -2660.0000   2133.8000    245.6541      0.0249   3616.2627    114.3459    224.7153
  3123.8500      9.6591   4667.8691      0.0000     29.6367    346.0000  -1166.9000  -2656.2000   2111.7000    246.2836      0.0251   3588.3604    113.7165    224.7181
  3123.8000      9.6591   4595.4673      0.0000     27.5691    351.0000  -1097.8000  -2670.6001   2124.3999    247.6540      0.0251   3584.7378    112.3460    224.7167
  3123.7500      9.6591   4566.3628      0.0000     27.4437    371.0000  -1030.6000  -2717.3999   2140.3000    249.2303      0.0249   3609.3328    110.7697    224.7005
  3123.7000      9.6256   4584.8335      0.0000     28.8222    368.0000  -1006.7000  -2743.8999   2136.8000    249.8526      0.0249   3620.5449    110.1474    224.6865
  3123.6500      9.6256   4579.2505      0.0000     30.3260    362.0000   -991.8000  -2747.3000   2157.5000    250.1500      0.0248   3631.2712    109.8500    224.6724
  3123.6000      9.6256   4559.6055      0.0000     31.7671    372.0000   -986.6000  -2749.5000   2190.8000    250.2605      0.0246   3651.4016    109.7394    224.6661
  3123.5500      9.6256   4543.9575      0.0000     33.8974    385.0000   -988.3000  -2749.6001   2218.8000    250.2298      0.0245   3668.8025    109.7702    224.6506
  3123.5000      9.6591   4579.8828      0.0000     34.2107    436.0000   -980.9000  -2749.6001   2231.6001    250.3665      0.0245   3674.5754    109.6335    224.6443
  3123.4500      9.6591   4632.0239      0.0000     32.7696    404.0000   -943.4000  -2769.8999   2231.2000    251.1917      0.0245   3679.7559    108.8083    224.6422
  3123.4000      9.6591   4663.0532      0.0000     30.8272    360.0000   -892.0000  -2813.5000   2248.3999    252.4091      0.0243   3710.3569    107.5908    224.6443
  3123.3500      9.6774   4659.3276      0.0000     29.8874    355.0000   -801.7000  -2881.2000   2266.8000    254.4507      0.0240   3752.6548    105.5493    224.6563
  3123.3000      9.6774   4643.4517      0.0000     28.4463    364.0000   -689.1000  -2954.8999   2246.2000    256.8729      0.0238   3775.1433    103.1271    224.6668
  3123.2500      9.6774   4645.8120      0.0000     27.6944    353.0000   -552.5000  -3016.8000   2231.8999    259.6218      0.0237   3793.1143    100.3782    224.6710
  3123.2000      9.6439   4673.1387      0.0000     28.8222    361.0000   -394.5000  -3052.3000   2218.3999    262.6355      0.0237   3793.8718     97.3645    224.6759
  3123.1500      9.6439   4674.6943      0.0000     31.2658    362.0000   -230.6000  -3090.0000   2211.6001    265.7321      0.0236   3806.8953     94.2680    224.6823
  3123.1000      9.6439   4643.6924      0.0000     32.4563    359.0000    -38.3000  -3051.2000   2180.6001    269.2808      0.0240   3750.5073     90.7192    224.6802
  3123.0500      9.6591   4609.9399      0.0000     34.5240    368.0000    117.8000  -3015.3000   2130.7000    272.2373      0.0244   3694.0212     87.7627    224.6773
  3123.0000      9.6591   4607.1675      0.0000     36.0277    359.0000    308.7000  -2978.7000   2117.3000    275.9168      0.0245   3667.5481     84.0832    224.6823
  3122.9500      9.6591   4623.6616      0.0000     36.8423    365.0000    367.8000  -2920.7000   2114.2000    277.1774      0.0248   3624.3076     82.8226    224.6851
  3122.9000      9.6591   4625.7578      0.0000     36.4037    366.0000    453.4000  -2859.3000   2142.6001    279.0104      0.0250   3601.6528     80.9896    224.6816
  3122.8500      9.6439   4596.8574      0.0000     36.0904    364.0000    515.8000  -2839.6001   2148.5000    280.2953      0.0250   3597.9758     79.7047    224.6724
  3122.8000      9.6439   4583.3677      0.0000     35.4638    366.0000    551.2000  -2837.8000   2148.3000    280.9920      0.0250   3601.6833     79.0080    224.6591
  3122.7500      9.6439   4597.7471      0.0000     34.9626    359.0000    561.1000  -2848.3000   2191.2000    281.1443      0.0247   3637.1697     78.8557    224.6422
  3122.7000      9.6591   4615.0859      0.0000     35.0252    359.0000    582.6000  -2866.3000   2207.5000    281.4893      0.0246   3664.4446     78.5107    224.6295
  3122.6500      9.6591   4625.6816      0.0000     36.1531    368.0000    627.2000  -2852.0000   2217.8999    282.4028      0.0245   3666.9285     77.5972    224.6232
  3122.6000      9.6591   4598.8643      0.0000     37.4062    382.0000    698.5000  -2835.1001   2223.3000    283.8406      0.0245   3669.9807     76.1594    224.6211
  3122.5500      9.6591   4559.6748      0.0000     38.4714    365.0000    748.9000  -2804.3000   2206.2000    284.9521      0.0247   3645.8562     75.0479    224.6239
  3122.5000      9.6591   4546.1226      0.0000     39.0979    351.0000    826.0000  -2809.1001   2208.1001    286.3857      0.0245   3667.2913     73.6143    224.6401
  3122.4500      9.6591   4580.4902      0.0000     37.8448    367.0000    898.4000  -2795.8999   2179.6001    287.8137      0.0246   3657.1621     72.1863    224.6443
  3122.4000      9.6439   4605.2759      0.0000     36.2157    373.0000    954.1000  -2745.3999   2163.3999    289.1637      0.0248   3623.2344     70.8363    224.6485
  3122.3500      9.6439   4610.7300      0.0000     32.5816    364.0000   1018.5000  -2705.8000   2158.8999    290.6270      0.0249   3608.2607     69.3730    224.6584
  3122.3000      9.6439   4573.0820      0.0000     28.0077    372.0000   1041.7000  -2701.8000   2149.5000    291.0845      0.0250   3606.2742     68.9155    224.6689
  3122.2500      9.6256   4568.2012      0.0000     24.8748    367.0000   1084.2000  -2713.3000   2151.8999    291.7810      0.0248   3628.7959     68.2190    224.6738
  3122.2000      9.6256   4582.3511      0.0000     23.1831    377.0000   1115.2000  -2708.1001   2137.0000    292.3819      0.0248   3625.4995     67.6181    224.6844
  3122.1500      9.6256   4559.9487      0.0000     21.6166    352.0000   1152.8000  -2671.3000   2154.3000    293.3426      0.0249   3620.1934     66.6574    224.7034
  3122.1000      9.6256   4528.6143      0.0000     21.9926    358.0000   1174.6000  -2676.8999   2173.3000    293.6914      0.0247   3642.6243     66.3086    224.7069
  3122.0500      9.6591   4491.2739      0.0000     22.8698    362.0000   1176.4000  -2686.5000   2162.8999    293.6483      0.0247   3644.0823     66.3517    224.7104
  3122.0000      9.6591   4495.8965      0.0000     23.6217    370.0000   1195.3000  -2685.8000   2154.2000    293.9912      0.0247   3644.5632     66.0088    224.7132
  3121.9500      9.6591   4552.1226      0.0000     25.1881    373.0000   1216.1000  -2658.7000   2164.6001    294.5796      0.0247   3637.7297     65.4205    224.7224
  3121.9000      9.6439   4583.2422      0.0000     27.3184    370.0000   1215.7000  -2652.8000   2183.0000    294.6206      0.0247   3644.2781     65.3794    224.7252
  3121.8500      9.6439   4583.3477      0.0000     28.7595    366.0000   1230.1000  -2640.5000   2197.3999    294.9789      0.0247   3648.8289     65.0211    224.7364
