~Version Information
VERS.                      2.0: CWLS Log ASCII Standard - VERSION 2.0
WRAP.                       NO: One line per depth step
~Well Information Block
STRT.M               3785.6000: START DEPTH
STOP.M               3572.2000: STOP DEPTH
STEP.M                 -0.0500: STEP
NULL.                -999.2500: NULL VALUE
COMP.                  STATOIL: COMPANY
WELL.               15/9-F-1-C: WELL
FLD.                     VOLVE: FIELD
LOC.                          : LOCATION
SRVC.          Halliburton Logging Services: SERVICE COMPANY
DATE.          Wed Dec 03 05-47-41 2014: LOG DATE
UWI.                          : UNIQUE WELL ID
CTRY.                   NORWAY: COUNTRY
SECT.                         : SECTION
TOWN.                         : TOWNSHIP
RANG.                         : RANGE
API.                          : API#
OS.                   --NONE--: OTHER SERVICES
PDAT.FT                  M.S.L: PERMANENT DATUM
EEL.FT                   54.9M: ELEVATION
LMF.FT                   R.K.B: LOG MEASURED FROM
DMF.FT                   R.K.B: DRILLING MEASURED FROM
EKB.FT                   54.9M: KB
EDF.FT                   54.9M: DF
EGL.FT                    -91M: GL
DATE1.         03-DEC-14 @ 05:47: DATE1
RUN1.                    1 & 2: RUN NUMBER
TDD1.FT                  4094M: DEPTH DRILLER
TDL1.FT                  3782M: DEPTH LOGGER
BLI1.FT                  3772M: BOTTOM LOGGED INTERVAL
TLI1.FT                  3572M: TOP LOG INTERVAL
CDD1.IN_FT                    : CASING DRILLER
CDL1.FT                       : CASING LOGGER
BS1.IN                    8.5": BIT SIZE
DFT1.                SEA WATER: TYPE FLUID IN HOLE
DFDV1.GM/C3_CP          1.03SG: DENSITY/VISCOSITY
DFPL1.C3                      : PH/FLUID LOSS
MSS1.                         : SOURCE OF SAMPLE
RMT1.OHHM_DEGF                : RM@MEASURED TEMP
RMFT1.OHMM_DEGF                : RMF@MEASURED TEMP
RMCT1.OHMM_DEGF                : RMC@MEASURED TEMP
RMFS1.                        : SOURCE OF RMF/RMC
RMBT1.OHMM_DEGF                : RM@BHT
TCS1.                         : TIME CIRCULATION STOPPED
TLOB1.                36 HOURS: TIME LOGGER ON BOTTOM
BHT1.DEGF                 FULL: MAXIMUM RECORDED TEMPERATURE
LUN1.                 12030699: EQUIPMENT NUMBER
LUL1.                   NORWAY: LOCATION
ENGI1.              C.JAMIESON: RECORDED BY
WITN1.                A.ALBAWI: WITNESSED BY
~Curve Information Block
DEPT.M             0 000 00 00: Depth
LSPD.M/MIN                   0: Line Speed
LTEN.LB                      0: Surface Line Tension
MINMK.                       0: Minute Mark Ticks
HVOLTA.V                     0: Head Voltage Apparent
CCL.                         0: Casing Collar Locator
~Parameter Information Block
SRFTEMP.DEGC           12.0000: Surface Temperature
MudWgt.LB/GAL           8.5600: Mud Weight
CASETHCK.IN             0.4530: Casing Thickness
BITSIZE.IN             12.2500: Borehole I.D.
~Other Information
TOOL STRING DEPLOYED BY ALTUS INTERVENTION WIRELINE UNIT ON 7/16" CABLE
CABLE HEAD BUILT BY ALTUS
LOG CORRELATED TO SHLUMBERGER 4.5" HSD OX POWER JET PULS DATED 09.APRIL.2014
CORRELATION LOG IS SHALLOWER BY 1.4M, DEPTH SHIFTED 1.4M DOWN AS PER
CLIENTS REQUEST.
4.655" HSC GUN 10 AND 350 DEGREE PHASING, 39 GR MILLENIUM, 4 SHOTS PER FOOT.
ATTEMPT WAS MADE TO RUN 4 GUNS IN ONE STRING BUT AT 3600M PICK UP WEIGHT 
WAS TOO HIGH TO CONTINUE.  CLIENT D4ECIDED TO SPLIT UP ONTO TWO RUNS.
RUN #1 CCL TO TOP SHOT 3.25 M, CCL STOP DEPT: 3729.75 M
PERFORATION INTERVAL 3733M - 3742.6M
RUN #2 CCL TO TOP SHOT 3.25 M, CCL STOP DEPT: 3711.75 M
PERFORATION INTERVAL 3715M - 3724.6M

~A  Depth       LSPD        LTEN       MINMK       HVOLTA       CCL     
# ...
  3757.6000      9.3025   6456.4814      0.0000      3.5156     -0.0507
  3757.5500      9.3025   6456.4814      0.0000      3.5156     -0.0330
  3757.5000      9.3025   6460.3994      0.0000      3.4653      0.0690
  3757.4500      9.3025   6459.6465      0.0000      3.4554     -0.0165
  3757.4000      9.3025   6459.6465      0.0000      3.4554     -0.0192
  3757.3500      9.3208   6467.8091      0.0000      3.5057     -0.0125
  3757.3000      9.3208   6490.8813      0.0000      3.5553     -0.0040
  3757.2500      9.3208   6490.8813      0.0000      3.5553      0.0262
  3757.2000      9.3025   6513.9023      0.0000      3.5156     -0.0259
  3757.1500      9.3025   6527.5479      0.0000      3.4958     -0.0616
  3757.1000      9.3025   6527.5479      0.0000      3.4958     -0.0018
  3757.0500      9.3208   6528.2007      0.0000      3.5263     -0.0262
  3757.0000      9.3208   6513.5107      0.0000      3.4950     -0.0397
  3756.9500      9.3208   6513.5107      0.0000      3.4950      0.0586
  3756.9000      9.3391   6492.0464      0.0000      3.5049      0.0287
  3756.8500      9.3391   6470.3755      0.0000      3.5156     -0.0195
  3756.8000      9.3391   6470.3755      0.0000      3.5156     -0.1498
  3756.7500      9.3208   6446.3687      0.0000      3.4958     -0.0961
  3756.7000      9.3208   6446.3687      0.0000      3.4958      0.1443
  3756.6500      9.3208   6432.9702      0.0000      3.3943     -0.0568
  3756.6000      9.3391   6446.6113      0.0000      3.4653      0.0653
  3756.5500      9.3391   6446.6113      0.0000      3.4653      0.0424
  3756.5000      9.3391   6472.1899      0.0000      3.5660     -0.0043
  3756.4500      9.3391   6492.3633      0.0000      3.5156      0.0064
  3756.4000      9.3391   6492.3633      0.0000      3.5156     -0.0159
  3756.3500      9.3391   6517.5190      0.0000      3.4752     -0.0082
  3756.3000      9.3025   6549.1006      0.0000      3.4653     -0.0079
  3756.2500      9.3025   6549.1006      0.0000      3.4653     -0.0128
  3756.2000      9.3025   6571.8799      0.0000      3.4859     -0.0061
  3756.1500      9.3025   6588.2280      0.0000      3.5461     -0.0140
  3756.1000      9.3025   6588.2280      0.0000      3.5461     -0.0513
  3756.0500      9.3025   6604.7466      0.0000      3.5561     -0.0037
  3756.0000      9.3025   6608.1025      0.0000      3.4851      0.0189
  3755.9500      9.2690   6608.1025      0.0000      3.4851      0.0116
  3755.9000      9.2690   6588.7739      0.0000      3.4859     -0.0174
  3755.8500      9.2690   6551.4385      0.0000      3.5362     -0.2213
  3755.8000      9.2690   6551.4385      0.0000      3.5362      0.3345
  3755.7500      9.2690   6497.9668      0.0000      3.4851      0.0366
  3755.7000      9.2690   6438.0044      0.0000      3.5156     -0.6125
  3755.6500      9.3208   6438.0044      0.0000      3.5156     -0.4745
  3755.6000      9.3208   6389.3716      0.0000      3.5362      0.3583
  3755.5500      9.3208   6349.8862      0.0000      3.4653      0.4126
  3755.5000      9.3391   6349.8862      0.0000      3.4653     -0.5753
  3755.4500      9.3391   6312.0361      0.0000      3.4454      0.1855
  3755.4000      9.3391   6290.8506      0.0000      3.4958     -0.3253
  3755.3500      9.3939   6290.8506      0.0000      3.4958      0.2634
  3755.3000      9.3939   6297.8687      0.0000      3.5255     -0.0479
  3755.2500      9.3939   6324.5547      0.0000      3.5057     -0.0348
  3755.2000      9.3939   6324.5547      0.0000      3.5057      0.0058
  3755.1500      9.3939   6367.4790      0.0000      3.4554     -0.0110
  3755.1000      9.3939   6367.4790      0.0000      3.4554     -0.0034
  3755.0500      9.3574   6419.3896      0.0000      3.5469      0.0015
  3755.0000      9.3574   6454.9512      0.0000      3.5362     -0.0104
  3754.9500      9.3574   6454.9512      0.0000      3.5362     -0.0168
  3754.9000      9.3574   6472.6226      0.0000      3.5156     -0.0079
  3754.8500      9.3574   6496.5713      0.0000      3.5057     -0.0171
  3754.8000      9.3574   6496.5713      0.0000      3.5057      0.0067
  3754.7500      9.3574   6525.2988      0.0000      3.5667     -0.0162
  3754.7000      9.3208   6544.8599      0.0000      3.4454     -0.0092
  3754.6500      9.3208   6544.8599      0.0000      3.4454     -0.0006
  3754.6000      9.3208   6562.8652      0.0000      3.4851     -0.0064
  3754.5500      9.2842   6580.8970      0.0000      3.5255     -0.0061
  3754.5000      9.2842   6580.8970      0.0000      3.5255     -0.0140
  3754.4500      9.2842   6582.3652      0.0000      3.5057     -0.0320
  3754.4000      9.3208   6566.8975      0.0000      3.4859     -0.0043
  3754.3500      9.3208   6566.8975      0.0000      3.4859     -0.0598
  3754.3000      9.3208   6547.5210      0.0000      3.3844     -0.0354
  3754.2500      9.3208   6522.5728      0.0000      3.5561      1.3382
  3754.2000      9.3208   6522.5728      0.0000      3.5561     -0.8594
  3754.1500      9.3208   6486.2012      0.0000      3.5965     -0.9055
  3754.1000      9.3208   6436.8135      0.0000      3.4950      0.1202
  3754.0500      9.3208   6436.8135      0.0000      3.4950      0.0900
  3754.0000      9.3208   6374.0674      0.0000      3.5057     -0.7986
  3753.9500      9.3574   6313.9795      0.0000      3.4966     -0.8521
  3753.9000      9.3574   6313.9795      0.0000      3.4966     -0.0613
  3753.8500      9.3574   6273.6499      0.0000      3.5660      0.4437
  3753.8000      9.3391   6244.3291      0.0000      3.5866      0.1175
  3753.7500      9.3391   6244.3291      0.0000      3.5866      0.0586
  3753.7000      9.3391   6222.8076      0.0000      3.5057      0.3833
  3753.6500      9.3391   6222.8076      0.0000      3.5057     -0.0827
  3753.6000      9.3756   6232.4551      0.0000      3.5065      0.0064
  3753.5500      9.3756   6275.1631      0.0000      3.4958      0.0247
  3753.5000      9.3756   6275.1631      0.0000      3.4958     -0.0482
  3753.4500      9.3208   6319.6973      0.0000      3.4752     -0.0159
  3753.4000      9.3208   6353.9438      0.0000      3.5461      0.0043
  3753.3500      9.3208   6353.9438      0.0000      3.5461     -0.0192
  3753.3000      9.3025   6388.3950      0.0000      3.4752     -0.0034
  3753.2500      9.3025   6426.3462      0.0000      3.4653     -0.0131
  3753.2000      9.3025   6426.3462      0.0000      3.4653     -0.0040
  3753.1500      9.3025   6469.7969      0.0000      3.4958     -0.0214
  3753.1000      9.3025   6517.1978      0.0000      3.5255      0.0027
  3753.0500      9.3025   6517.1978      0.0000      3.5255     -0.0128
  3753.0000      9.2690   6553.4961      0.0000      3.5156     -0.0821
  3752.9500      9.2690   6574.0503      0.0000      3.4851     -0.0092
  3752.9000      9.2690   6574.0503      0.0000      3.4851     -0.0345
  3752.8500      9.3391   6590.3213      0.0000      3.4554     -0.0409
  3752.8000      9.3391   6600.2397      0.0000      3.4149     -0.0027
  3752.7500      9.3391   6600.2397      0.0000      3.4149     -0.0378
  3752.7000      9.3025   6598.2710      0.0000      3.5248     -0.0256
  3752.6500      9.3025   6597.5420      0.0000      3.5965      0.0082
  3752.6000      9.3025   6597.5420      0.0000      3.5965      0.0031
  3752.5500      9.3208   6596.9404      0.0000      3.5866      0.0012
  3752.5000      9.3208   6575.4536      0.0000      3.5057     -0.0494
  3752.4500      9.3208   6575.4536      0.0000      3.5057     -0.0562
  3752.4000      9.3391   6538.6777      0.0000      3.5065     -0.0024
  3752.3500      9.3391   6501.9390      0.0000      3.5156      0.0580
  3752.3000      9.3391   6501.9390      0.0000      3.5156      0.1978
  3752.2500      9.3391   6446.5864      0.0000      3.5156     -0.0381
  3752.2000      9.3025   6359.6943      0.0000      3.5461      0.2258
  3752.1500      9.3025   6359.6943      0.0000      3.5461      0.2863
  3752.1000      9.3025   6270.8872      0.0000      3.4958     -0.1141
  3752.0500      9.3756   6270.8872      0.0000      3.4958     -1.2112
