~Version Information
VERS.                      2.0: CWLS Log ASCII Standard - VERSION 2.0
WRAP.                       NO: One line per depth step
~Well Information Block
STRT.M               3785.6000: START DEPTH
STOP.M               3572.2000: STOP DEPTH
STEP.M                 -0.0500: STEP
NULL.                -999.2500: NULL VALUE
COMP.                  STATOIL: COMPANY
WELL.               15/9-F-1-C: WELL
FLD.                     VOLVE: FIELD
LOC.                          : LOCATION
SRVC.          Halliburton Logging Services: SERVICE COMPANY
DATE.          Wed Dec 03 05-47-41 2014: LOG DATE
UWI.                          : UNIQUE WELL ID
CTRY.                   NORWAY: COUNTRY
SECT.                         : SECTION
TOWN.                         : TOWNSHIP
RANG.                         : RANGE
API.                          : API#
OS.                   --NONE--: OTHER SERVICES
PDAT.FT                  M.S.L: PERMANENT DATUM
EEL.FT                   54.9M: ELEVATION
LMF.FT                   R.K.B: LOG MEASURED FROM
DMF.FT                   R.K.B: DRILLING MEASURED FROM
EKB.FT                   54.9M: KB
EDF.FT                   54.9M: DF
EGL.FT                    -91M: GL
DATE1.         03-DEC-14 @ 05:47: DATE1
RUN1.                    1 & 2: RUN NUMBER
TDD1.FT                  4094M: DEPTH DRILLER
TDL1.FT                  3782M: DEPTH LOGGER
BLI1.FT                  3772M: BOTTOM LOGGED INTERVAL
TLI1.FT                  3572M: TOP LOG INTERVAL
CDD1.IN_FT                    : CASING DRILLER
CDL1.FT                       : CASING LOGGER
BS1.IN                    8.5": BIT SIZE
DFT1.                SEA WATER: TYPE FLUID IN HOLE
DFDV1.GM/C3_CP          1.03SG: DENSITY/VISCOSITY
DFPL1.C3                      : PH/FLUID LOSS
MSS1.                         : SOURCE OF SAMPLE
RMT1.OHHM_DEGF                : RM@MEASURED TEMP
RMFT1.OHMM_DEGF                : RMF@MEASURED TEMP
RMCT1.OHMM_DEGF                : RMC@MEASURED TEMP
RMFS1.                        : SOURCE OF RMF/RMC
RMBT1.OHMM_DEGF                : RM@BHT
TCS1.                         : TIME CIRCULATION STOPPED
TLOB1.                36 HOURS: TIME LOGGER ON BOTTOM
BHT1.DEGF                 FULL: MAXIMUM RECORDED TEMPERATURE
LUN1.                 12030699: EQUIPMENT NUMBER
LUL1.                   NORWAY: LOCATION
ENGI1.              C.JAMIESON: RECORDED BY
WITN1.                A.ALBAWI: WITNESSED BY
~Curve Information Block
DEPT.M             0 000 00 00: Depth
LSPD.M/MIN                   0: Line Speed
LTEN.LB                      0: Surface Line Tension
MINMK.                       0: Minute Mark Ticks
HVOLTA.V                     0: Head Voltage Apparent
CCL.                         0: Casing Collar Locator
~Parameter Information Block
SRFTEMP.DEGC           12.0000: Surface Temperature
MudWgt.LB/GAL           8.5600: Mud Weight
CASETHCK.IN             0.4530: Casing Thickness
BITSIZE.IN             12.2500: Borehole I.D.
~Other Information
TOOL STRING DEPLOYED BY ALTUS INTERVENTION WIRELINE UNIT ON 7/16" CABLE
CABLE HEAD BUILT BY ALTUS
LOG CORRELATED TO SHLUMBERGER 4.5" HSD OX POWER JET PULS DATED 09.APRIL.2014
CORRELATION LOG IS SHALLOWER BY 1.4M, DEPTH SHIFTED 1.4M DOWN AS PER
CLIENTS REQUEST.
4.655" HSC GUN 10 AND 350 DEGREE PHASING, 39 GR MILLENIUM, 4 SHOTS PER FOOT.
ATTEMPT WAS MADE TO RUN 4 GUNS IN ONE STRING BUT AT 3600M PICK UP WEIGHT 
WAS TOO HIGH TO CONTINUE.  CLIENT D4ECIDED TO SPLIT UP ONTO TWO RUNS.
RUN #1 CCL TO TOP SHOT 3.25 M, CCL STOP DEPT: 3729.75 M
PERFORATION INTERVAL 3733M - 3742.6M
RUN #2 CCL TO TOP SHOT 3.25 M, CCL STOP DEPT: 3711.75 M
PERFORATION INTERVAL 3715M - 3724.6M

~A  Depth       LSPD        LTEN       MINMK       HVOLTA       CCL     
# ...
  3718.4000      9.3391   6530.9243      0.0000      3.5461      0.4361
  3718.3500      9.3391   6469.6631      0.0000      3.5057      0.6268
  3718.3000      9.3574   6469.6631      0.0000      3.5057      0.0970
  3718.2500      9.3574   6403.2764      0.0000      3.5667      0.5112
  3718.2000      9.3574   6334.0278      0.0000      3.4660     -0.0525
  3718.1500      9.3939   6334.0278      0.0000      3.4660      0.6619
  3718.1000      9.3939   6290.2095      0.0000      3.5461      0.1016
  3718.0500      9.3939   6283.5483      0.0000      3.5561     -0.0101
  3718.0000      9.3574   6283.5483      0.0000      3.5561      0.0467
  3717.9500      9.3574   6294.2876      0.0000      3.4851      0.0076
  3717.9000      9.3574   6316.1011      0.0000      3.6072      0.0006
  3717.8500      9.3939   6316.1011      0.0000      3.6072     -0.0101
  3717.8000      9.3939   6351.1006      0.0000      3.4958     -0.0107
  3717.7500      9.3939   6386.0923      0.0000      3.5057     -0.0085
  3717.7000      9.3939   6386.0923      0.0000      3.5057     -0.0137
  3717.6500      9.3756   6420.9946      0.0000      3.4653     -0.0049
  3717.6000      9.3756   6468.5952      0.0000      3.5759     -0.0137
  3717.5500      9.3756   6468.5952      0.0000      3.5759     -0.0076
  3717.5000      9.3208   6519.5107      0.0000      3.3943     -0.0076
  3717.4500      9.3208   6557.3643      0.0000      3.5164     -0.0067
  3717.4000      9.3208   6557.3643      0.0000      3.5164     -0.0104
  3717.3500      9.3208   6584.9321      0.0000      3.5660     -0.0076
  3717.3000      9.3208   6604.8901      0.0000      3.5057     -0.0064
  3717.2500      9.3208   6604.8901      0.0000      3.5057     -0.0156
  3717.2000      9.3025   6610.6187      0.0000      3.4546     -0.0153
  3717.1500      9.3025   6601.5825      0.0000      3.5263     -0.0180
  3717.1000      9.3025   6601.5825      0.0000      3.5263     -0.0116
  3717.0500      9.3025   6571.9712      0.0000      3.5065      0.0272
  3717.0000      9.3025   6571.9712      0.0000      3.5065     -0.1840
  3716.9500      9.3025   6509.0674      0.0000      3.5561      0.0400
  3716.9000      9.3574   6424.5859      0.0000      3.5355      0.5176
  3716.8500      9.3574   6424.5859      0.0000      3.5355     -0.0909
  3716.8000      9.3574   6346.8062      0.0000      3.4958     -0.0406
  3716.7500      9.3391   6291.1162      0.0000      3.4760     -0.1175
  3716.7000      9.3391   6291.1162      0.0000      3.4760      0.1331
  3716.6500      9.3391   6267.2275      0.0000      3.4851     -0.0534
  3716.6000      9.3756   6274.5684      0.0000      3.5057      0.1154
  3716.5500      9.3756   6274.5684      0.0000      3.5057     -0.0925
  3716.5000      9.3756   6288.3311      0.0000      3.5156     -0.0278
  3716.4500      9.3756   6298.0625      0.0000      3.5660      0.0287
  3716.4000      9.3574   6298.0625      0.0000      3.5660     -0.0073
  3716.3500      9.3574   6326.3745      0.0000      3.5263     -0.0159
  3716.3000      9.3574   6374.8584      0.0000      3.5370     -0.0082
  3716.2500      9.3025   6374.8584      0.0000      3.5370     -0.0195
  3716.2000      9.3025   6418.2002      0.0000      3.4851     -0.0116
  3716.1500      9.3025   6454.9727      0.0000      3.5461     -0.0061
  3716.1000      9.3208   6454.9727      0.0000      3.5461     -0.0076
  3716.0500      9.3208   6495.1924      0.0000      3.5660     -0.0195
  3716.0000      9.3208   6529.0557      0.0000      3.5362     -0.0378
  3715.9500      9.3025   6529.0557      0.0000      3.5362      0.0598
  3715.9000      9.3025   6549.2900      0.0000      3.4859     -0.0052
  3715.8500      9.3025   6558.1470      0.0000      3.5561     -0.0168
  3715.8000      9.3208   6558.1470      0.0000      3.5561     -0.0275
  3715.7500      9.3208   6546.3843      0.0000      3.5049     -0.0061
  3715.7000      9.3208   6508.0581      0.0000      3.5965     -0.0409
  3715.6500      9.3574   6508.0581      0.0000      3.5965      0.1550
  3715.6000      9.3574   6452.4136      0.0000      3.4958     -0.0549
  3715.5500      9.3574   6452.4136      0.0000      3.4958     -0.9891
  3715.5000      9.3391   6383.1294      0.0000      3.4958     -0.8640
  3715.4500      9.3391   6312.1016      0.0000      3.5156     -0.2090
  3715.4000      9.3391   6312.1016      0.0000      3.5156     -0.2478
  3715.3500      9.3574   6270.8433      0.0000      3.5667     -0.2258
  3715.3000      9.3574   6264.5298      0.0000      3.5362      0.5319
  3715.2500      9.3574   6264.5298      0.0000      3.5362     -0.1236
  3715.2000      9.3574   6270.1406      0.0000      3.4348     -0.0058
  3715.1500      9.3574   6289.2676      0.0000      3.5065      0.0150
  3715.1000      9.3574   6289.2676      0.0000      3.5065     -0.0223
  3715.0500      9.3574   6332.1440      0.0000      3.5362     -0.0098
  3715.0000      9.3208   6375.9307      0.0000      3.3836     -0.0043
  3714.9500      9.3208   6375.9307      0.0000      3.3836     -0.0159
  3714.9000      9.3208   6400.9111      0.0000      3.4752     -0.0058
  3714.8500      9.3391   6420.0083      0.0000      3.4859     -0.0092
  3714.8000      9.3391   6420.0083      0.0000      3.4859     -0.0125
  3714.7500      9.3391   6443.5669      0.0000      3.4653     -0.0125
  3714.7000      9.2690   6468.8477      0.0000      3.5156     -0.0095
  3714.6500      9.2690   6468.8477      0.0000      3.5156     -0.0150
  3714.6000      9.2690   6493.7358      0.0000      3.5973     -0.0250
  3714.5500      9.3025   6505.8672      0.0000      3.5362      0.0000
  3714.5000      9.3025   6505.8672      0.0000      3.5362     -0.0241
  3714.4500      9.3025   6493.3359      0.0000      3.5667     -0.0388
  3714.4000      9.3208   6467.5811      0.0000      3.4248     -0.5753
  3714.3500      9.3208   6467.5811      0.0000      3.4248      0.0418
  3714.3000      9.3208   6440.1724      0.0000      3.4958      0.1886
  3714.2500      9.3208   6405.2017      0.0000      3.5461     -0.0595
  3714.2000      9.3208   6405.2017      0.0000      3.5461      0.0797
  3714.1500      9.3208   6367.4800      0.0000      3.5355     -0.0214
  3714.1000      9.4092   6342.0430      0.0000      3.5164     -0.0934
  3714.0500      9.4092   6342.0430      0.0000      3.5164     -0.0543
  3714.0000      9.4092   6328.0488      0.0000      3.4653     -0.1334
  3713.9500      9.4092   6328.0488      0.0000      3.4653      0.0076
  3713.9000      9.3939   6329.6094      0.0000      3.5255     -0.0018
  3713.8500      9.3939   6362.7324      0.0000      3.5156      0.0113
  3713.8000      9.3939   6362.7324      0.0000      3.5156     -0.0067
  3713.7500      9.3756   6416.4316      0.0000      3.5255     -0.0055
  3713.7000      9.3756   6464.2314      0.0000      3.4248     -0.0137
  3713.6500      9.3756   6464.2314      0.0000      3.4248     -0.0168
  3713.6000      9.3939   6502.4043      0.0000      3.4859     -0.0076
  3713.5500      9.3939   6534.0845      0.0000      3.4950     -0.0156
  3713.5000      9.3939   6534.0845      0.0000      3.4950     -0.0055
  3713.4500      9.3025   6556.2153      0.0000      3.5255     -0.0034
  3713.4000      9.3025   6577.5244      0.0000      3.5057      0.0366
  3713.3500      9.3025   6577.5244      0.0000      3.5057      0.0055
  3713.3000      9.3208   6599.1528      0.0000      3.5461      0.0427
  3713.2500      9.3208   6597.5967      0.0000      3.4653      0.0168
  3713.2000      9.3208   6597.5967      0.0000      3.4653      0.0232
  3713.1500      9.2842   6569.5215      0.0000      3.4752     -0.0482
  3713.1000      9.2842   6538.0513      0.0000      3.5156     -0.0406
  3713.0500      9.2842   6538.0513      0.0000      3.5156      0.2139
  3713.0000      9.3025   6503.7578      0.0000      3.5057     -0.0848
  3712.9500      9.3025   6457.4536      0.0000      3.4653      0.0784
  3712.9000      9.3025   6457.4536      0.0000      3.4653     -0.3464
  3712.8500      9.3391   6414.9063      0.0000      3.4958      0.0641
