~Version Information
VERS.                      2.0: CWLS Log ASCII Standard - VERSION 2.0
WRAP.                       NO: One line per depth step
~Well Information Block
STRT.M               3785.6000: START DEPTH
STOP.M               3572.2000: STOP DEPTH
STEP.M                 -0.0500: STEP
NULL.                -999.2500: NULL VALUE
COMP.                  STATOIL: COMPANY
WELL.               15/9-F-1-C: WELL
FLD.                     VOLVE: FIELD
LOC.                          : LOCATION
SRVC.          Halliburton Logging Services: SERVICE COMPANY
DATE.          Wed Dec 03 05-47-41 2014: LOG DATE
UWI.                          : UNIQUE WELL ID
CTRY.                   NORWAY: COUNTRY
SECT.                         : SECTION
TOWN.                         : TOWNSHIP
RANG.                         : RANGE
API.                          : API#
OS.                   --NONE--: OTHER SERVICES
PDAT.FT                  M.S.L: PERMANENT DATUM
EEL.FT                   54.9M: ELEVATION
LMF.FT                   R.K.B: LOG MEASURED FROM
DMF.FT                   R.K.B: DRILLING MEASURED FROM
EKB.FT                   54.9M: KB
EDF.FT                   54.9M: DF
EGL.FT                    -91M: GL
DATE1.         03-DEC-14 @ 05:47: DATE1
RUN1.                    1 & 2: RUN NUMBER
TDD1.FT                  4094M: DEPTH DRILLER
TDL1.FT                  3782M: DEPTH LOGGER
BLI1.FT                  3772M: BOTTOM LOGGED INTERVAL
TLI1.FT                  3572M: TOP LOG INTERVAL
CDD1.IN_FT                    : CASING DRILLER
CDL1.FT                       : CASING LOGGER
BS1.IN                    8.5": BIT SIZE
DFT1.                SEA WATER: TYPE FLUID IN HOLE
DFDV1.GM/C3_CP          1.03SG: DENSITY/VISCOSITY
DFPL1.C3                      : PH/FLUID LOSS
MSS1.                         : SOURCE OF SAMPLE
RMT1.OHHM_DEGF                : RM@MEASURED TEMP
RMFT1.OHMM_DEGF                : RMF@MEASURED TEMP
RMCT1.OHMM_DEGF                : RMC@MEASURED TEMP
RMFS1.                        : SOURCE OF RMF/RMC
RMBT1.OHMM_DEGF                : RM@BHT
TCS1.                         : TIME CIRCULATION STOPPED
TLOB1.                36 HOURS: TIME LOGGER ON BOTTOM
BHT1.DEGF                 FULL: MAXIMUM RECORDED TEMPERATURE
LUN1.                 12030699: EQUIPMENT NUMBER
LUL1.                   NORWAY: LOCATION
ENGI1.              C.JAMIESON: RECORDED BY
WITN1.                A.ALBAWI: WITNESSED BY
~Curve Information Block
DEPT.M             0 000 00 00: Depth
LSPD.M/MIN                   0: Line Speed
LTEN.LB                      0: Surface Line Tension
MINMK.                       0: Minute Mark Ticks
HVOLTA.V                     0: Head Voltage Apparent
CCL.                         0: Casing Collar Locator
~Parameter Information Block
SRFTEMP.DEGC           12.0000: Surface Temperature
MudWgt.LB/GAL           8.5600: Mud Weight
CASETHCK.IN             0.4530: Casing Thickness
BITSIZE.IN             12.2500: Borehole I.D.
~Other Information
TOOL STRING DEPLOYED BY ALTUS INTERVENTION WIRELINE UNIT ON 7/16" CABLE
CABLE HEAD BUILT BY ALTUS
LOG CORRELATED TO SHLUMBERGER 4.5" HSD OX POWER JET PULS DATED 09.APRIL.2014
CORRELATION LOG IS SHALLOWER BY 1.4M, DEPTH SHIFTED 1.4M DOWN AS PER
CLIENTS REQUEST.
4.655" HSC GUN 10 AND 350 DEGREE PHASING, 39 GR MILLENIUM, 4 SHOTS PER FOOT.
ATTEMPT WAS MADE TO RUN 4 GUNS IN ONE STRING BUT AT 3600M PICK UP WEIGHT 
WAS TOO HIGH TO CONTINUE.  CLIENT D4ECIDED TO SPLIT UP ONTO TWO RUNS.
RUN #1 CCL TO TOP SHOT 3.25 M, CCL STOP DEPT: 3729.75 M
PERFORATION INTERVAL 3733M - 3742.6M
RUN #2 CCL TO TOP SHOT 3.25 M, CCL STOP DEPT: 3711.75 M
PERFORATION INTERVAL 3715M - 3724.6M

~A  Depth       LSPD        LTEN       MINMK       HVOLTA       CCL     
# ...
  3701.6000      9.3025   6571.7231      0.0000      3.5263     -0.2621
  3701.5500      9.3025   6571.7231      0.0000      3.5263      0.4047
  3701.5000      9.3025   6540.1323      0.0000      3.4554     -0.4395
  3701.4500      9.2842   6509.8906      0.0000      3.4653     -0.1553
  3701.4000      9.2842   6509.8906      0.0000      3.4653     -0.0195
  3701.3500      9.2842   6491.4556      0.0000      3.5156     -0.0314
  3701.3000      9.3756   6481.9751      0.0000      3.5362      0.0052
  3701.2500      9.3756   6481.9751      0.0000      3.5362     -0.2008
  3701.2000      9.3756   6463.1831      0.0000      3.4958      0.0235
  3701.1500      9.3756   6463.1831      0.0000      3.4958     -0.3137
  3701.1000      9.3756   6439.4473      0.0000      3.5164     -0.1056
  3701.0500      9.3756   6430.4136      0.0000      3.5057      0.0009
  3701.0000      9.3756   6430.4136      0.0000      3.5057     -0.0357
  3700.9500      9.3756   6437.9087      0.0000      3.4950      0.0613
  3700.9000      9.3756   6451.6274      0.0000      3.5561     -0.0241
  3700.8500      9.3939   6451.6274      0.0000      3.5561      0.0034
  3700.8000      9.3939   6460.9688      0.0000      3.5667     -0.0751
  3700.7500      9.3939   6460.7852      0.0000      3.4859     -0.0305
  3700.7000      9.3208   6460.7852      0.0000      3.4859     -0.0021
  3700.6500      9.3208   6469.2734      0.0000      3.5255     -0.0217
  3700.6000      9.3208   6505.3638      0.0000      3.6064     -0.0311
  3700.5500      9.3208   6505.3638      0.0000      3.6064     -0.0220
  3700.5000      9.3208   6550.3169      0.0000      3.4241     -0.0159
  3700.4500      9.3208   6580.4116      0.0000      3.4554     -0.0104
  3700.4000      9.2842   6580.4116      0.0000      3.4554     -0.0186
  3700.3500      9.2842   6604.0850      0.0000      3.4554      0.0400
  3700.3000      9.2842   6629.7217      0.0000      3.4851     -0.0137
  3700.2500      9.2690   6629.7217      0.0000      3.4851     -0.0073
  3700.2000      9.2690   6652.0645      0.0000      3.5049      0.0024
  3700.1500      9.2690   6679.9248      0.0000      3.5866     -0.0098
  3700.1000      9.3208   6679.9248      0.0000      3.5866     -0.0122
  3700.0500      9.3208   6715.0210      0.0000      3.4859      0.0082
  3700.0000      9.3208   6731.4951      0.0000      3.5164     -0.0015
  3699.9500      9.3208   6731.4951      0.0000      3.5164     -0.0339
  3699.9000      9.3208   6718.6392      0.0000      3.5057     -0.0293
  3699.8500      9.3208   6690.0801      0.0000      3.5057     -0.1154
  3699.8000      9.3208   6690.0801      0.0000      3.5057      0.0296
  3699.7500      9.3391   6647.8091      0.0000      3.5965      0.0433
  3699.7000      9.3391   6593.8613      0.0000      3.5057      0.0845
  3699.6500      9.3391   6593.8613      0.0000      3.5057     -0.0116
  3699.6000      9.3574   6549.9165      0.0000      3.4653      0.2493
  3699.5500      9.3574   6549.9165      0.0000      3.4653     -0.4828
  3699.5000      9.3574   6525.2427      0.0000      3.5057     -0.1602
  3699.4500      9.3208   6508.5669      0.0000      3.4851      0.1453
  3699.4000      9.3208   6508.5669      0.0000      3.4851      0.2097
  3699.3500      9.3208   6501.9009      0.0000      3.5255      0.0345
  3699.3000      9.3391   6514.0088      0.0000      3.4958     -0.0473
  3699.2500      9.3391   6514.0088      0.0000      3.4958      0.0287
  3699.2000      9.3391   6539.9092      0.0000      3.4248      0.0165
  3699.1500      9.3391   6575.9385      0.0000      3.5156     -0.0208
  3699.1000      9.3391   6575.9385      0.0000      3.5156     -0.0058
  3699.0500      9.3391   6617.0791      0.0000      3.5561     -0.0070
  3699.0000      9.3025   6647.1538      0.0000      3.5156     -0.0064
  3698.9500      9.3025   6647.1538      0.0000      3.5156     -0.0214
  3698.9000      9.3025   6664.6807      0.0000      3.4554     -0.0107
  3698.8500      9.3574   6680.4927      0.0000      3.4958     -0.0125
  3698.8000      9.3574   6680.4927      0.0000      3.4958     -0.0345
  3698.7500      9.3574   6681.9072      0.0000      3.5255      0.1212
  3698.7000      9.3208   6652.2466      0.0000      3.5362     -0.0009
  3698.6500      9.3208   6652.2466      0.0000      3.5362     -0.0684
  3698.6000      9.3208   6604.6865      0.0000      3.5255     -0.2762
  3698.5500      9.3208   6553.7852      0.0000      3.4653     -0.0266
  3698.5000      9.3208   6553.7852      0.0000      3.4653     -0.0342
  3698.4500      9.3208   6502.0298      0.0000      3.4958     -0.0613
  3698.4000      9.3208   6466.0815      0.0000      3.4851     -0.0787
  3698.3500      9.3939   6466.0815      0.0000      3.4851      0.1617
  3698.3000      9.3939   6458.5195      0.0000      3.4851      0.0513
  3698.2500      9.3939   6465.9180      0.0000      3.4546     -0.0345
  3698.2000      9.3208   6465.9180      0.0000      3.4546     -0.0009
  3698.1500      9.3208   6480.3193      0.0000      3.5362     -0.0427
  3698.1000      9.3208   6506.9268      0.0000      3.4554     -0.0076
  3698.0500      9.3756   6506.9268      0.0000      3.4554      0.0119
  3698.0000      9.3756   6534.4424      0.0000      3.5156     -0.0009
  3697.9500      9.3756   6534.4424      0.0000      3.5156     -0.0085
  3697.9000      9.3391   6549.5225      0.0000      3.4546      0.0177
  3697.8500      9.3391   6558.0010      0.0000      3.5156      0.0485
  3697.8000      9.3391   6558.0010      0.0000      3.5156     -0.0262
  3697.7500      9.2690   6558.2896      0.0000      3.4958     -0.0171
  3697.7000      9.2690   6542.8696      0.0000      3.5164     -0.0293
  3697.6500      9.2690   6542.8696      0.0000      3.5164      0.0235
  3697.6000      9.3208   6522.3257      0.0000      3.5255      0.0571
  3697.5500      9.3208   6498.9116      0.0000      3.5156      0.0760
  3697.5000      9.3208   6498.9116      0.0000      3.5156     -0.2411
  3697.4500      9.2842   6457.4653      0.0000      3.5255      0.2042
  3697.4000      9.2842   6404.1357      0.0000      3.4958     -0.5334
  3697.3500      9.2842   6404.1357      0.0000      3.4958     -0.0131
  3697.3000      9.3391   6358.4072      0.0000      3.4859     -0.0925
  3697.2500      9.3391   6319.8955      0.0000      3.5255      0.4767
  3697.2000      9.3391   6319.8955      0.0000      3.5255     -0.3293
  3697.1500      9.3391   6290.8872      0.0000      3.5156     -0.1166
  3697.1000      9.4092   6289.5498      0.0000      3.5156     -0.2887
  3697.0500      9.4092   6289.5498      0.0000      3.5156      0.0177
  3697.0000      9.4092   6313.3740      0.0000      3.4859     -0.0473
  3696.9500      9.3574   6346.2773      0.0000      3.4454      0.0198
  3696.9000      9.3574   6346.2773      0.0000      3.4454      0.0000
  3696.8500      9.3574   6389.1709      0.0000      3.4950     -0.0174
  3696.8000      9.4092   6438.1323      0.0000      3.5156     -0.0085
  3696.7500      9.4092   6438.1323      0.0000      3.5156     -0.0137
  3696.7000      9.4092   6480.0879      0.0000      3.4958     -0.0134
  3696.6500      9.3208   6522.5513      0.0000      3.4958     -0.0089
  3696.6000      9.3208   6522.5513      0.0000      3.4958     -0.0113
  3696.5500      9.3208   6572.7222      0.0000      3.4752     -0.0162
  3696.5000      9.3025   6572.7222      0.0000      3.4752     -0.0113
  3696.4500      9.3025   6611.9873      0.0000      3.6171     -0.0064
  3696.4000      9.3025   6631.4326      0.0000      3.5156     -0.0113
  3696.3500      9.3391   6631.4326      0.0000      3.5156     -0.0098
  3696.3000      9.3391   6640.5889      0.0000      3.5263     -0.0034
  3696.2500      9.3391   6631.9355      0.0000      3.4653     -0.0082
  3696.2000      9.2690   6631.9355      0.0000      3.4653     -0.0836
  3696.1500      9.2690   6595.9360      0.0000      3.4958     -0.0430
  3696.1000      9.2690   6544.3418      0.0000      3.5362     -0.0037
  3696.0500      9.3208   6544.3418      0.0000      3.5362     -0.5396
