~Version Information
VERS.                      2.0: CWLS Log ASCII Standard - VERSION 2.0
WRAP.                       NO: One line per depth step
~Well Information Block
STRT.M               3135.0500: START DEPTH
STOP.M               3039.9000: STOP DEPTH
STEP.M                 -0.0500: STEP
NULL.                -999.2500: NULL VALUE
COMP.                  Statoil: COMPANY
WELL.                15/9-F-12: WELL
FLD.                     Volve: FIELD
LOC.                          : LOCATION
SRVC.          Halliburton Logging Services: SERVICE COMPANY
DATE.          Wed Nov 26 21-01-09 2014: LOG DATE
UWI.                          : UNIQUE WELL ID
SECT.                         : SECTION
TOWN.                         : TOWNSHIP
RANG.                         : RANGE
API.                          : API#
OS.                           : OTHER SERVICES
PDAT.FT                       : PERMANENT DATUM
EEL.FT                        : ELEVATION
LMF.FT                        : LOG MEASURED FROM
DMF.FT                        : DRILLING MEASURED FROM
EKB.FT                        : KB
EDF.FT                        : DF
EGL.FT                        : GL
DATE1.                        : DATE1
RUN1.                         : RUN NUMBER
TDD1.FT                       : DEPTH DRILLER
TDL1.FT                       : DEPTH LOGGER
BLI1.FT                       : BOTTOM LOGGED INTERVAL
TLI1.FT                       : TOP LOG INTERVAL
CDD1.IN_FT                    : CASING DRILLER
CDL1.FT                       : CASING LOGGER
BS1.IN                        : BIT SIZE
DFT1.                         : TYPE FLUID IN HOLE
DFDV1.GM/C3_CP                : DENSITY/VISCOSITY
DFPL1.C3                      : PH/FLUID LOSS
MSS1.                         : SOURCE OF SAMPLE
RMT1.OHHM_DEGF                : RM@MEASURED TEMP
RMFT1.OHMM_DEGF                : RMF@MEASURED TEMP
RMCT1.OHMM_DEGF                : RMC@MEASURED TEMP
RMFS1.                        : SOURCE OF RMF/RMC
RMBT1.OHMM_DEGF                : RM@BHT
TCS1.                         : TIME CIRCULATION STOPPED
TLOB1.                        : TIME LOGGER ON BOTTOM
BHT1.DEGF                     : MAXIMUM RECORDED TEMPERATURE
LUN1.                         : EQUIPMENT NUMBER
LUL1.                         : LOCATION
ENGI1.                        : RECORDED BY
WITN1.                        : WITNESSED BY
~Curve Information Block
DEPT.M             0 000 00 00: Depth
LSPD.M/MIN                   0: Line Speed
LTEN.LB                      0: Surface Line Tension
MINMK.                       0: Minute Mark Ticks
HVOLTA.V                     0: Head Voltage Apparent
CCL.                         0: Casing Collar Locator
~Parameter Information Block
SRFTEMP.DEGC           10.0000: Surface Temperature
MudWgt.LB/GAL           8.5000: Mud Weight
CASETHCK.IN             6.1840: Casing Thickness
BITSIZE.IN              8.5000: Borehole I.D.
~A  Depth       LSPD        LTEN       MINMK       HVOLTA       CCL     
# ...
  3062.2500      9.3391   4175.6724      0.0000      3.5873     -2.0021
  3062.2000      9.3391   4176.8721      0.0000      3.5774     -2.0217
  3062.1500      9.3208   4176.8721      0.0000      3.5774     -2.0192
  3062.1000      9.3208   4176.3755      0.0000      3.5675     -2.0000
  3062.0500      9.3208   4171.3296      0.0000      3.5774     -2.0146
  3062.0000      9.3756   4171.3296      0.0000      3.5774     -2.0143
  3061.9500      9.3756   4172.4448      0.0000      3.5774     -2.0055
  3061.9000      9.3756   4178.5225      0.0000      3.6385     -2.0092
  3061.8500      9.3391   4178.5225      0.0000      3.6385     -2.0095
  3061.8000      9.3391   4180.4453      0.0000      3.5774     -2.0119
  3061.7500      9.3391   4187.1055      0.0000      3.5774     -2.0134
  3061.7000      9.3574   4187.1055      0.0000      3.5774     -2.0104
  3061.6500      9.3574   4202.0894      0.0000      3.5873     -1.9997
  3061.6000      9.3574   4209.7744      0.0000      3.5675     -2.0034
  3061.5500      9.3574   4209.7744      0.0000      3.5675     -2.0119
  3061.5000      9.3939   4207.0947      0.0000      3.5774     -2.0113
  3061.4500      9.3939   4207.0947      0.0000      3.5774     -2.0223
  3061.4000      9.3939   4201.6890      0.0000      3.5675     -2.0015
  3061.3500      9.3391   4192.5322      0.0000      3.5568     -2.0092
  3061.3000      9.3391   4192.5322      0.0000      3.5568     -2.0159
  3061.2500      9.3391   4185.4287      0.0000      3.6079     -2.0192
  3061.2000      9.4092   4189.3838      0.0000      3.5370     -2.0040
  3061.1500      9.4092   4189.3838      0.0000      3.5370     -2.0018
  3061.1000      9.4092   4195.6958      0.0000      3.6079     -2.0073
  3061.0500      9.3939   4197.9370      0.0000      3.5675     -2.0104
  3061.0000      9.3939   4197.9370      0.0000      3.5675     -2.0043
  3060.9500      9.3939   4201.8799      0.0000      3.5980     -2.0137
  3060.9000      9.3025   4202.5645      0.0000      3.5774     -2.0021
  3060.8500      9.3025   4202.5645      0.0000      3.5774     -2.0128
  3060.8000      9.3025   4195.1050      0.0000      3.5675     -2.0229
  3060.7500      9.3391   4189.5176      0.0000      3.5774     -1.9982
  3060.7000      9.3391   4189.5176      0.0000      3.5774     -2.0092
  3060.6500      9.3391   4187.9902      0.0000      3.5675     -2.0085
  3060.6000      9.2842   4181.9897      0.0000      3.5980     -2.0067
  3060.5500      9.2842   4181.9897      0.0000      3.5980     -2.0131
  3060.5000      9.2842   4171.7109      0.0000      3.5774     -2.0031
  3060.4500      9.2842   4161.1372      0.0000      3.5774     -2.0055
  3060.4000      9.2842   4161.1372      0.0000      3.5774     -2.0140
  3060.3500      9.2842   4150.6875      0.0000      3.5370     -2.0009
  3060.3000      9.3756   4145.2842      0.0000      3.5469     -2.0092
  3060.2500      9.3756   4145.2842      0.0000      3.5469     -2.0275
  3060.2000      9.3756   4148.7373      0.0000      3.5774     -2.0018
  3060.1500      9.3756   4154.3096      0.0000      3.5469     -2.0043
  3060.1000      9.3756   4154.3096      0.0000      3.5469     -2.0244
  3060.0500      9.3756   4155.3638      0.0000      3.6079     -1.9939
  3060.0000      9.3756   4153.2407      0.0000      3.5774     -1.9908
  3059.9500      9.3756   4153.2407      0.0000      3.5774     -2.0174
  3059.9000      9.3756   4150.4912      0.0000      3.5675     -2.0067
  3059.8500      9.3756   4150.4912      0.0000      3.5675     -2.0000
  3059.8000      9.4092   4148.1411      1.0000      3.5774     -2.0229
  3059.7500      9.4092   4148.6353      0.0000      3.5370     -1.9936
  3059.7000      9.4092   4148.6353      0.0000      3.5370     -2.0070
  3059.6500      9.3391   4150.8184      0.0000      3.5370     -2.0061
  3059.6000      9.3391   4147.2690      0.0000      3.5675     -2.0211
  3059.5500      9.3391   4147.2690      0.0000      3.5675     -2.0079
  3059.5000      9.3756   4139.3267      0.0000      3.5774     -2.0180
  3059.4500      9.3756   4137.6880      0.0000      3.5675     -2.0027
  3059.4000      9.3756   4137.6880      0.0000      3.5675     -2.0195
  3059.3500      9.3574   4140.4141      0.0000      3.5469     -2.0238
  3059.3000      9.3574   4138.5591      0.0000      3.5675     -2.0031
  3059.2500      9.3574   4138.5591      0.0000      3.5675     -2.0244
  3059.2000      9.3391   4135.2397      0.0000      3.5370     -2.0107
  3059.1500      9.3391   4133.8433      0.0000      3.5469     -2.0070
  3059.1000      9.3391   4133.8433      0.0000      3.5469     -2.0162
  3059.0500      9.3391   4132.9497      0.0000      3.5675     -2.0034
  3059.0000      9.3391   4140.7485      0.0000      3.5774     -2.0107
  3058.9500      9.3391   4140.7485      0.0000      3.5774     -2.0110
  3058.9000      9.3025   4159.3223      0.0000      3.5675     -2.0092
  3058.8500      9.3025   4172.4966      0.0000      3.5774     -2.0073
  3058.8000      9.3025   4172.4966      0.0000      3.5774     -2.0006
  3058.7500      9.3025   4175.7212      0.0000      3.5675     -2.0052
  3058.7000      9.3391   4177.7075      0.0000      3.5774     -2.0259
  3058.6500      9.3391   4177.7075      0.0000      3.5774     -2.0070
  3058.6000      9.3391   4176.6040      0.0000      3.5370     -2.0000
  3058.5500      9.3939   4174.9297      0.0000      3.5675     -2.0211
  3058.5000      9.3939   4174.9297      0.0000      3.5675     -2.0076
  3058.4500      9.3939   4181.6772      0.0000      3.5370     -2.0137
  3058.4000      9.3756   4188.0156      0.0000      3.5675     -2.0079
  3058.3500      9.3756   4188.0156      0.0000      3.5675     -2.0159
  3058.3000      9.3756   4187.1465      0.0000      3.5370     -2.0089
  3058.2500      9.4458   4187.1465      0.0000      3.5370     -2.0192
  3058.2000      9.4458   4191.8774      0.0000      3.6079     -2.0168
  3058.1500      9.4458   4202.6802      0.0000      3.5675     -2.0058
  3058.1000      9.3939   4202.6802      0.0000      3.5675     -2.0089
  3058.0500      9.3939   4206.7617      0.0000      3.5370     -2.0177
  3058.0000      9.3939   4207.3452      0.0000      3.5774     -2.0061
  3057.9500      9.3391   4207.3452      0.0000      3.5774     -2.0052
  3057.9000      9.3391   4209.8242      0.0000      3.5675     -2.0131
  3057.8500      9.3391   4207.6147      0.0000      3.5774     -1.9985
  3057.8000      9.3939   4207.6147      0.0000      3.5774     -2.0137
  3057.7500      9.3939   4199.5405      0.0000      3.5675     -2.0079
  3057.7000      9.3939   4186.4297      0.0000      3.5774     -2.0070
  3057.6500      9.2842   4186.4297      0.0000      3.5774     -2.0089
  3057.6000      9.2842   4166.1641      0.0000      3.5469     -2.0092
  3057.5500      9.2842   4150.9341      0.0000      3.5469     -2.0153
  3057.5000      9.2842   4150.9341      0.0000      3.5469     -2.0024
  3057.4500      9.3391   4154.7466      0.0000      3.5774     -2.0092
  3057.4000      9.3391   4169.3076      0.0000      3.5370     -2.0204
  3057.3500      9.3391   4169.3076      0.0000      3.5370     -2.0024
  3057.3000      9.3391   4182.1201      0.0000      3.5675     -1.9945
  3057.2500      9.3391   4193.8789      0.0000      3.5370     -2.0122
  3057.2000      9.3391   4193.8789      0.0000      3.5370     -2.0009
  3057.1500      9.3208   4203.5361      0.0000      3.5370     -2.0104
  3057.1000      9.3208   4205.4307      0.0000      3.5370     -2.0198
  3057.0500      9.3208   4205.4307      0.0000      3.5370     -2.0018
  3057.0000      9.3939   4201.3076      0.0000      3.5675     -2.0021
  3056.9500      9.3939   4195.1099      0.0000      3.5675     -1.9835
  3056.9000      9.3939   4195.1099      0.0000      3.5675     -2.0128
  3056.8500      9.3756   4186.3428      0.0000      3.5774     -2.0204
  3056.8000      9.3756   4177.4199      0.0000      3.6079     -2.0150
  3056.7500      9.3756   4177.4199      0.0000      3.6079     -1.9924
  3056.7000      9.3574   4174.1592      0.0000      3.5675     -2.0058
