~Version Information
VERS.                      2.0: CWLS Log ASCII Standard - VERSION 2.0
WRAP.                       NO: One line per depth step
~Well Information Block
STRT.M               3785.6000: START DEPTH
STOP.M               3572.2000: STOP DEPTH
STEP.M                 -0.0500: STEP
NULL.                -999.2500: NULL VALUE
COMP.                  STATOIL: COMPANY
WELL.               15/9-F-1-C: WELL
FLD.                     VOLVE: FIELD
LOC.                          : LOCATION
SRVC.          Halliburton Logging Services: SERVICE COMPANY
DATE.          Wed Dec 03 05-47-41 2014: LOG DATE
UWI.                          : UNIQUE WELL ID
CTRY.                   NORWAY: COUNTRY
SECT.                         : SECTION
TOWN.                         : TOWNSHIP
RANG.                         : RANGE
API.                          : API#
OS.                   --NONE--: OTHER SERVICES
PDAT.FT                  M.S.L: PERMANENT DATUM
EEL.FT                   54.9M: ELEVATION
LMF.FT                   R.K.B: LOG MEASURED FROM
DMF.FT                   R.K.B: DRILLING MEASURED FROM
EKB.FT                   54.9M: KB
EDF.FT                   54.9M: DF
EGL.FT                    -91M: GL
DATE1.         03-DEC-14 @ 05:47: DATE1
RUN1.                    1 & 2: RUN NUMBER
TDD1.FT                  4094M: DEPTH DRILLER
TDL1.FT                  3782M: DEPTH LOGGER
BLI1.FT                  3772M: BOTTOM LOGGED INTERVAL
TLI1.FT                  3572M: TOP LOG INTERVAL
CDD1.IN_FT                    : CASING DRILLER
CDL1.FT                       : CASING LOGGER
BS1.IN                    8.5": BIT SIZE
DFT1.                SEA WATER: TYPE FLUID IN HOLE
DFDV1.GM/C3_CP          1.03SG: DENSITY/VISCOSITY
DFPL1.C3                      : PH/FLUID LOSS
MSS1.                         : SOURCE OF SAMPLE
RMT1.OHHM_DEGF                : RM@MEASURED TEMP
RMFT1.OHMM_DEGF                : RMF@MEASURED TEMP
RMCT1.OHMM_DEGF                : RMC@MEASURED TEMP
RMFS1.                        : SOURCE OF RMF/RMC
RMBT1.OHMM_DEGF                : RM@BHT
TCS1.                         : TIME CIRCULATION STOPPED
TLOB1.                36 HOURS: TIME LOGGER ON BOTTOM
BHT1.DEGF                 FULL: MAXIMUM RECORDED TEMPERATURE
LUN1.                 12030699: EQUIPMENT NUMBER
LUL1.                   NORWAY: LOCATION
ENGI1.              C.JAMIESON: RECORDED BY
WITN1.                A.ALBAWI: WITNESSED BY
~Curve Information Block
DEPT.M             0 000 00 00: Depth
LSPD.M/MIN                   0: Line Speed
LTEN.LB                      0: Surface Line Tension
MINMK.                       0: Minute Mark Ticks
HVOLTA.V                     0: Head Voltage Apparent
CCL.                         0: Casing Collar Locator
~Parameter Information Block
SRFTEMP.DEGC           12.0000: Surface Temperature
MudWgt.LB/GAL           8.5600: Mud Weight
CASETHCK.IN             0.4530: Casing Thickness
BITSIZE.IN             12.2500: Borehole I.D.
~Other Information
TOOL STRING DEPLOYED BY ALTUS INTERVENTION WIRELINE UNIT ON 7/16" CABLE
CABLE HEAD BUILT BY ALTUS
LOG CORRELATED TO SHLUMBERGER 4.5" HSD OX POWER JET PULS DATED 09.APRIL.2014
CORRELATION LOG IS SHALLOWER BY 1.4M, DEPTH SHIFTED 1.4M DOWN AS PER
CLIENTS REQUEST.
4.655" HSC GUN 10 AND 350 DEGREE PHASING, 39 GR MILLENIUM, 4 SHOTS PER FOOT.
ATTEMPT WAS MADE TO RUN 4 GUNS IN ONE STRING BUT AT 3600M PICK UP WEIGHT 
WAS TOO HIGH TO CONTINUE.  CLIENT D4ECIDED TO SPLIT UP ONTO TWO RUNS.
RUN #1 CCL TO TOP SHOT 3.25 M, CCL STOP DEPT: 3729.75 M
PERFORATION INTERVAL 3733M - 3742.6M
RUN #2 CCL TO TOP SHOT 3.25 M, CCL STOP DEPT: 3711.75 M
PERFORATION INTERVAL 3715M - 3724.6M

~A  Depth       LSPD        LTEN       MINMK       HVOLTA       CCL     
# ...
  3589.6000      9.6774   5777.2275      0.0000      3.4554      0.0458
  3589.5500      9.6774   5807.8965      0.0000      3.4653     -0.0656
  3589.5000      9.6774   5843.0986      0.0000      3.4958      0.0146
  3589.4500      9.6256   5843.0986      0.0000      3.4958     -0.0287
  3589.4000      9.6256   5876.8047      0.0000      3.5355     -0.0073
  3589.3500      9.6256   5909.8960      0.0000      3.4348      0.0092
  3589.3000      9.5890   5909.8960      0.0000      3.4348      0.0232
  3589.2500      9.5890   5943.1230      0.0000      3.4859     -0.0220
  3589.2000      9.5890   5967.1128      0.0000      3.4554     -0.0168
  3589.1500      9.5341   5967.1128      0.0000      3.4554     -0.0021
  3589.1000      9.5341   5990.2759      0.0000      3.5065     -0.0153
  3589.0500      9.5341   6031.4458      0.0000      3.4859      0.0104
  3589.0000      9.5341   6031.4458      0.0000      3.4859     -0.0186
  3588.9500      9.5341   6078.5454      0.0000      3.5255     -0.0067
  3588.9000      9.5341   6109.7095      0.0000      3.4958     -0.0067
  3588.8500      9.5524   6109.7095      0.0000      3.4958     -0.0269
  3588.8000      9.5524   6127.5127      1.0000      3.5370     -0.0003
  3588.7500      9.5524   6133.4561      0.0000      3.5065      0.0555
  3588.7000      9.5189   6133.4561      0.0000      3.5065      0.0107
  3588.6500      9.5189   6118.3379      0.0000      3.5164     -0.0427
  3588.6000      9.5189   6082.6665      0.0000      3.5156      0.1105
  3588.5500      9.5189   6082.6665      0.0000      3.5156     -0.1013
  3588.5000      9.5341   6026.3149      0.0000      3.4958     -0.0513
  3588.4500      9.5341   6026.3149      0.0000      3.4958     -0.1282
  3588.4000      9.5341   5947.0278      0.0000      3.5164      1.6058
  3588.3500      9.6073   5865.2202      0.0000      3.4554      0.7990
  3588.3000      9.6073   5865.2202      0.0000      3.4554      0.0735
  3588.2500      9.6073   5802.4990      0.0000      3.4653      0.7730
  3588.2000      9.5890   5752.6660      0.0000      3.5362      0.4544
  3588.1500      9.5890   5752.6660      0.0000      3.5362     -0.3323
  3588.1000      9.5890   5716.2759      0.0000      3.5362      0.1163
  3588.0500      9.6591   5714.1221      0.0000      3.4546     -0.1300
  3588.0000      9.6591   5714.1221      0.0000      3.4546     -0.0165
  3587.9500      9.6591   5747.1182      0.0000      3.5057      0.0082
  3587.9000      9.6591   5796.8555      0.0000      3.5164     -0.0235
  3587.8500      9.6439   5796.8555      0.0000      3.5164     -0.0150
  3587.8000      9.6439   5851.1216      0.0000      3.4958     -0.0024
  3587.7500      9.6439   5896.9800      0.0000      3.5156      0.0006
  3587.7000      9.5890   5896.9800      0.0000      3.5156      0.0064
  3587.6500      9.5890   5928.0859      0.0000      3.6171     -0.0256
  3587.6000      9.5890   5962.3838      0.0000      3.5164      0.0003
  3587.5500      9.5707   5962.3838      0.0000      3.5164     -0.0183
  3587.5000      9.5707   6011.0381      0.0000      3.5469     -0.0241
  3587.4500      9.5707   6056.3350      0.0000      3.4859      0.0034
  3587.4000      9.5524   6056.3350      0.0000      3.4859     -0.0293
  3587.3500      9.5524   6088.6528      0.0000      3.4752     -0.0116
  3587.3000      9.5524   6117.9336      0.0000      3.5767     -0.0140
  3587.2500      9.5341   6117.9336      0.0000      3.5767     -0.0076
  3587.2000      9.5341   6147.8145      0.0000      3.3539     -0.0058
  3587.1500      9.5341   6179.1045      0.0000      3.5156     -0.0153
  3587.1000      9.5341   6179.1045      0.0000      3.5156     -0.0012
  3587.0500      9.5707   6211.7827      0.0000      3.4760     -0.0049
  3587.0000      9.5707   6231.2559      0.0000      3.5057     -0.0073
  3586.9500      9.5707   6231.2559      0.0000      3.5057     -0.0116
  3586.9000      9.5707   6223.9648      0.0000      3.4851      0.0266
  3586.8500      9.5707   6223.9648      0.0000      3.4851     -0.0946
  3586.8000      9.5707   6188.0718      0.0000      3.5156      0.0980
  3586.7500      9.5890   6112.4199      0.0000      3.5164     -0.0229
  3586.7000      9.5890   6112.4199      0.0000      3.5164      0.3510
  3586.6500      9.5890   5989.9146      0.0000      3.5568      0.2435
  3586.6000      9.6591   5850.5615      0.0000      3.5164     -0.0919
  3586.5500      9.6591   5850.5615      0.0000      3.5164     -0.2066
  3586.5000      9.6591   5731.0127      0.0000      3.4851     -1.5506
  3586.4500      9.6256   5640.4648      0.0000      3.5255      1.1618
  3586.4000      9.6256   5640.4648      0.0000      3.5255      0.2286
  3586.3500      9.6256   5588.8301      0.0000      3.4958      0.1569
  3586.3000      9.6256   5590.4653      0.0000      3.3745      0.3073
  3586.2500      9.6439   5590.4653      0.0000      3.3745      0.2261
  3586.2000      9.6439   5629.7290      0.0000      3.5057     -0.0421
  3586.1500      9.6439   5677.7227      0.0000      3.4447     -0.0430
  3586.1000      9.6256   5677.7227      0.0000      3.4447     -0.0278
  3586.0500      9.6256   5727.2754      0.0000      3.5767      0.0189
  3586.0000      9.6256   5774.7813      0.0000      3.4958     -0.0781
  3585.9500      9.5890   5774.7813      0.0000      3.4958      0.0299
  3585.9000      9.5890   5809.4404      0.0000      3.4554      0.0000
  3585.8500      9.5890   5837.3203      0.0000      3.5065     -0.0574
  3585.8000      9.5707   5837.3203      0.0000      3.5065      0.0208
  3585.7500      9.5707   5870.2485      0.0000      3.5164     -0.0214
  3585.7000      9.5707   5907.2251      0.0000      3.5660     -0.0061
  3585.6500      9.5524   5907.2251      0.0000      3.5660      0.0131
  3585.6000      9.5524   5950.4814      0.0000      3.4958     -0.0140
  3585.5500      9.5524   5999.6089      0.0000      3.4355     -0.0037
  3585.5000      9.5524   5999.6089      0.0000      3.4355      0.0018
  3585.4500      9.5890   6040.8301      0.0000      3.4859     -0.0250
  3585.4000      9.5890   6075.3203      0.0000      3.5057     -0.0049
  3585.3500      9.5890   6075.3203      0.0000      3.5057     -0.0125
  3585.3000      9.6073   6116.6284      0.0000      3.5759     -0.0183
  3585.2500      9.6073   6116.6284      0.0000      3.5759     -0.0006
  3585.2000      9.6073   6153.2637      0.0000      3.4851     -0.0146
  3585.1500      9.5890   6168.8135      0.0000      3.4454     -0.0085
  3585.1000      9.5890   6168.8135      0.0000      3.4454     -0.0040
  3585.0500      9.5890   6176.9561      0.0000      3.5263     -0.0085
  3585.0000      9.5890   6191.8936      0.0000      3.4355     -0.0546
  3584.9500      9.5890   6191.8936      0.0000      3.4355     -0.0888
  3584.9000      9.5890   6205.6006      0.0000      3.5767     -0.0174
  3584.8500      9.5341   6207.6924      0.0000      3.5057     -0.0653
  3584.8000      9.5341   6207.6924      0.0000      3.5057     -0.0922
  3584.7500      9.5341   6182.5190      0.0000      3.5362      0.0525
  3584.7000      9.5341   6108.0352      0.0000      3.4454      1.3403
  3584.6500      9.5189   6108.0352      0.0000      3.4454     -0.5673
  3584.6000      9.5189   5991.9634      0.0000      3.4851      1.8954
  3584.5500      9.5189   5872.1885      0.0000      3.4348      4.9222
  3584.5000      9.5524   5872.1885      0.0000      3.4348      0.7541
  3584.4500      9.5524   5773.2700      0.0000      3.5553      0.0424
  3584.4000      9.5524   5702.9204      0.0000      3.5255     -0.1556
  3584.3500      9.5890   5702.9204      0.0000      3.5255     -0.1624
  3584.3000      9.5890   5671.4048      0.0000      3.5461     -0.0720
  3584.2500      9.5890   5677.0933      0.0000      3.5667     -0.0085
  3584.2000      9.6256   5677.0933      0.0000      3.5667     -0.0204
  3584.1500      9.6256   5704.1909      0.0000      3.5065     -0.0131
  3584.1000      9.6256   5744.1499      0.0000      3.5065     -0.0104
  3584.0500      9.6774   5744.1499      0.0000      3.5065      0.0107
