~Version Information
VERS.                      2.0: CWLS Log ASCII Standard - VERSION 2.0
WRAP.                       NO: One line per depth step
~Well Information Block
STRT.M               3779.4000: START DEPTH
STOP.M               3680.8000: STOP DEPTH
STEP.M                 -0.0500: STEP
NULL.                -999.2500: NULL VALUE
COMP.                  STATOIL: COMPANY
WELL.               15/9-F-1-C: WELL
FLD.                     VOLVE: FIELD
LOC.                          : LOCATION
SRVC.          Halliburton Logging Services: SERVICE COMPANY
DATE.          Thu Dec 04 05-18-20 2014: LOG DATE
UWI.                          : UNIQUE WELL ID
CTRY.                   NORWAY: COUNTRY
SECT.                         : SECTION
TOWN.                         : TOWNSHIP
RANG.                         : RANGE
API.                          : API#
OS.                   --NONE--: OTHER SERVICES
PDAT.FT                  M.S.L: PERMANENT DATUM
EEL.FT                   54.9M: ELEVATION
LMF.FT                   R.K.B: LOG MEASURED FROM
DMF.FT                   R.K.B: DRILLING MEASURED FROM
EKB.FT                   54.9M: KB
EDF.FT                   54.9M: DF
EGL.FT                    -91M: GL
DATE1.         03-DEC-14 @ 05:47: DATE1
RUN1.                    1 & 2: RUN NUMBER
TDD1.FT                  4094M: DEPTH DRILLER
TDL1.FT                  3782M: DEPTH LOGGER
BLI1.FT                  3772M: BOTTOM LOGGED INTERVAL
TLI1.FT                  3572M: TOP LOG INTERVAL
CDD1.IN_FT                    : CASING DRILLER
CDL1.FT                       : CASING LOGGER
BS1.IN                    8.5": BIT SIZE
DFT1.                SEA WATER: TYPE FLUID IN HOLE
DFDV1.GM/C3_CP          1.03SG: DENSITY/VISCOSITY
DFPL1.C3                      : PH/FLUID LOSS
MSS1.                         : SOURCE OF SAMPLE
RMT1.OHHM_DEGF                : RM@MEASURED TEMP
RMFT1.OHMM_DEGF                : RMF@MEASURED TEMP
RMCT1.OHMM_DEGF                : RMC@MEASURED TEMP
RMFS1.                        : SOURCE OF RMF/RMC
RMBT1.OHMM_DEGF                : RM@BHT
TCS1.                         : TIME CIRCULATION STOPPED
TLOB1.                36 HOURS: TIME LOGGER ON BOTTOM
BHT1.DEGF                 FULL: MAXIMUM RECORDED TEMPERATURE
LUN1.                 12030699: EQUIPMENT NUMBER
LUL1.                   NORWAY: LOCATION
ENGI1.              C.JAMIESON: RECORDED BY
WITN1.                A.ALBAWI: WITNESSED BY
~Curve Information Block
DEPT.M             0 000 00 00: Depth
LSPD.M/MIN                   0: Line Speed
LTEN.LB                      0: Surface Line Tension
MINMK.                       0: Minute Mark Ticks
HVOLTA.V                     0: Head Voltage Apparent
CCL.                         0: Casing Collar Locator
~Parameter Information Block
SRFTEMP.DEGC           10.0000: Surface Temperature
MudWgt.LB/GAL           8.5000: Mud Weight
CASETHCK.IN             0.4530: Casing Thickness
BITSIZE.IN              8.5000: Borehole I.D.
~Other Information
TOOL STRING DEPLOYED BY ALTUS INTERVENTION WIRELINE UNIT ON 7/16" CABLE
CABLE HEAD BUILT BY ALTUS
LOG CORRELATED TO SHLUMBERGER 4.5" HSD OX POWER JET PULS DATED 09.APRIL.2014
CORRELATION LOG IS SHALLOWER BY 1.4M, DEPTH SHIFTED 1.4M DOWN AS PER
CLIENTS REQUEST.
4.655" HSC GUN 10 AND 350 DEGREE PHASING, 39 GR MILLENIUM, 4 SHOTS PER FOOT.
ATTEMPT WAS MADE TO RUN 4 GUNS IN ONE STRING BUT AT 3600M PICK UP WEIGHT 
WAS TOO HIGH TO CONTINUE.  CLIENT D4ECIDED TO SPLIT UP ONTO TWO RUNS.
RUN #1 CCL TO TOP SHOT 3.25 M, CCL STOP DEPT: 3729.75 M
PERFORATION INTERVAL 3733M - 3742.6M
RUN #2 CCL TO TOP SHOT 3.25 M, CCL STOP DEPT: 3711.75 M
PERFORATION INTERVAL 3715M - 3724.6M

~A  Depth       LSPD        LTEN       MINMK       HVOLTA       CCL     
# ...
  3734.6000      9.4823   6422.6221      0.0000      3.4851     -0.0104
  3734.5500      9.4823   6428.8198      0.0000      3.4851     -0.0073
  3734.5000      9.4823   6464.5039      0.0000      3.4851     -0.0061
  3734.4500      9.4823   6464.5039      0.0000      3.4851     -0.0006
  3734.4000      9.4823   6515.5908      0.0000      3.4546     -0.0168
  3734.3500      9.5006   6571.7617      0.0000      3.4851     -0.0067
  3734.3000      9.5006   6571.7617      0.0000      3.4851     -0.0186
  3734.2500      9.5006   6617.3579      0.0000      3.4752     -0.0092
  3734.2000      9.5006   6654.7388      0.0000      3.4950     -0.0171
  3734.1500      9.5006   6654.7388      0.0000      3.4950     -0.0085
  3734.1000      9.5006   6697.8950      0.0000      3.4851     -0.0125
  3734.0500      9.5006   6745.8101      0.0000      3.5255     -0.0153
  3734.0000      9.4823   6745.8101      0.0000      3.5255     -0.0061
  3733.9500      9.4823   6797.3887      0.0000      3.4851     -0.0131
  3733.9000      9.4823   6856.1387      0.0000      3.4752     -0.0119
  3733.8500      9.4823   6856.1387      0.0000      3.4752     -0.0159
  3733.8000      9.4823   6906.1519      0.0000      3.4241     -0.0006
  3733.7500      9.4823   6932.7017      0.0000      3.4950     -0.0330
  3733.7000      9.4092   6932.7017      0.0000      3.4950     -0.0262
  3733.6500      9.4092   6947.2388      0.0000      3.4950     -0.0906
  3733.6000      9.4092   6951.9351      0.0000      3.4851     -0.0439
  3733.5500      9.3939   6951.9351      0.0000      3.4851     -0.2173
  3733.5000      9.3939   6932.0996      0.0000      3.5255     -0.1794
  3733.4500      9.3939   6893.6934      0.0000      3.4851      0.0699
  3733.4000      9.3939   6893.6934      0.0000      3.4851     -0.4120
  3733.3500      9.3939   6848.5815      0.0000      3.4950     -0.1947
  3733.3000      9.3939   6792.3003      0.0000      3.4851      0.4703
  3733.2500      9.3939   6792.3003      0.0000      3.4851      0.2097
  3733.2000      9.3939   6734.0386      0.0000      3.4546     -0.3146
  3733.1500      9.3939   6698.2373      0.0000      3.4851      0.0256
  3733.1000      9.4458   6698.2373      0.0000      3.4851      0.1254
  3733.0500      9.4458   6689.5586      0.0000      3.4950     -0.0684
  3733.0000      9.4458   6689.5586      0.0000      3.4950     -0.0143
  3732.9500      9.4458   6701.2700      0.0000      3.4851      0.0049
  3732.9000      9.4640   6731.4824      0.0000      3.4851     -0.0201
  3732.8500      9.4640   6731.4824      0.0000      3.4851     -0.0150
  3732.8000      9.4640   6766.4443      0.0000      3.5255     -0.0125
  3732.7500      9.4823   6794.6953      0.0000      3.4546     -0.0079
  3732.7000      9.4823   6794.6953      0.0000      3.4546     -0.0125
  3732.6500      9.4823   6827.8716      0.0000      3.4447     -0.0082
  3732.6000      9.4275   6866.4434      0.0000      3.5255     -0.0113
  3732.5500      9.4275   6866.4434      0.0000      3.5255     -0.0113
  3732.5000      9.4275   6890.5396      0.0000      3.4950     -0.0006
  3732.4500      9.3939   6900.5410      0.0000      3.4447     -0.0043
  3732.4000      9.3939   6900.5410      0.0000      3.4447      0.0037
  3732.3500      9.3939   6910.3594      0.0000      3.4851     -0.0174
  3732.3000      9.3756   6916.5610      0.0000      3.4447     -0.1025
  3732.2500      9.3756   6916.5610      0.0000      3.4447     -0.0269
  3732.2000      9.3756   6918.0298      0.0000      3.4950     -0.1913
  3732.1500      9.3756   6924.7607      0.0000      3.4950      0.0403
  3732.1000      9.3756   6924.7607      0.0000      3.4950     -0.0107
  3732.0500      9.3756   6929.3740      0.0000      3.5156     -0.0061
  3732.0000      9.3756   6921.1445      0.0000      3.4950     -0.1007
  3731.9500      9.4458   6921.1445      0.0000      3.4950     -0.0922
  3731.9000      9.4458   6909.3101      0.0000      3.5355     -0.1300
  3731.8500      9.4458   6899.1089      0.0000      3.4851     -0.5423
  3731.8000      9.4640   6899.1089      0.0000      3.4851      0.1099
  3731.7500      9.4640   6886.9253      0.0000      3.5057      0.0446
  3731.7000      9.4640   6879.0708      0.0000      3.4546      0.1254
  3731.6500      9.4823   6879.0708      0.0000      3.4546     -0.0742
  3731.6000      9.4823   6881.1162      0.0000      3.4950     -0.0479
  3731.5500      9.4823   6892.7979      0.0000      3.4752     -0.0027
  3731.5000      9.4823   6892.7979      0.0000      3.4752      0.0128
  3731.4500      9.4823   6922.9990      0.0000      3.4447     -0.0146
  3731.4000      9.4823   6922.9990      0.0000      3.4447      0.0113
  3731.3500      9.4275   6973.5029      0.0000      3.4851     -0.0067
  3731.3000      9.4275   7022.9258      0.0000      3.4546     -0.0015
  3731.2500      9.4275   7022.9258      0.0000      3.4546     -0.0006
  3731.2000      9.4092   7060.1509      0.0000      3.4851     -0.0089
  3731.1500      9.4092   7093.7124      1.0000      3.5255     -0.0122
  3731.1000      9.4092   7093.7124      1.0000      3.5255     -0.0287
  3731.0500      9.3756   7117.3882      0.0000      3.4546      0.0070
  3731.0000      9.3756   7118.7813      0.0000      3.4851     -0.0125
  3730.9500      9.3756   7118.7813      0.0000      3.4851     -0.0635
  3730.9000      9.3756   7100.9478      0.0000      3.4447      0.0253
  3730.8500      9.3756   7059.2949      0.0000      3.4447     -0.1233
  3730.8000      9.3756   7059.2949      0.0000      3.4447      0.5566
  3730.7500      9.3756   6983.5415      0.0000      3.4546      0.1617
  3730.7000      9.3756   6891.8892      0.0000      3.4851     -0.1505
  3730.6500      9.3756   6891.8892      0.0000      3.4851      0.6619
  3730.6000      9.3756   6807.7119      0.0000      3.4752     -1.2405
  3730.5500      9.4458   6723.6523      0.0000      3.4645      0.1959
  3730.5000      9.4458   6723.6523      0.0000      3.4645     -0.7254
  3730.4500      9.4458   6638.1553      0.0000      3.4546      1.8008
  3730.4000      9.4823   6576.9678      0.0000      3.4851      0.8716
  3730.3500      9.4823   6576.9678      0.0000      3.4851     -0.0458
  3730.3000      9.4823   6554.9316      0.0000      3.4851     -0.0195
  3730.2500      9.5189   6569.2441      0.0000      3.4546     -0.0058
  3730.2000      9.5189   6569.2441      0.0000      3.4546     -0.0174
  3730.1500      9.5189   6614.4658      0.0000      3.4851     -0.0021
  3730.1000      9.4823   6670.7593      0.0000      3.4851     -0.0101
  3730.0500      9.4823   6670.7593      0.0000      3.4851     -0.0037
  3730.0000      9.4823   6716.8315      0.0000      3.5255     -0.0107
  3729.9500      9.4275   6759.9199      0.0000      3.5255     -0.0159
  3729.9000      9.4275   6759.9199      0.0000      3.5255     -0.0116
  3729.8500      9.4275   6810.6670      0.0000      3.5255     -0.0073
  3729.8000      9.4275   6810.6670      0.0000      3.5255     -0.0125
  3729.7500      9.3756   6857.1387      0.0000      3.4851     -0.0116
  3729.7000      9.3756   6895.8467      0.0000      3.5255     -0.0055
  3729.6500      9.3756   6895.8467      0.0000      3.5255     -0.0125
  3729.6000      9.3574   6938.7559      0.0000      3.5255     -0.0131
  3729.5500      9.3574   6986.3623      0.0000      3.4851     -0.0085
  3729.5000      9.3574   6986.3623      0.0000      3.4851     -0.0137
  3729.4500      9.3574   7037.1816      0.0000      3.4546     -0.0067
  3729.4000      9.3574   7094.8584      0.0000      3.4851     -0.0070
  3729.3500      9.3574   7094.8584      0.0000      3.4851     -0.0201
  3729.3000      9.4092   7147.0215      0.0000      3.4851     -0.0079
  3729.2500      9.4092   7176.2266      0.0000      3.4851     -0.0256
  3729.2000      9.4092   7176.2266      0.0000      3.4851     -0.0537
  3729.1500      9.4275   7180.6240      0.0000      3.4950      0.0357
  3729.1000      9.4275   7153.3896      0.0000      3.4851     -0.6445
  3729.0500      9.4275   7153.3896      0.0000      3.4851      0.8749
