~Version Information
VERS.             2.0 : CWLS log ASCII standard - Version 2.0
WRAP.             NO  : One line per depth step
#
~Well Information Block
#MNEM.UNIT                   Data Type:Information
#__________________________________________________________
 STRT .M           2450.13480  :START INDEX                  
  STOP.M           3113.3796 : STOP INDEX                    
 STEP .M              0.00000  :STEP                         
  NULL.              -999.25 : NULL VALUE                    
  COMP.              Statoil : COMPANY                       
  WELL.            15_9_F-12 : WELL                          
   FLD.                Volve : FIELD                         
   LOC.           Maersk Inspirer : LOCATION                      
  PROV.                      : PROVINCE                      
  CNTY.                      : COUNTY                        
  STAT.                      : STATE                         
  CTRY.                      : COUNTRY                       
  SRVC.              SLB D&M : SERVICE COMPANY               
  DATE.                      : LOG DATE                      
   UWI.                      : UNIQUE WELL ID                
   API.                      : API NUMBER                    
#
~Curve Information Block
#MNEM.UNIT                     : Curve Description
#---------                     --------------------
DEPT        .M                 : Bit Depth 2hz                                                   
TVDE        .M                 : SVY TVD_EXTR 2hz                                                
ARC_GR_RT   .GAPI              : ARC Gamma Ray, Real-Time                                        
ROP5        .M/HR              : 5ft ROP 2hz                                                     
SWOB        .KKGF              : Surface Weight on Bit 2hz                                       
RPM         .RPM               : SRF SRPM 2hz                                                    
TFLO        .LPM               : HSPM Total Pump Flow 2hz                                        
TRPM_RT     .RPM               : MWD TUR_RPM 2hz                                                 
SPPA        .BAR               : SRF PUMPRS 2hz                                                  
TQA         .KMN               : SRF STOR 2hz                                                    
SHKRSK_RT   .----              : MWD SHKRSK 2hz                                                  
SHK2_RT     .----              : ARC Shock Level, Real-Time                                      
SHK_ADN_RT  .----              : ADN Shock Level, Real-Time                                      
PDSHKRSK    .----              : PowerDrive Shock Risk 2hz                                       
ECD_ARC     .G/C3              : Equivalent Circulating Density                                  
ATMP        .DEGC              : ARC Annular Temperature                                         
APRS_ARC    .BAR               : ARC Annular Pressure                                            
#
~Parameter Information Block
#MNEM.UNIT                       Value:Description
#__________________________________________________________
#
~Other Information Block

#
~A    DEPT       TVDE  ARC_GR_RT       ROP5       SWOB        RPM       TFLO    TRPM_RT       SPPA        TQA  SHKRSK_RT    SHK2_RT SHK_ADN_RT   PDSHKRSK    ECD_ARC       ATMP   APRS_ARC
# ...
 3020.2632  2809.6074    34.2235     2.4094    10.1178   137.9772  3376.5710  2578.1250   235.4504    24.5140     0.0000     0.0000    -999.25     0.0000     1.4124    91.0000   388.7266
 3020.4155  2809.7000    42.4435     2.3226    10.1038   137.6831  3388.7617  2578.1250   235.0551    24.8155     0.0000     0.0000     0.0000     0.0000     1.4124    91.0000   388.7266
 3020.5681  2809.7869    42.4435     2.1763    10.2013   137.5811  3396.4885  2597.6563   234.8459    23.8722     0.0000     0.0000    -999.25     0.0000     1.4136    91.0000   389.0713
 3020.7205  2809.8735    39.0494     2.0587    10.0790   137.8201  3398.9507  2617.1875   234.5857    24.3645     0.0000     0.0000     0.0000     0.0000     1.4138    91.0000   389.1402
 3020.8728  2809.9608    40.7288     2.0018     9.9381   137.2119  3353.6559  2578.1250   234.0366    24.2259     0.0000     0.0000     0.0000     1.0000     1.4137    91.0000   389.1402
 3021.0251  2810.0530    51.5473     2.0316     9.2072   137.3451  3392.0111  2617.1875   233.8467    25.8499     0.0000     0.0000    -999.25     1.0000     1.4142    91.0000   389.2781
 3021.1775  2810.1399    49.6559     2.1335     9.0253   137.2709  3445.9922  2617.1875   233.6978    27.7001     0.0000     0.0000     0.0000     1.0000     1.4131    91.0000   389.0023
 3021.3301  2810.2266    37.4054     2.2550     9.3001   138.0427  3360.5336  2578.1250   233.8092    28.4908    -999.25    -999.25     0.0000     0.0000     1.4144    91.0000   389.3471
 3021.4824  2810.3135    37.4054     2.4125     9.2398   137.3158  3350.8804    -999.25   233.6068    27.5175     0.0000     0.0000     0.0000    -999.25     1.4131    91.0000   389.0023
 3021.6348  2810.4001    45.9790     2.6389     9.7120   137.6666  3378.6007  2617.1875   233.5857    27.3837     0.0000     0.0000     0.0000     0.0000     1.4133    92.0000   389.0713
 3021.7871  2810.4927    45.9790     2.8430     9.6858   138.6704  3395.5870  2617.1875   233.2669    28.4413     0.0000    -999.25    -999.25     0.0000     1.4137    92.0000   389.2092
 3021.9397  2810.5796    44.1935     3.0434    10.1468   138.8869  3418.9461  2617.1875   233.0834    27.8574    -999.25     0.0000     0.0000     1.0000     1.4139    92.0000   389.2781
 3022.0920  2810.6665    44.1935     3.4258     9.7941   134.2714  3348.8498    -999.25   232.8892    27.0195     0.0000     0.0000     0.0000    -999.25     1.4131    92.0000   389.0713
 3022.2444  2810.7531    37.4054     3.9249     9.5478   136.0041  3361.7519  2617.1875   232.9662    26.7822     0.0000     0.0000    -999.25     1.0000     1.4131    92.0000   389.0713
 3022.3967  2810.8457    37.4054     4.3716     9.8209   135.9916  3410.3437  2617.1875   233.0478    28.9839     0.0000     0.0000    -999.25     1.0000     1.4140    92.0000   389.3471
 3022.5493  2810.9326    44.1935     4.5746     9.9334   137.1818  3446.6474  2578.1250   233.0722    26.2000    -999.25    -999.25     0.0000     1.0000     1.4130    92.0000   389.0713
 3022.7017  2811.0192    39.0494     4.5669     9.9696   136.0144  3326.1034    -999.25   232.9059    26.0809     0.0000     0.0000    -999.25    -999.25     1.4142    92.0000   389.4160
 3022.8540  2811.1061    37.4054     4.5267     9.4509   136.5529  3407.5725  2578.1250   232.8267    27.9985     0.0000    -999.25    -999.25     1.0000     1.4132    92.0000   389.1402
 3023.0063  2811.1987    37.4054     4.5513     9.4605   137.2551  3329.3179    -999.25   232.9494    27.6309    -999.25     0.0000    -999.25    -999.25     1.4134    92.0000   389.2092
 3023.1587  2811.2853    39.0494     4.5739     9.3210   136.0000  3331.0334  2617.1875   232.8176    27.8132     0.0000     0.0000    -999.25     0.0000     1.4141    92.0000   389.4160
 3023.3113  2811.3722    44.1935     4.6963     9.3386   136.0821  3401.2371  2578.1250   232.7004    29.2824     0.0000    -999.25    -999.25     0.0000     1.4145    92.0000   389.5539
 3023.4636  2811.4592    40.7288     4.9129     9.7534   136.6026  3330.3349    -999.25   232.6456    26.4556    -999.25     0.0000    -999.25    -999.25     1.4130    92.0000   389.1402
 3023.6160  2811.5517    53.4742     4.9442     9.9574   136.3783  3386.6907  2617.1875   232.7378    25.5458     0.0000     0.0000    -999.25     0.0000     1.4132    92.0000   389.2092
 3023.7683  2811.6384    42.4435     4.7956     9.7877   137.5458  3384.4650  2617.1875   232.8159    25.6621     0.0000     0.0000    -999.25     0.0000     1.4139    92.0000   389.4160
 3023.9209  2811.7253    42.4435     4.6143    10.0524   137.3658  3382.7886  2617.1875   232.8268    25.0336     0.0000     0.0000    -999.25     0.0000     1.4146    92.0000   389.6229
 3024.0732  2811.8119    42.4435     4.4292    10.0600   136.2636  3416.2641  2578.1250   232.8591    26.7716     0.0000     0.0000    -999.25     0.0000     1.4138    92.0000   389.4160
 3024.2256  2811.9045    49.6559     4.2707     9.5607   136.3076  3349.2206  2578.1250   232.9999    25.7101     0.0000     0.0000     0.0000     0.0000     1.4135    92.0000   389.3471
 3024.3779  2811.9911    45.9790     4.1477     9.3960   137.6070  3358.8955  2617.1875   232.9699    27.4292     0.0000    -999.25    -999.25     0.0000     1.4145    92.0000   389.6229
 3024.5305  2812.0783    55.4364     3.9825     9.6969   137.3279  3399.7030  2617.1875   233.0426    26.9875     0.0000     0.0000     0.0000     0.0000     1.4144    92.0000   389.6229
 3024.6829  2812.1649    53.4742     3.8054    10.3700   137.5633  3425.3134  2617.1875   233.2216    25.9670    -999.25     0.0000     0.0000     0.0000     1.4136    92.0000   389.4160
 3024.8352  2812.2575    57.4339     3.7045     9.4196   137.5279  3345.5232    -999.25   233.2167    30.4842     0.0000     0.0000     0.0000     0.0000     1.4141    92.0000   389.5539
 3024.9875  2812.3444    45.9790     3.8082     8.6363   135.8890  3431.2188  2617.1875   233.5060    31.7671     0.0000     0.0000     0.0000    -999.25     1.4148    92.0000   389.7608
 3025.1399  2812.4310    51.5473     3.9618     9.5160   133.4611  3305.0877    -999.25   233.6253    25.7796    -999.25    -999.25     0.0000    -999.25     1.4135    92.0000   389.4160
 3025.2925  2812.5179    55.4364     4.1361     9.9663   136.1999  3360.9941  2578.1250   233.5341    29.3680     0.0000     0.0000     0.0000     0.0000     1.4137    92.0000   389.4850
 3025.4448  2812.6045    42.4435     4.3687    10.0381   136.1444  3411.7149    -999.25   233.5628    29.4057    -999.25    -999.25     0.0000     0.0000     1.4134    92.0000   389.4160
 3025.5972  2812.6974    44.1935     4.5758     9.5106   134.7963  3445.0664  2578.1250   233.6239    27.8088     0.0000     0.0000    -999.25    -999.25     1.4134    92.0000   389.4160
 3025.7495  2812.7840    39.0494     4.6182    10.1477   136.0974  3397.3561  2617.1875   233.5952    29.3770     0.0000     0.0000     0.0000     0.0000     1.4136    92.0000   389.4850
 3025.9021  2812.8706    45.9790     4.5053    10.0915   135.6628  3432.1851  2617.1875   233.5955    28.0845     0.0000     0.0000    -999.25     1.0000     1.4153    92.0000   389.9676
 3026.0544  2812.9576    45.9790     4.4668     9.3643   138.0092  3522.6071  2617.1875   233.4766    26.5809     0.0000     0.0000     0.0000     1.0000     1.4135    92.0000   389.4850
 3026.2068  2813.0501    39.0494     4.5193     9.7800   139.0592  3522.6071  2617.1875   233.5287    26.9318     0.0000     0.0000    -999.25     1.0000     1.4144    92.0000   389.7608
 3026.3591  2813.1370    51.5473     4.5193     9.3216   138.2727  3522.6071  2578.1250   233.5741    29.0692     0.0000    -999.25     0.0000     1.0000     1.4149    92.0000   389.8987
 3026.5117  2813.2237    45.9790     4.3112     9.1386   138.5594  3522.6071  2578.1250   233.7018    26.5420    -999.25     0.0000     0.0000     1.0000     1.4141    92.0000   389.6918
 3026.6641  2813.3103    45.9790     4.2086     8.6894   137.6083  3522.6071    -999.25   233.7088    25.7659     0.0000     0.0000    -999.25    -999.25     1.4141    92.0000   389.6918
