~Version Information
VERS.                      2.0: CWLS Log ASCII Standard - VERSION 2.0
WRAP.                       NO: One line per depth step
~Well Information Block
STRT.M               3782.3500: START DEPTH
STOP.M               3681.1500: STOP DEPTH
STEP.M                 -0.0500: STEP
NULL.                -999.2500: NULL VALUE
COMP.                  STATOIL: COMPANY
WELL.               15/9-F-1-C: WELL
FLD.                     VOLVE: FIELD
LOC.                          : LOCATION
SRVC.          Halliburton Logging Services: SERVICE COMPANY
DATE.          Thu Dec 04 04-49-02 2014: LOG DATE
UWI.                          : UNIQUE WELL ID
CTRY.                   NORWAY: COUNTRY
SECT.                         : SECTION
TOWN.                         : TOWNSHIP
RANG.                         : RANGE
API.                          : API#
OS.                   --NONE--: OTHER SERVICES
PDAT.FT                  M.S.L: PERMANENT DATUM
EEL.FT                   54.9M: ELEVATION
LMF.FT                   R.K.B: LOG MEASURED FROM
DMF.FT                   R.K.B: DRILLING MEASURED FROM
EKB.FT                   54.9M: KB
EDF.FT                   54.9M: DF
EGL.FT                    -91M: GL
DATE1.         03-DEC-14 @ 05:47: DATE1
RUN1.                    1 & 2: RUN NUMBER
TDD1.FT                  4094M: DEPTH DRILLER
TDL1.FT                  3782M: DEPTH LOGGER
BLI1.FT                  3772M: BOTTOM LOGGED INTERVAL
TLI1.FT                  3572M: TOP LOG INTERVAL
CDD1.IN_FT                    : CASING DRILLER
CDL1.FT                       : CASING LOGGER
BS1.IN                    8.5": BIT SIZE
DFT1.                SEA WATER: TYPE FLUID IN HOLE
DFDV1.GM/C3_CP          1.03SG: DENSITY/VISCOSITY
DFPL1.C3                      : PH/FLUID LOSS
MSS1.                         : SOURCE OF SAMPLE
RMT1.OHHM_DEGF                : RM@MEASURED TEMP
RMFT1.OHMM_DEGF                : RMF@MEASURED TEMP
RMCT1.OHMM_DEGF                : RMC@MEASURED TEMP
RMFS1.                        : SOURCE OF RMF/RMC
RMBT1.OHMM_DEGF                : RM@BHT
TCS1.                         : TIME CIRCULATION STOPPED
TLOB1.                36 HOURS: TIME LOGGER ON BOTTOM
BHT1.DEGF                 FULL: MAXIMUM RECORDED TEMPERATURE
LUN1.                 12030699: EQUIPMENT NUMBER
LUL1.                   NORWAY: LOCATION
ENGI1.              C.JAMIESON: RECORDED BY
WITN1.                A.ALBAWI: WITNESSED BY
~Curve Information Block
DEPT.M             0 000 00 00: Depth
LSPD.M/MIN                   0: Line Speed
LTEN.LB                      0: Surface Line Tension
MINMK.                       0: Minute Mark Ticks
HVOLTA.V                     0: Head Voltage Apparent
CCL.                         0: Casing Collar Locator
~Parameter Information Block
SRFTEMP.DEGC           12.0000: Surface Temperature
MudWgt.LB/GAL           8.5600: Mud Weight
CASETHCK.IN             0.4530: Casing Thickness
BITSIZE.IN             12.2500: Borehole I.D.
~Other Information
TOOL STRING DEPLOYED BY ALTUS INTERVENTION WIRELINE UNIT ON 7/16" CABLE
CABLE HEAD BUILT BY ALTUS
LOG CORRELATED TO SHLUMBERGER 4.5" HSD OX POWER JET PULS DATED 09.APRIL.2014
CORRELATION LOG IS SHALLOWER BY 1.4M, DEPTH SHIFTED 1.4M DOWN AS PER
CLIENTS REQUEST.
4.655" HSC GUN 10 AND 350 DEGREE PHASING, 39 GR MILLENIUM, 4 SHOTS PER FOOT.
ATTEMPT WAS MADE TO RUN 4 GUNS IN ONE STRING BUT AT 3600M PICK UP WEIGHT 
WAS TOO HIGH TO CONTINUE.  CLIENT D4ECIDED TO SPLIT UP ONTO TWO RUNS.
RUN #1 CCL TO TOP SHOT 3.25 M, CCL STOP DEPT: 3729.75 M
PERFORATION INTERVAL 3733M - 3742.6M
RUN #2 CCL TO TOP SHOT 3.25 M, CCL STOP DEPT: 3711.75 M
PERFORATION INTERVAL 3715M - 3724.6M

~A  Depth       LSPD        LTEN       MINMK       HVOLTA       CCL     
# ...
  3703.9500      9.4275   6787.7197      0.0000      3.4752     -0.0064
  3703.9000      9.3939   6787.7197      0.0000      3.4752     -0.0134
  3703.8500      9.3939   6821.8843      0.0000      3.4950     -0.0021
  3703.8000      9.3939   6846.4897      0.0000      3.5255     -0.0156
  3703.7500      9.4275   6846.4897      0.0000      3.5255     -0.0058
  3703.7000      9.4275   6872.6968      0.0000      3.4851     -0.0113
  3703.6500      9.4275   6903.9082      0.0000      3.5156     -0.0104
  3703.6000      9.3939   6903.9082      0.0000      3.5156     -0.0061
  3703.5500      9.3939   6927.1230      0.0000      3.4851     -0.0070
  3703.5000      9.3939   6949.3892      0.0000      3.4546     -0.0104
  3703.4500      9.3939   6949.3892      0.0000      3.4546     -0.0049
  3703.4000      9.3939   6986.1226      0.0000      3.4851     -0.0095
  3703.3500      9.3939   7024.0933      0.0000      3.4546     -0.0140
  3703.3000      9.3574   7024.0933      0.0000      3.4546     -0.0064
  3703.2500      9.3574   7049.4033      0.0000      3.4950     -0.0110
  3703.2000      9.3574   7065.4697      0.0000      3.5255     -0.0098
  3703.1500      9.3208   7065.4697      0.0000      3.5255     -0.0351
  3703.1000      9.3208   7057.4595      0.0000      3.5156      0.0208
  3703.0500      9.3208   7001.4136      0.0000      3.4645     -0.0519
  3703.0000      9.3391   7001.4136      0.0000      3.4645      0.7678
  3702.9500      9.3391   6903.0894      0.0000      3.4851      1.1072
  3702.9000      9.3391   6780.6714      0.0000      3.5156      0.4556
  3702.8500      9.3574   6780.6714      0.0000      3.5156     -0.7550
  3702.8000      9.3574   6645.6709      0.0000      3.5057      1.3028
  3702.7500      9.3574   6645.6709      0.0000      3.5057      0.3058
  3702.7000      9.3574   6528.4043      0.0000      3.4851     -0.5438
  3702.6500      9.4640   6465.5215      0.0000      3.5156     -0.2777
  3702.6000      9.4640   6465.5215      0.0000      3.5156     -0.0345
  3702.5500      9.4640   6458.1572      0.0000      3.4851     -0.0073
  3702.5000      9.4823   6487.2983      0.0000      3.4950     -0.0043
  3702.4500      9.4823   6487.2983      0.0000      3.4950     -0.0195
  3702.4000      9.4823   6538.0830      0.0000      3.4851     -0.0061
  3702.3500      9.4823   6592.8970      0.0000      3.4851     -0.0015
  3702.3000      9.4823   6592.8970      0.0000      3.4851     -0.0159
  3702.2500      9.4823   6644.8447      0.0000      3.4851     -0.0092
  3702.2000      9.4640   6703.8955      0.0000      3.4851     -0.0049
  3702.1500      9.4640   6703.8955      0.0000      3.4851     -0.0134
  3702.1000      9.4640   6765.1514      0.0000      3.5255     -0.0110
  3702.0500      9.3574   6810.3481      0.0000      3.4851     -0.0089
  3702.0000      9.3574   6810.3481      0.0000      3.4851     -0.0104
  3701.9500      9.3574   6842.8682      0.0000      3.4950     -0.0061
  3701.9000      9.3391   6875.5127      0.0000      3.4645     -0.0134
  3701.8500      9.3391   6875.5127      0.0000      3.4645     -0.0085
  3701.8000      9.3391   6905.9717      0.0000      3.4851     -0.0076
  3701.7500      9.3391   6933.1255      0.0000      3.4851     -0.0140
  3701.7000      9.3391   6933.1255      0.0000      3.4851     -0.0137
  3701.6500      9.3391   6957.9858      0.0000      3.4950     -0.0201
  3701.6000      9.3391   6976.1392      0.0000      3.5255     -0.0043
  3701.5500      9.3391   6976.1392      0.0000      3.5255     -0.0107
  3701.5000      9.3391   6998.5454      0.0000      3.4851     -0.0150
  3701.4500      9.3391   7037.6099      0.0000      3.5156     -0.0076
  3701.4000      9.3574   7037.6099      0.0000      3.5156     -0.0134
  3701.3500      9.3574   7075.0576      0.0000      3.4950     -0.0153
  3701.3000      9.3574   7096.3022      0.0000      3.5156     -0.0055
  3701.2500      9.4275   7096.3022      0.0000      3.5156     -0.0208
  3701.2000      9.4275   7119.0796      0.0000      3.4851     -0.0024
  3701.1500      9.4275   7119.0796      0.0000      3.4851     -0.0085
  3701.1000      9.4092   7147.5820      0.0000      3.4546     -0.0067
  3701.0500      9.4092   7162.8188      0.0000      3.4851     -0.0079
  3701.0000      9.4092   7162.8188      0.0000      3.4851     -0.0119
  3700.9500      9.4092   7169.6616      0.0000      3.4958      0.0525
  3700.9000      9.4092   7178.8066      0.0000      3.4851      0.0140
  3700.8500      9.4092   7178.8066      0.0000      3.4851     -0.0339
  3700.8000      9.3756   7168.7139      0.0000      3.5561     -0.1569
  3700.7500      9.3756   7124.1890      0.0000      3.4752      0.2905
  3700.7000      9.3756   7124.1890      0.0000      3.4752      0.8871
  3700.6500      9.3574   7059.5830      0.0000      3.4752      0.1736
  3700.6000      9.3574   6978.6768      0.0000      3.4851      0.2530
  3700.5500      9.3574   6978.6768      0.0000      3.4851     -0.5481
  3700.5000      9.3756   6873.4873      0.0000      3.4851      4.3604
  3700.4500      9.3756   6756.9307      0.0000      3.4851     -0.9088
  3700.4000      9.3756   6756.9307      0.0000      3.4851     -0.5740
  3700.3500      9.3756   6653.3975      0.0000      3.5156      1.5137
  3700.3000      9.3939   6584.2847      0.0000      3.4851     -2.0337
  3700.2500      9.3939   6584.2847      0.0000      3.4851     -0.2319
  3700.2000      9.3939   6566.6387      0.0000      3.4744     -0.0375
  3700.1500      9.4275   6591.8350      0.0000      3.5255     -0.0156
  3700.1000      9.4275   6591.8350      0.0000      3.5255      0.0049
  3700.0500      9.4275   6631.2612      0.0000      3.4752     -0.0137
  3700.0000      9.4458   6673.9575      0.0000      3.4752     -0.0195
  3699.9500      9.4458   6673.9575      0.0000      3.4752     -0.0076
  3699.9000      9.4458   6721.6938      0.0000      3.5255     -0.0113
  3699.8500      9.4275   6764.8354      0.0000      3.4546     -0.0131
  3699.8000      9.4275   6764.8354      0.0000      3.4546     -0.0073
  3699.7500      9.4275   6799.7217      0.0000      3.5057     -0.0061
  3699.7000      9.4092   6837.2324      0.0000      3.4851     -0.0095
  3699.6500      9.4092   6837.2324      0.0000      3.4851     -0.0024
  3699.6000      9.4092   6875.8706      0.0000      3.4546     -0.0113
  3699.5500      9.3756   6875.8706      0.0000      3.4546     -0.0046
  3699.5000      9.3756   6908.3027      0.0000      3.4851     -0.0052
  3699.4500      9.3756   6942.4341      1.0000      3.5156     -0.0143
  3699.4000      9.3208   6942.4341      1.0000      3.5156     -0.0070
  3699.3500      9.3208   6979.6592      0.0000      3.4950     -0.0082
  3699.3000      9.3208   7008.2280      0.0000      3.4546     -0.0290
  3699.2500      9.3208   7008.2280      0.0000      3.4546     -0.0598
  3699.2000      9.3391   7025.8408      0.0000      3.5561     -0.0122
  3699.1500      9.3391   7032.8096      0.0000      3.4546     -0.0186
  3699.1000      9.3391   7032.8096      0.0000      3.4546     -0.0772
  3699.0500      9.3391   7025.8325      0.0000      3.4546      0.0070
  3699.0000      9.3391   7011.4580      0.0000      3.4851     -0.1587
  3698.9500      9.3391   7011.4580      0.0000      3.4851      0.0891
  3698.9000      9.3574   6990.3604      0.0000      3.4851     -0.0183
  3698.8500      9.3574   6948.9282      0.0000      3.4447      0.1047
  3698.8000      9.3574   6948.9282      0.0000      3.4447     -0.0504
  3698.7500      9.4275   6897.6030      0.0000      3.4546     -0.2167
  3698.7000      9.4275   6864.3027      0.0000      3.4851      0.1862
  3698.6500      9.4275   6864.3027      0.0000      3.4851     -0.9283
  3698.6000      9.4458   6839.2832      0.0000      3.4851      0.0647
  3698.5500      9.4458   6799.9888      0.0000      3.4851     -0.2145
  3698.5000      9.4458   6799.9888      0.0000      3.4851     -0.3583
  3698.4500      9.4458   6764.2041      0.0000      3.4752      0.0455
  3698.4000      9.4458   6751.9463      0.0000      3.5156     -0.0330
