~Version Information
VERS.                      2.0: CWLS Log ASCII Standard - VERSION 2.0
WRAP.                       NO: One line per depth step
~Well Information Block
STRT.M               3779.9000: START DEPTH
STOP.M               3659.5000: STOP DEPTH
STEP.M                 -0.0500: STEP
NULL.                -999.2500: NULL VALUE
COMP.                  STATOIL: COMPANY
WELL.               15/9-F-1-C: WELL
FLD.                     VOLVE: FIELD
LOC.                          : LOCATION
SRVC.          Halliburton Logging Services: SERVICE COMPANY
DATE.          Wed Dec 03 07-18-31 2014: LOG DATE
UWI.                          : UNIQUE WELL ID
CTRY.                   NORWAY: COUNTRY
SECT.                         : SECTION
TOWN.                         : TOWNSHIP
RANG.                         : RANGE
API.                          : API#
OS.                   --NONE--: OTHER SERVICES
PDAT.FT                  M.S.L: PERMANENT DATUM
EEL.FT                   54.9M: ELEVATION
LMF.FT                   R.K.B: LOG MEASURED FROM
DMF.FT                   R.K.B: DRILLING MEASURED FROM
EKB.FT                   54.9M: KB
EDF.FT                   54.9M: DF
EGL.FT                    -91M: GL
DATE1.         03-DEC-14 @ 05:47: DATE1
RUN1.                    1 & 2: RUN NUMBER
TDD1.FT                  4094M: DEPTH DRILLER
TDL1.FT                  3782M: DEPTH LOGGER
BLI1.FT                  3772M: BOTTOM LOGGED INTERVAL
TLI1.FT                  3572M: TOP LOG INTERVAL
CDD1.IN_FT                    : CASING DRILLER
CDL1.FT                       : CASING LOGGER
BS1.IN                    8.5": BIT SIZE
DFT1.                SEA WATER: TYPE FLUID IN HOLE
DFDV1.GM/C3_CP          1.03SG: DENSITY/VISCOSITY
DFPL1.C3                      : PH/FLUID LOSS
MSS1.                         : SOURCE OF SAMPLE
RMT1.OHHM_DEGF                : RM@MEASURED TEMP
RMFT1.OHMM_DEGF                : RMF@MEASURED TEMP
RMCT1.OHMM_DEGF                : RMC@MEASURED TEMP
RMFS1.                        : SOURCE OF RMF/RMC
RMBT1.OHMM_DEGF                : RM@BHT
TCS1.                         : TIME CIRCULATION STOPPED
TLOB1.                36 HOURS: TIME LOGGER ON BOTTOM
BHT1.DEGF                 FULL: MAXIMUM RECORDED TEMPERATURE
LUN1.                 12030699: EQUIPMENT NUMBER
LUL1.                   NORWAY: LOCATION
ENGI1.              C.JAMIESON: RECORDED BY
WITN1.                A.ALBAWI: WITNESSED BY
~Curve Information Block
DEPT.M             0 000 00 00: Depth
LSPD.M/MIN                   0: Line Speed
LTEN.LB                      0: Surface Line Tension
MINMK.                       0: Minute Mark Ticks
HVOLTA.V                     0: Head Voltage Apparent
CCL.                         0: Casing Collar Locator
~Parameter Information Block
SRFTEMP.DEGC           12.0000: Surface Temperature
MudWgt.LB/GAL           8.5600: Mud Weight
CASETHCK.IN             0.4530: Casing Thickness
BITSIZE.IN             12.2500: Borehole I.D.
~Other Information
TOOL STRING DEPLOYED BY ALTUS INTERVENTION WIRELINE UNIT ON 7/16" CABLE
CABLE HEAD BUILT BY ALTUS
LOG CORRELATED TO SHLUMBERGER 4.5" HSD OX POWER JET PULS DATED 09.APRIL.2014
CORRELATION LOG IS SHALLOWER BY 1.4M, DEPTH SHIFTED 1.4M DOWN AS PER
CLIENTS REQUEST.
4.655" HSC GUN 10 AND 350 DEGREE PHASING, 39 GR MILLENIUM, 4 SHOTS PER FOOT.
ATTEMPT WAS MADE TO RUN 4 GUNS IN ONE STRING BUT AT 3600M PICK UP WEIGHT 
WAS TOO HIGH TO CONTINUE.  CLIENT D4ECIDED TO SPLIT UP ONTO TWO RUNS.
RUN #1 CCL TO TOP SHOT 3.25 M, CCL STOP DEPT: 3729.75 M
PERFORATION INTERVAL 3733M - 3742.6M
RUN #2 CCL TO TOP SHOT 3.25 M, CCL STOP DEPT: 3711.75 M
PERFORATION INTERVAL 3715M - 3724.6M

~A  Depth       LSPD        LTEN       MINMK       HVOLTA       CCL     
# ...
  3695.9000      9.3574   6623.3481      0.0000      3.5156     -1.9823
  3695.8500      9.3574   6649.8384      0.0000      3.5156     -1.9820
  3695.8000      9.3574   6671.1895      0.0000      3.5362     -2.0333
  3695.7500      9.3391   6671.1895      0.0000      3.5362     -2.0217
  3695.7000      9.3391   6683.0767      0.0000      3.4851     -1.9997
  3695.6500      9.3391   6684.9087      0.0000      3.4958     -2.0186
  3695.6000      9.3939   6684.9087      0.0000      3.4958     -1.9527
  3695.5500      9.3939   6683.3340      0.0000      3.4859     -2.0229
  3695.5000      9.3939   6674.9561      0.0000      3.5057     -1.9722
  3695.4500      9.3939   6674.9561      0.0000      3.5057     -2.0629
  3695.4000      9.3939   6659.2407      0.0000      3.4752     -2.3467
  3695.3500      9.3939   6644.8057      0.0000      3.5461     -1.8666
  3695.3000      9.3939   6644.8057      0.0000      3.5461     -2.0409
  3695.2500      9.3939   6623.4038      0.0000      3.5362     -2.0781
  3695.2000      9.3939   6583.3647      0.0000      3.5164     -1.9969
  3695.1500      9.3939   6583.3647      0.0000      3.5164     -1.8425
  3695.1000      9.4458   6537.7451      0.0000      3.4859     -1.9231
  3695.0500      9.4458   6502.5830      0.0000      3.4859     -1.8636
  3695.0000      9.4458   6502.5830      0.0000      3.4859     -1.9304
  3694.9500      9.4092   6482.3599      0.0000      3.4447     -2.0781
  3694.9000      9.4092   6482.3599      0.0000      3.4447     -2.0287
  3694.8500      9.4092   6489.9277      0.0000      3.5561     -2.0186
  3694.8000      9.4458   6530.2637      0.0000      3.5362     -2.0388
  3694.7500      9.4458   6530.2637      0.0000      3.5362     -2.0296
  3694.7000      9.4458   6576.3608      0.0000      3.5362     -1.9921
  3694.6500      9.4275   6607.4121      0.0000      3.5263     -2.0064
  3694.6000      9.4275   6607.4121      0.0000      3.5263     -2.0131
  3694.5500      9.4275   6631.0947      0.0000      3.4149     -2.0156
  3694.5000      9.3574   6652.2236      0.0000      3.4752     -2.0128
  3694.4500      9.3574   6652.2236      0.0000      3.4752     -1.9866
  3694.4000      9.3574   6671.9424      0.0000      3.5461     -2.0012
  3694.3500      9.3756   6696.3672      0.0000      3.4958     -1.9890
  3694.3000      9.3756   6696.3672      0.0000      3.4958     -1.9643
  3694.2500      9.3756   6712.1318      0.0000      3.4958     -1.9326
  3694.2000      9.3025   6700.5381      0.0000      3.4760     -2.4471
  3694.1500      9.3025   6700.5381      0.0000      3.4760     -0.2007
  3694.1000      9.3025   6675.7432      0.0000      3.4653     -7.6113
  3694.0500      9.3391   6654.2925      0.0000      3.4554     -1.9713
  3694.0000      9.3391   6654.2925      0.0000      3.4554     -1.7128
  3693.9500      9.3391   6624.2798      0.0000      3.4851     -2.1556
  3693.9000      9.3391   6585.3281      0.0000      3.5255     -1.9551
  3693.8500      9.4092   6585.3281      0.0000      3.5255     -2.0076
  3693.8000      9.4092   6554.1406      0.0000      3.5263     -2.2621
  3693.7500      9.4092   6529.6338      0.0000      3.4554     -2.0873
  3693.7000      9.3939   6529.6338      0.0000      3.4554     -1.9640
  3693.6500      9.3939   6514.0913      0.0000      3.4958     -2.0674
  3693.6000      9.3939   6525.9590      0.0000      3.5164     -1.9908
  3693.5500      9.4275   6525.9590      0.0000      3.5164     -2.0711
  3693.5000      9.4275   6559.1274      0.0000      3.5362     -1.9915
  3693.4500      9.4275   6588.4893      0.0000      3.5355     -2.0134
  3693.4000      9.4275   6588.4893      0.0000      3.5355     -1.9905
  3693.3500      9.4275   6613.0112      0.0000      3.4859     -2.0244
  3693.3000      9.4275   6613.0112      0.0000      3.4859     -2.0122
  3693.2500      9.3391   6640.3418      0.0000      3.5164     -2.0116
  3693.2000      9.3391   6665.2930      0.0000      3.4454     -2.0076
  3693.1500      9.3391   6665.2930      0.0000      3.4454     -2.0076
  3693.1000      9.3939   6693.2339      0.0000      3.4958     -2.0165
  3693.0500      9.3939   6728.8662      0.0000      3.5568     -2.0031
  3693.0000      9.3939   6728.8662      0.0000      3.5568     -2.0168
  3692.9500      9.3208   6754.4028      0.0000      3.5164     -1.8892
  3692.9000      9.3208   6759.6772      0.0000      3.4653     -1.9725
  3692.8500      9.3208   6759.6772      0.0000      3.4653     -2.0613
  3692.8000      9.3208   6746.6851      0.0000      3.5263     -1.6390
  3692.7500      9.3025   6705.8501      0.0000      3.5065     -1.9976
  3692.7000      9.3025   6705.8501      0.0000      3.5065     -1.7833
  3692.6500      9.3025   6641.7490      0.0000      3.4760     -1.9731
  3692.6000      9.3939   6586.5103      0.0000      3.4653     -2.0778
  3692.5500      9.3939   6586.5103      0.0000      3.4653     -1.9915
  3692.5000      9.3939   6552.4805      0.0000      3.4958     -2.2792
  3692.4500      9.3574   6527.2607      0.0000      3.5362     -2.3400
  3692.4000      9.3574   6527.2607      0.0000      3.5362     -2.0113
  3692.3500      9.3574   6517.3081      0.0000      3.4958     -1.9405
  3692.3000      9.4275   6532.2192      0.0000      3.5362     -2.0336
  3692.2500      9.4275   6532.2192      0.0000      3.5362     -2.0134
  3692.2000      9.4275   6557.4990      0.0000      3.5362     -1.9832
  3692.1500      9.4458   6585.3589      0.0000      3.4851     -1.9762
  3692.1000      9.4458   6585.3589      0.0000      3.4851     -2.0146
  3692.0500      9.4458   6620.2549      0.0000      3.4752     -1.9930
  3692.0000      9.3756   6650.8164      0.0000      3.4447     -2.0394
  3691.9500      9.3756   6650.8164      0.0000      3.4447     -2.0119
  3691.9000      9.3756   6666.3901      0.0000      3.4752     -2.0360
  3691.8500      9.4092   6676.2905      0.0000      3.4859     -2.0012
  3691.8000      9.4092   6676.2905      0.0000      3.4859     -2.0073
  3691.7500      9.4092   6684.3091      0.0000      3.4958     -2.0073
  3691.7000      9.4092   6684.3091      0.0000      3.4958     -2.0290
  3691.6500      9.3756   6682.3838      0.0000      3.4653     -1.9591
  3691.6000      9.3756   6669.3813      0.0000      3.4760     -1.8822
  3691.5500      9.3756   6669.3813      0.0000      3.4760     -1.9271
  3691.5000      9.3574   6645.4575      0.0000      3.4958     -1.9796
  3691.4500      9.3574   6615.9653      0.0000      3.4546     -2.0266
  3691.4000      9.3574   6615.9653      0.0000      3.4546     -2.0323
  3691.3500      9.4092   6600.5078      0.0000      3.5767     -1.7522
  3691.3000      9.4092   6601.3188      0.0000      3.5065     -2.1328
  3691.2500      9.4092   6601.3188      0.0000      3.5065     -1.9033
  3691.2000      9.3574   6599.8467      0.0000      3.5057     -1.9994
  3691.1500      9.3574   6603.8120      0.0000      3.5156     -1.9518
  3691.1000      9.3574   6603.8120      0.0000      3.5156     -2.0171
  3691.0500      9.4092   6638.5356      0.0000      3.4554     -2.0168
  3691.0000      9.4092   6695.7231      0.0000      3.4149     -2.0122
  3690.9500      9.4092   6695.7231      0.0000      3.4149     -2.0058
  3690.9000      9.4275   6751.1011      0.0000      3.3943     -2.0131
  3690.8500      9.4275   6799.6108      0.0000      3.5255     -2.0150
  3690.8000      9.4275   6799.6108      0.0000      3.5255     -2.0076
  3690.7500      9.3574   6833.4282      0.0000      3.4958     -2.0018
  3690.7000      9.3574   6843.2178      0.0000      3.4752     -1.9872
  3690.6500      9.3574   6843.2178      0.0000      3.4752     -2.0272
  3690.6000      9.3939   6843.9087      0.0000      3.5263     -2.0177
  3690.5500      9.3939   6844.7676      0.0000      3.4248     -2.0241
  3690.5000      9.3939   6844.7676      0.0000      3.4248     -2.0192
  3690.4500      9.3025   6829.1128      0.0000      3.5263     -1.9664
  3690.4000      9.3025   6789.5049      0.0000      3.4760     -1.9564
  3690.3500      9.3025   6789.5049      0.0000      3.4760     -2.2249
