~Version Information
VERS.                      2.0: CWLS Log ASCII Standard - VERSION 2.0
WRAP.                       NO: One line per depth step
~Well Information Block
STRT.M               3782.3500: START DEPTH
STOP.M               3681.1500: STOP DEPTH
STEP.M                 -0.0500: STEP
NULL.                -999.2500: NULL VALUE
COMP.                  STATOIL: COMPANY
WELL.               15/9-F-1-C: WELL
FLD.                     VOLVE: FIELD
LOC.                          : LOCATION
SRVC.          Halliburton Logging Services: SERVICE COMPANY
DATE.          Thu Dec 04 04-49-02 2014: LOG DATE
UWI.                          : UNIQUE WELL ID
CTRY.                   NORWAY: COUNTRY
SECT.                         : SECTION
TOWN.                         : TOWNSHIP
RANG.                         : RANGE
API.                          : API#
OS.                   --NONE--: OTHER SERVICES
PDAT.FT                  M.S.L: PERMANENT DATUM
EEL.FT                   54.9M: ELEVATION
LMF.FT                   R.K.B: LOG MEASURED FROM
DMF.FT                   R.K.B: DRILLING MEASURED FROM
EKB.FT                   54.9M: KB
EDF.FT                   54.9M: DF
EGL.FT                    -91M: GL
DATE1.         03-DEC-14 @ 05:47: DATE1
RUN1.                    1 & 2: RUN NUMBER
TDD1.FT                  4094M: DEPTH DRILLER
TDL1.FT                  3782M: DEPTH LOGGER
BLI1.FT                  3772M: BOTTOM LOGGED INTERVAL
TLI1.FT                  3572M: TOP LOG INTERVAL
CDD1.IN_FT                    : CASING DRILLER
CDL1.FT                       : CASING LOGGER
BS1.IN                    8.5": BIT SIZE
DFT1.                SEA WATER: TYPE FLUID IN HOLE
DFDV1.GM/C3_CP          1.03SG: DENSITY/VISCOSITY
DFPL1.C3                      : PH/FLUID LOSS
MSS1.                         : SOURCE OF SAMPLE
RMT1.OHHM_DEGF                : RM@MEASURED TEMP
RMFT1.OHMM_DEGF                : RMF@MEASURED TEMP
RMCT1.OHMM_DEGF                : RMC@MEASURED TEMP
RMFS1.                        : SOURCE OF RMF/RMC
RMBT1.OHMM_DEGF                : RM@BHT
TCS1.                         : TIME CIRCULATION STOPPED
TLOB1.                36 HOURS: TIME LOGGER ON BOTTOM
BHT1.DEGF                 FULL: MAXIMUM RECORDED TEMPERATURE
LUN1.                 12030699: EQUIPMENT NUMBER
LUL1.                   NORWAY: LOCATION
ENGI1.              C.JAMIESON: RECORDED BY
WITN1.                A.ALBAWI: WITNESSED BY
~Curve Information Block
DEPT.M             0 000 00 00: Depth
LSPD.M/MIN                   0: Line Speed
LTEN.LB                      0: Surface Line Tension
MINMK.                       0: Minute Mark Ticks
HVOLTA.V                     0: Head Voltage Apparent
CCL.                         0: Casing Collar Locator
~Parameter Information Block
SRFTEMP.DEGC           12.0000: Surface Temperature
MudWgt.LB/GAL           8.5600: Mud Weight
CASETHCK.IN             0.4530: Casing Thickness
BITSIZE.IN             12.2500: Borehole I.D.
~Other Information
TOOL STRING DEPLOYED BY ALTUS INTERVENTION WIRELINE UNIT ON 7/16" CABLE
CABLE HEAD BUILT BY ALTUS
LOG CORRELATED TO SHLUMBERGER 4.5" HSD OX POWER JET PULS DATED 09.APRIL.2014
CORRELATION LOG IS SHALLOWER BY 1.4M, DEPTH SHIFTED 1.4M DOWN AS PER
CLIENTS REQUEST.
4.655" HSC GUN 10 AND 350 DEGREE PHASING, 39 GR MILLENIUM, 4 SHOTS PER FOOT.
ATTEMPT WAS MADE TO RUN 4 GUNS IN ONE STRING BUT AT 3600M PICK UP WEIGHT 
WAS TOO HIGH TO CONTINUE.  CLIENT D4ECIDED TO SPLIT UP ONTO TWO RUNS.
RUN #1 CCL TO TOP SHOT 3.25 M, CCL STOP DEPT: 3729.75 M
PERFORATION INTERVAL 3733M - 3742.6M
RUN #2 CCL TO TOP SHOT 3.25 M, CCL STOP DEPT: 3711.75 M
PERFORATION INTERVAL 3715M - 3724.6M

~A  Depth       LSPD        LTEN       MINMK       HVOLTA       CCL     
# ...
  3771.1500      8.9093   7307.5771      0.0000      3.5156     -0.0183
  3771.1000      8.9093   7307.5771      0.0000      3.5156     -0.0018
  3771.0500      8.9276   7337.1792      0.0000      3.4546     -0.0098
  3771.0000      8.9276   7371.6255      0.0000      3.4851     -0.0040
  3770.9500      8.9276   7371.6255      0.0000      3.4851     -0.0092
  3770.9000      8.9459   7413.2983      0.0000      3.4851     -0.0085
  3770.8500      8.9459   7447.1807      0.0000      3.4645     -0.0134
  3770.8000      8.9459   7447.1807      0.0000      3.4645     -0.0085
  3770.7500      8.9642   7462.6626      0.0000      3.4546     -0.0073
  3770.7000      8.9642   7479.6460      0.0000      3.4950     -0.0180
  3770.6500      8.9642   7479.6460      0.0000      3.4950     -0.0079
  3770.6000      8.9825   7503.4443      0.0000      3.4851      0.0668
  3770.5500      8.9825   7513.9370      0.0000      3.4950     -0.0400
  3770.5000      8.9825   7513.9370      0.0000      3.4950     -0.0058
  3770.4500      9.0343   7512.1938      0.0000      3.4950     -0.0104
  3770.4000      9.0343   7508.8599      0.0000      3.4950      0.0012
  3770.3500      9.0343   7508.8599      0.0000      3.4950      0.0879
  3770.3000      9.0891   7496.3071      0.0000      3.4851     -0.0162
  3770.2500      9.0891   7479.4336      0.0000      3.5255     -0.0217
  3770.2000      9.0891   7479.4336      0.0000      3.5255     -0.0073
  3770.1500      9.1775   7480.1602      0.0000      3.4851     -0.0159
  3770.1000      9.1775   7498.8389      0.0000      3.5255      0.0055
  3770.0500      9.1775   7498.8389      0.0000      3.5255     -0.0076
  3770.0000      9.1958   7525.7881      0.0000      3.4645     -0.0107
  3769.9500      9.1958   7565.6948      0.0000      3.4752     -0.0037
  3769.9000      9.1958   7565.6948      0.0000      3.4752     -0.0095
  3769.8500      9.2507   7615.1831      0.0000      3.5156     -0.0146
  3769.8000      9.2507   7662.2373      0.0000      3.4447     -0.0082
  3769.7500      9.2507   7662.2373      0.0000      3.4447     -0.0131
  3769.7000      9.2842   7703.4702      0.0000      3.4950     -0.0070
  3769.6500      9.2842   7729.9604      0.0000      3.4348     -0.0058
  3769.6000      9.2842   7729.9604      0.0000      3.4348     -0.0079
  3769.5500      9.2842   7735.8540      0.0000      3.5255     -0.0201
  3769.5000      9.2842   7735.8540      0.0000      3.5255     -0.0079
  3769.4500      9.2842   7737.8730      0.0000      3.4653     -0.0012
  3769.4000      9.3391   7736.5488      0.0000      3.5255     -0.1852
  3769.3500      9.3391   7736.5488      0.0000      3.5255     -0.0650
  3769.3000      9.3391   7698.6992      0.0000      3.5057      0.1373
  3769.2500      9.3391   7622.6626      0.0000      3.4645     -0.0439
  3769.2000      9.3939   7622.6626      0.0000      3.4645      0.0073
  3769.1500      9.3939   7548.8599      0.0000      3.4447     -0.0961
  3769.1000      9.3939   7484.9570      0.0000      3.5156      0.2054
  3769.0500      9.3939   7484.9570      0.0000      3.5156      0.0439
  3769.0000      9.3939   7410.1265      0.0000      3.4851      0.7428
  3768.9500      9.3939   7336.3555      0.0000      3.4851      1.0214
  3768.9000      9.4092   7336.3555      0.0000      3.4851     -0.3320
  3768.8500      9.4092   7288.7319      0.0000      3.4950     -0.1105
  3768.8000      9.4092   7265.4766      0.0000      3.4546      0.0342
  3768.7500      9.3939   7265.4766      0.0000      3.4546      0.0024
  3768.7000      9.3939   7258.3574      0.0000      3.5156     -0.0107
  3768.6500      9.3939   7268.3066      0.0000      3.4950     -0.0131
  3768.6000      9.3574   7268.3066      0.0000      3.4950     -0.0070
  3768.5500      9.3574   7293.2632      0.0000      3.5255     -0.0095
  3768.5000      9.3574   7329.6943      0.0000      3.4752     -0.0043
  3768.4500      9.3391   7329.6943      0.0000      3.4752     -0.0143
  3768.4000      9.3391   7367.2549      0.0000      3.4851     -0.0055
  3768.3500      9.3391   7387.6953      0.0000      3.4950     -0.0046
  3768.3000      9.3391   7387.6953      0.0000      3.4950     -0.0101
  3768.2500      9.3391   7394.3882      0.0000      3.4645     -0.0128
  3768.2000      9.3391   7401.0474      0.0000      3.5461     -0.0079
  3768.1500      9.3939   7401.0474      0.0000      3.5461     -0.0024
  3768.1000      9.3939   7392.1128      0.0000      3.4851     -0.1633
  3768.0500      9.3939   7348.8101      0.0000      3.4950      0.0253
  3768.0000      9.3939   7348.8101      0.0000      3.4950     -0.0195
  3767.9500      9.3756   7285.6992      0.0000      3.4950     -0.0699
  3767.9000      9.3756   7285.6992      0.0000      3.4950      0.0815
  3767.8500      9.3756   7222.1128      0.0000      3.5156     -0.0241
  3767.8000      9.4275   7162.7432      0.0000      3.4950     -1.2131
  3767.7500      9.4275   7162.7432      0.0000      3.4950      0.0275
  3767.7000      9.4275   7119.7266      0.0000      3.4645     -0.0763
  3767.6500      9.4092   7102.3047      0.0000      3.4546      0.1617
  3767.6000      9.4092   7102.3047      0.0000      3.4546     -0.2859
  3767.5500      9.4092   7101.3574      0.0000      3.5057      0.0708
  3767.5000      9.3939   7116.2139      0.0000      3.5255      0.0238
  3767.4500      9.3939   7116.2139      0.0000      3.5255     -0.0226
  3767.4000      9.3939   7153.4570      0.0000      3.4645     -0.0238
  3767.3500      9.3756   7201.5850      0.0000      3.4851     -0.0064
  3767.3000      9.3756   7201.5850      0.0000      3.4851     -0.0131
  3767.2500      9.3756   7246.9824      0.0000      3.4950     -0.0021
  3767.2000      9.3391   7288.3975      0.0000      3.4447     -0.0159
  3767.1500      9.3391   7288.3975      0.0000      3.4447     -0.0110
  3767.1000      9.3391   7322.0601      0.0000      3.5255     -0.0134
  3767.0500      9.3391   7346.3120      0.0000      3.4851     -0.0165
  3767.0000      9.3391   7346.3120      0.0000      3.4851     -0.0159
  3766.9500      9.3391   7368.1040      0.0000      3.4340      0.0156
  3766.9000      9.3208   7377.6841      0.0000      3.5255     -0.0183
  3766.8500      9.3208   7377.6841      0.0000      3.5255      0.0211
  3766.8000      9.3208   7357.8486      0.0000      3.5561      0.0732
  3766.7500      9.3208   7324.2646      0.0000      3.4851     -0.0067
  3766.7000      9.3939   7324.2646      0.0000      3.4851     -0.2066
  3766.6500      9.3939   7300.2495      0.0000      3.4950      0.3900
  3766.6000      9.3939   7281.8950      0.0000      3.4851      0.2158
  3766.5500      9.3939   7281.8950      0.0000      3.4851     -0.0842
  3766.5000      9.3939   7271.4023      0.0000      3.5660     -0.0803
  3766.4500      9.3939   7284.3589      0.0000      3.4851      0.0256
  3766.4000      9.4092   7284.3589      0.0000      3.4851      0.0140
  3766.3500      9.4092   7310.1230      0.0000      3.4851     -0.0021
  3766.3000      9.4092   7310.1230      0.0000      3.4851     -0.1550
  3766.2500      9.4275   7330.6978      0.0000      3.5156     -0.0305
  3766.2000      9.4275   7356.7612      0.0000      3.4851      0.0775
  3766.1500      9.4275   7356.7612      0.0000      3.4851     -0.1236
  3766.1000      9.3391   7394.9673      0.0000      3.4546     -0.0003
  3766.0500      9.3391   7431.6416      0.0000      3.4950      0.0809
  3766.0000      9.3391   7431.6416      0.0000      3.4950     -0.0037
  3765.9500      9.3391   7465.5342      0.0000      3.5156     -0.0098
  3765.9000      9.3391   7499.2568      0.0000      3.4546     -0.0128
  3765.8500      9.3391   7499.2568      0.0000      3.4546     -0.0061
  3765.8000      9.3208   7522.0298      0.0000      3.4950     -0.0262
  3765.7500      9.3208   7532.9932      0.0000      3.4447     -0.3134
  3765.7000      9.3208   7532.9932      0.0000      3.4447      0.0952
  3765.6500      9.3025   7536.4326      0.0000      3.5255      0.5820
  3765.6000      9.3025   7518.1763      0.0000      3.4950     -1.1688
