~Version Information
VERS.                      2.0: CWLS Log ASCII Standard - VERSION 2.0
WRAP.                       NO: One line per depth step
~Well Information Block
STRT.M               3782.3500: START DEPTH
STOP.M               3681.1500: STOP DEPTH
STEP.M                 -0.0500: STEP
NULL.                -999.2500: NULL VALUE
COMP.                  STATOIL: COMPANY
WELL.               15/9-F-1-C: WELL
FLD.                     VOLVE: FIELD
LOC.                          : LOCATION
SRVC.          Halliburton Logging Services: SERVICE COMPANY
DATE.          Thu Dec 04 04-49-02 2014: LOG DATE
UWI.                          : UNIQUE WELL ID
CTRY.                   NORWAY: COUNTRY
SECT.                         : SECTION
TOWN.                         : TOWNSHIP
RANG.                         : RANGE
API.                          : API#
OS.                   --NONE--: OTHER SERVICES
PDAT.FT                  M.S.L: PERMANENT DATUM
EEL.FT                   54.9M: ELEVATION
LMF.FT                   R.K.B: LOG MEASURED FROM
DMF.FT                   R.K.B: DRILLING MEASURED FROM
EKB.FT                   54.9M: KB
EDF.FT                   54.9M: DF
EGL.FT                    -91M: GL
DATE1.         03-DEC-14 @ 05:47: DATE1
RUN1.                    1 & 2: RUN NUMBER
TDD1.FT                  4094M: DEPTH DRILLER
TDL1.FT                  3782M: DEPTH LOGGER
BLI1.FT                  3772M: BOTTOM LOGGED INTERVAL
TLI1.FT                  3572M: TOP LOG INTERVAL
CDD1.IN_FT                    : CASING DRILLER
CDL1.FT                       : CASING LOGGER
BS1.IN                    8.5": BIT SIZE
DFT1.                SEA WATER: TYPE FLUID IN HOLE
DFDV1.GM/C3_CP          1.03SG: DENSITY/VISCOSITY
DFPL1.C3                      : PH/FLUID LOSS
MSS1.                         : SOURCE OF SAMPLE
RMT1.OHHM_DEGF                : RM@MEASURED TEMP
RMFT1.OHMM_DEGF                : RMF@MEASURED TEMP
RMCT1.OHMM_DEGF                : RMC@MEASURED TEMP
RMFS1.                        : SOURCE OF RMF/RMC
RMBT1.OHMM_DEGF                : RM@BHT
TCS1.                         : TIME CIRCULATION STOPPED
TLOB1.                36 HOURS: TIME LOGGER ON BOTTOM
BHT1.DEGF                 FULL: MAXIMUM RECORDED TEMPERATURE
LUN1.                 12030699: EQUIPMENT NUMBER
LUL1.                   NORWAY: LOCATION
ENGI1.              C.JAMIESON: RECORDED BY
WITN1.                A.ALBAWI: WITNESSED BY
~Curve Information Block
DEPT.M             0 000 00 00: Depth
LSPD.M/MIN                   0: Line Speed
LTEN.LB                      0: Surface Line Tension
MINMK.                       0: Minute Mark Ticks
HVOLTA.V                     0: Head Voltage Apparent
CCL.                         0: Casing Collar Locator
~Parameter Information Block
SRFTEMP.DEGC           12.0000: Surface Temperature
MudWgt.LB/GAL           8.5600: Mud Weight
CASETHCK.IN             0.4530: Casing Thickness
BITSIZE.IN             12.2500: Borehole I.D.
~Other Information
TOOL STRING DEPLOYED BY ALTUS INTERVENTION WIRELINE UNIT ON 7/16" CABLE
CABLE HEAD BUILT BY ALTUS
LOG CORRELATED TO SHLUMBERGER 4.5" HSD OX POWER JET PULS DATED 09.APRIL.2014
CORRELATION LOG IS SHALLOWER BY 1.4M, DEPTH SHIFTED 1.4M DOWN AS PER
CLIENTS REQUEST.
4.655" HSC GUN 10 AND 350 DEGREE PHASING, 39 GR MILLENIUM, 4 SHOTS PER FOOT.
ATTEMPT WAS MADE TO RUN 4 GUNS IN ONE STRING BUT AT 3600M PICK UP WEIGHT 
WAS TOO HIGH TO CONTINUE.  CLIENT D4ECIDED TO SPLIT UP ONTO TWO RUNS.
RUN #1 CCL TO TOP SHOT 3.25 M, CCL STOP DEPT: 3729.75 M
PERFORATION INTERVAL 3733M - 3742.6M
RUN #2 CCL TO TOP SHOT 3.25 M, CCL STOP DEPT: 3711.75 M
PERFORATION INTERVAL 3715M - 3724.6M

~A  Depth       LSPD        LTEN       MINMK       HVOLTA       CCL     
  3782.3500      0.0000   2483.1926      0.0000      3.4851     -0.0159
  3782.3000      0.4816   3472.3103      1.0000      3.4546     -0.0165
  3782.2500      1.4630   3472.3103      1.0000      3.4546     -0.0134
  3782.2000      2.5695   4088.1265      0.0000      3.5156     -0.0146
  3782.1500      2.5695   4088.1265      0.0000      3.5156     -0.0140
  3782.1000      3.7856   4378.0186      0.0000      3.4752     -0.0159
  3782.0500      4.4988   4504.0161      0.0000      3.4851     -0.0049
  3782.0000      4.4988   4504.0161      0.0000      3.4851     -0.0073
  3781.9500      4.6970   4578.2749      0.0000      3.4950     -0.0104
  3781.9000      4.6970   4646.0640      0.0000      3.4653     -0.0043
  3781.8500      4.8920   4646.0640      0.0000      3.4653     -0.0153
  3781.8000      4.8920   4711.3052      0.0000      3.4950     -0.0113
  3781.7500      5.0536   4771.1055      0.0000      3.4752     -0.0018
  3781.7000      5.3035   4771.1055      0.0000      3.4752     -0.0067
  3781.6500      5.3035   4828.8936      0.0000      3.4950     -0.0070
  3781.6000      5.5535   4882.9902      0.0000      3.4851     -0.0165
  3781.5500      5.5535   4882.9902      0.0000      3.4851     -0.0101
  3781.5000      5.7302   4932.8179      0.0000      3.4645     -0.0104
  3781.4500      5.7302   4984.8174      0.0000      3.4142     -0.0031
  3781.4000      5.7485   4984.8174      0.0000      3.4142     -0.0082
  3781.3500      5.7485   5035.7451      0.0000      3.4546     -0.0049
  3781.3000      5.7302   5075.8325      0.0000      3.4851     -0.0046
  3781.2500      5.7302   5075.8325      0.0000      3.4851     -0.0113
  3781.2000      5.7302   5107.3564      0.0000      3.4546     -0.0180
  3781.1500      5.7302   5136.7373      0.0000      3.4546     -0.0119
  3781.1000      5.6601   5136.7373      0.0000      3.4546     -0.0125
  3781.0500      5.6601   5164.4272      0.0000      3.4653     -0.0119
  3781.0000      5.6967   5193.1240      0.0000      3.5263     -0.0122
  3780.9500      5.6967   5193.1240      0.0000      3.5263     -0.0113
  3780.9000      5.7120   5223.7109      0.0000      3.4851     -0.0040
  3780.8500      5.7120   5248.7129      0.0000      3.4744     -0.0061
  3780.8000      5.8400   5248.7129      0.0000      3.4744     -0.0098
  3780.7500      5.8400   5269.5513      0.0000      3.5156     -0.0046
  3780.7000      5.8918   5297.3750      0.0000      3.5561     -0.0058
  3780.6500      5.8918   5297.3750      0.0000      3.5561     -0.0049
  3780.6000      5.8918   5330.0679      0.0000      3.4447     -0.0183
  3780.5500      5.8918   5330.0679      0.0000      3.4447     -0.0055
  3780.5000      6.0168   5359.1265      0.0000      3.4645     -0.0131
  3780.4500      6.0168   5387.2417      0.0000      3.4851     -0.0143
  3780.4000      5.9802   5387.2417      0.0000      3.4851     -0.0101
  3780.3500      5.9802   5415.3872      0.0000      3.4859     -0.0131
  3780.3000      6.1600   5438.6357      0.0000      3.4546     -0.0107
  3780.2500      6.1600   5438.6357      0.0000      3.4546      0.0000
  3780.2000      6.3917   5462.5659      0.0000      3.4851     -0.0134
  3780.1500      6.3917   5492.9834      0.0000      3.4851     -0.0131
  3780.1000      6.3917   5492.9834      0.0000      3.4851     -0.0128
  3780.0500      6.3917   5521.5488      0.0000      3.5255     -0.0052
  3780.0000      6.3917   5544.1841      1.0000      3.4653     -0.0092
  3779.9500      6.5166   5544.1841      1.0000      3.4653     -0.0113
  3779.9000      6.5166   5566.8047      0.0000      3.4950     -0.0119
  3779.8500      6.4800   5592.2744      0.0000      3.4950     -0.0073
  3779.8000      6.4800   5592.2744      0.0000      3.4950     -0.0076
  3779.7500      6.4282   5625.2412      0.0000      3.3836     -0.0146
  3779.7000      6.4282   5667.5454      0.0000      3.5355     -0.0058
  3779.6500      6.5166   5667.5454      0.0000      3.5355     -0.0162
  3779.6000      6.5166   5705.8276      0.0000      3.4950     -0.0012
  3779.5500      6.5349   5732.7368      0.0000      3.5049     -0.0156
  3779.5000      6.5349   5732.7368      0.0000      3.5049     -0.0131
  3779.4500      6.5166   5762.4092      0.0000      3.5049     -0.0122
  3779.4000      6.5166   5803.9683      0.0000      3.5355     -0.0085
  3779.3500      6.5349   5803.9683      0.0000      3.5355     -0.0153
  3779.3000      6.5349   5849.9321      0.0000      3.4546     -0.0076
  3779.2500      6.4983   5897.1729      0.0000      3.5057     -0.0018
  3779.2000      6.4983   5897.1729      0.0000      3.5057     -0.0046
  3779.1500      6.4983   5943.6113      0.0000      3.5355     -0.0146
  3779.1000      6.3917   5979.0596      0.0000      3.5660     -0.0168
  3779.0500      6.3917   5979.0596      0.0000      3.5660     -0.0070
  3779.0000      6.4800   6005.2002      0.0000      3.4340     -0.0067
  3778.9500      6.4800   6005.2002      0.0000      3.4340     -0.0073
  3778.9000      6.3917   6033.3232      0.0000      3.4950     -0.0055
  3778.8500      6.3917   6062.0073      0.0000      3.5049     -0.0110
  3778.8000      6.3551   6062.0073      0.0000      3.5049     -0.0055
  3778.7500      6.3551   6088.6685      0.0000      3.4950     -0.0079
  3778.7000      6.4465   6120.6655      0.0000      3.4851     -0.0040
  3778.6500      6.4465   6120.6655      0.0000      3.4851     -0.0058
  3778.6000      6.3398   6157.0254      0.0000      3.5057     -0.0058
  3778.5500      6.3398   6191.1431      0.0000      3.4752     -0.0070
  3778.5000      6.3398   6191.1431      0.0000      3.4752     -0.0049
  3778.4500      6.4465   6227.6494      0.0000      3.4752     -0.0076
  3778.4000      6.4465   6263.9692      0.0000      3.4645     -0.0110
  3778.3500      6.4282   6263.9692      0.0000      3.4645     -0.0116
  3778.3000      6.4282   6284.8643      0.0000      3.4851     -0.0058
  3778.2500      6.4282   6294.9385      0.0000      3.4142     -0.0070
  3778.2000      6.4282   6294.9385      0.0000      3.4142     -0.0095
  3778.1500      6.4465   6311.7939      0.0000      3.4752     -0.0131
  3778.1000      6.4465   6335.4272      0.0000      3.4645     -0.0134
  3778.0500      6.4465   6335.4272      0.0000      3.4645     -0.0049
  3778.0000      6.4465   6362.0171      0.0000      3.4439     -0.0079
  3777.9500      6.4465   6394.6519      0.0000      3.4950     -0.0082
  3777.9000      6.4465   6394.6519      0.0000      3.4950     -0.0098
  3777.8500      6.4282   6424.7134      0.0000      3.4546     -0.0146
  3777.8000      6.4282   6445.6475      0.0000      3.4950     -0.0131
  3777.7500      6.4282   6445.6475      0.0000      3.4950     -0.0098
  3777.7000      6.4983   6471.3848      0.0000      3.4950     -0.0110
  3777.6500      6.4983   6504.4258      0.0000      3.4851     -0.0156
  3777.6000      6.3917   6504.4258      0.0000      3.4851     -0.0104
  3777.5500      6.3917   6526.7622      0.0000      3.4950     -0.0073
  3777.5000      6.4465   6536.9272      0.0000      3.4645     -0.0058
  3777.4500      6.4465   6536.9272      0.0000      3.4645     -0.0153
  3777.4000      6.3917   6548.3843      0.0000      3.4447     -0.0137
  3777.3500      6.3917   6548.3843      0.0000      3.4447     -0.0165
  3777.3000      6.3398   6564.8359      0.0000      3.5057     -0.0076
  3777.2500      6.3398   6589.1914      0.0000      3.5660     -0.0125
  3777.2000      6.4099   6589.1914      0.0000      3.5660     -0.0058
  3777.1500      6.4099   6626.3174      0.0000      3.5255     -0.0095
  3777.1000      6.3734   6665.6685      0.0000      3.5355     -0.0186
  3777.0500      6.3734   6665.6685      0.0000      3.5355     -0.0067
  3777.0000      6.3734   6695.5288      0.0000      3.4241     -0.0055
  3776.9500      6.3917   6724.1655      0.0000      3.5866     -0.0049
  3776.9000      6.3917   6724.1655      0.0000      3.5866     -0.0037
  3776.8500      6.3734   6757.5132      0.0000      3.5049     -0.0186
  3776.8000      6.3734   6789.3794      0.0000      3.5057     -0.0116
