~Version Information
VERS.                      2.0: CWLS Log ASCII Standard - VERSION 2.0
WRAP.                       NO: One line per depth step
~Well Information Block
STRT.M               3779.4000: START DEPTH
STOP.M               3680.8000: STOP DEPTH
STEP.M                 -0.0500: STEP
NULL.                -999.2500: NULL VALUE
COMP.                  STATOIL: COMPANY
WELL.               15/9-F-1-C: WELL
FLD.                     VOLVE: FIELD
LOC.                          : LOCATION
SRVC.          Halliburton Logging Services: SERVICE COMPANY
DATE.          Thu Dec 04 05-18-20 2014: LOG DATE
UWI.                          : UNIQUE WELL ID
CTRY.                   NORWAY: COUNTRY
SECT.                         : SECTION
TOWN.                         : TOWNSHIP
RANG.                         : RANGE
API.                          : API#
OS.                   --NONE--: OTHER SERVICES
PDAT.FT                  M.S.L: PERMANENT DATUM
EEL.FT                   54.9M: ELEVATION
LMF.FT                   R.K.B: LOG MEASURED FROM
DMF.FT                   R.K.B: DRILLING MEASURED FROM
EKB.FT                   54.9M: KB
EDF.FT                   54.9M: DF
EGL.FT                    -91M: GL
DATE1.         03-DEC-14 @ 05:47: DATE1
RUN1.                    1 & 2: RUN NUMBER
TDD1.FT                  4094M: DEPTH DRILLER
TDL1.FT                  3782M: DEPTH LOGGER
BLI1.FT                  3772M: BOTTOM LOGGED INTERVAL
TLI1.FT                  3572M: TOP LOG INTERVAL
CDD1.IN_FT                    : CASING DRILLER
CDL1.FT                       : CASING LOGGER
BS1.IN                    8.5": BIT SIZE
DFT1.                SEA WATER: TYPE FLUID IN HOLE
DFDV1.GM/C3_CP          1.03SG: DENSITY/VISCOSITY
DFPL1.C3                      : PH/FLUID LOSS
MSS1.                         : SOURCE OF SAMPLE
RMT1.OHHM_DEGF                : RM@MEASURED TEMP
RMFT1.OHMM_DEGF                : RMF@MEASURED TEMP
RMCT1.OHMM_DEGF                : RMC@MEASURED TEMP
RMFS1.                        : SOURCE OF RMF/RMC
RMBT1.OHMM_DEGF                : RM@BHT
TCS1.                         : TIME CIRCULATION STOPPED
TLOB1.                36 HOURS: TIME LOGGER ON BOTTOM
BHT1.DEGF                 FULL: MAXIMUM RECORDED TEMPERATURE
LUN1.                 12030699: EQUIPMENT NUMBER
LUL1.                   NORWAY: LOCATION
ENGI1.              C.JAMIESON: RECORDED BY
WITN1.                A.ALBAWI: WITNESSED BY
~Curve Information Block
DEPT.M             0 000 00 00: Depth
LSPD.M/MIN                   0: Line Speed
LTEN.LB                      0: Surface Line Tension
MINMK.                       0: Minute Mark Ticks
HVOLTA.V                     0: Head Voltage Apparent
CCL.                         0: Casing Collar Locator
~Parameter Information Block
SRFTEMP.DEGC           10.0000: Surface Temperature
MudWgt.LB/GAL           8.5000: Mud Weight
CASETHCK.IN             0.4530: Casing Thickness
BITSIZE.IN              8.5000: Borehole I.D.
~Other Information
TOOL STRING DEPLOYED BY ALTUS INTERVENTION WIRELINE UNIT ON 7/16" CABLE
CABLE HEAD BUILT BY ALTUS
LOG CORRELATED TO SHLUMBERGER 4.5" HSD OX POWER JET PULS DATED 09.APRIL.2014
CORRELATION LOG IS SHALLOWER BY 1.4M, DEPTH SHIFTED 1.4M DOWN AS PER
CLIENTS REQUEST.
4.655" HSC GUN 10 AND 350 DEGREE PHASING, 39 GR MILLENIUM, 4 SHOTS PER FOOT.
ATTEMPT WAS MADE TO RUN 4 GUNS IN ONE STRING BUT AT 3600M PICK UP WEIGHT 
WAS TOO HIGH TO CONTINUE.  CLIENT D4ECIDED TO SPLIT UP ONTO TWO RUNS.
RUN #1 CCL TO TOP SHOT 3.25 M, CCL STOP DEPT: 3729.75 M
PERFORATION INTERVAL 3733M - 3742.6M
RUN #2 CCL TO TOP SHOT 3.25 M, CCL STOP DEPT: 3711.75 M
PERFORATION INTERVAL 3715M - 3724.6M

~A  Depth       LSPD        LTEN       MINMK       HVOLTA       CCL     
# ...
  3695.4000      8.1595   6892.5322      0.0000      3.5156      1.9872
  3695.3500      8.1412   6927.4375      0.0000      3.4645      1.9771
  3695.3000      8.1412   6927.4375      0.0000      3.4645      1.9951
  3695.2500      8.1412   6956.9941      0.0000      3.5156      1.9936
  3695.2000      8.0894   6974.8105      0.0000      3.4950      1.9835
  3695.1500      8.0894   6974.8105      0.0000      3.4950      1.9905
  3695.1000      8.0894   6984.4927      0.0000      3.4546      2.0049
  3695.0500      8.0894   6982.7603      0.0000      3.4851      1.9902
  3695.0000      8.0894   6982.7603      0.0000      3.4851      1.9820
  3694.9500      8.1077   6975.4854      0.0000      3.4546      2.0073
  3694.9000      8.1077   6975.4854      0.0000      3.4546      2.0049
  3694.8500      8.1077   6971.5864      0.0000      3.4851      1.9896
  3694.8000      8.1260   6960.0938      0.0000      3.4950      1.9625
  3694.7500      8.1260   6960.0938      0.0000      3.4950      1.9988
  3694.7000      8.1260   6936.4136      0.0000      3.4447      1.9854
  3694.6500      8.1412   6915.8608      0.0000      3.4851      1.9857
  3694.6000      8.1412   6915.8608      0.0000      3.4851      2.0076
  3694.5500      8.1412   6901.3765      0.0000      3.4950      2.0009
  3694.5000      8.1778   6886.4736      0.0000      3.4851      1.9719
  3694.4500      8.1778   6886.4736      0.0000      3.4851      1.9774
  3694.4000      8.1778   6881.3281      0.0000      3.5156      1.9823
  3694.3500      8.1778   6891.8628      0.0000      3.4851      1.9863
  3694.3000      8.1778   6891.8628      0.0000      3.4851      1.9719
  3694.2500      8.1778   6902.1201      0.0000      3.4851      2.0125
  3694.2000      8.1778   6905.0254      0.0000      3.4851      1.9997
  3694.1500      8.1778   6905.0254      0.0000      3.4851      1.9847
  3694.1000      8.1595   6908.9360      0.0000      3.4645      1.9704
  3694.0500      8.1595   6914.8491      0.0000      3.4546      1.9841
  3694.0000      8.1412   6914.8491      0.0000      3.4546      1.9924
  3693.9500      8.1412   6921.3784      0.0000      3.4851      1.9850
  3693.9000      8.1412   6927.4570      0.0000      3.4645      1.9905
  3693.8500      8.1077   6927.4570      0.0000      3.4645      2.0043
  3693.8000      8.1077   6920.0874      0.0000      3.4851      1.9921
  3693.7500      8.1077   6889.1089      0.0000      3.4851      2.0153
  3693.7000      8.1260   6889.1089      0.0000      3.4851      1.9838
  3693.6500      8.1260   6846.0869      0.0000      3.4950      1.9973
  3693.6000      8.1260   6809.8877      0.0000      3.5255      1.9829
  3693.5500      8.1260   6809.8877      0.0000      3.5255      1.9808
  3693.5000      8.1260   6789.9946      0.0000      3.4645      1.9826
  3693.4500      8.1260   6788.6450      0.0000      3.4241      1.9857
  3693.4000      8.1260   6788.6450      0.0000      3.4241      1.9945
  3693.3500      8.1260   6799.6899      0.0000      3.4851      2.0006
  3693.3000      8.1778   6799.6899      0.0000      3.4851      2.0082
  3693.2500      8.1778   6815.2041      0.0000      3.5561      1.9982
  3693.2000      8.1778   6839.8350      0.0000      3.4447      1.9936
  3693.1500      8.1595   6839.8350      0.0000      3.4447      1.9707
  3693.1000      8.1595   6875.3032      0.0000      3.4752      1.9744
  3693.0500      8.1961   6905.9937      0.0000      3.4950      1.9829
  3693.0000      8.1961   6905.9937      0.0000      3.4950      1.9805
  3692.9500      8.1961   6924.9497      0.0000      3.4546      1.9857
  3692.9000      8.1595   6944.6157      0.0000      3.4851      2.0031
  3692.8500      8.1595   6944.6157      0.0000      3.4851      1.9811
  3692.8000      8.1595   6969.2598      0.0000      3.4851      1.9902
  3692.7500      8.0894   6993.4233      0.0000      3.4546      1.9756
  3692.7000      8.0894   6993.4233      0.0000      3.4546      1.9921
  3692.6500      8.0894   7021.4272      0.0000      3.4851      1.9936
  3692.6000      8.0894   7052.4805      0.0000      3.4851      1.9878
  3692.5500      8.0894   7052.4805      0.0000      3.4851      1.9966
  3692.5000      8.0711   7075.3086      0.0000      3.4546      1.9805
  3692.4500      8.0711   7093.5854      0.0000      3.4950      1.9893
  3692.4000      8.0711   7093.5854      0.0000      3.4950      1.9997
  3692.3500      8.0894   7112.7842      0.0000      3.5156      1.9805
  3692.3000      8.0894   7118.3579      0.0000      3.4546      1.9860
  3692.2500      8.0894   7118.3579      0.0000      3.4546      1.9924
  3692.2000      8.0894   7104.4434      0.0000      3.4950      2.0070
  3692.1500      8.0894   7084.7251      0.0000      3.4546      1.9786
  3692.1000      8.1260   7084.7251      0.0000      3.4546      1.9832
  3692.0500      8.1260   7060.9019      0.0000      3.4851      1.9890
  3692.0000      8.1260   7028.2529      0.0000      3.5355      1.9844
  3691.9500      8.1412   7028.2529      0.0000      3.5355      1.9832
  3691.9000      8.1412   6997.9360      0.0000      3.4851      1.9820
  3691.8500      8.1412   6972.2324      0.0000      3.4447      1.9799
  3691.8000      8.1778   6972.2324      0.0000      3.4447      1.9808
  3691.7500      8.1778   6940.1934      0.0000      3.4546      1.9884
  3691.7000      8.1778   6940.1934      0.0000      3.4546      2.0168
  3691.6500      8.1961   6913.1553      0.0000      3.4851      1.9756
  3691.6000      8.1961   6912.0503      0.0000      3.4851      1.9710
  3691.5500      8.1412   6912.0503      0.0000      3.4851      1.9954
  3691.5000      8.1412   6934.9639      0.0000      3.4950      1.9896
  3691.4500      8.1412   6971.4966      0.0000      3.4851      1.9979
  3691.4000      8.1077   6971.4966      0.0000      3.4851      1.9994
  3691.3500      8.1077   7015.8594      0.0000      3.4950      1.9927
  3691.3000      8.1077   7056.8105      0.0000      3.4950      2.0070
  3691.2500      8.0894   7056.8105      0.0000      3.4950      1.9680
  3691.2000      8.0894   7089.1392      0.0000      3.4851      1.9890
  3691.1500      8.1077   7120.8271      0.0000      3.4851      2.0064
  3691.1000      8.1077   7120.8271      0.0000      3.4851      1.9741
  3691.0500      8.1077   7153.8862      0.0000      3.4851      1.9869
  3691.0000      8.0711   7190.9175      0.0000      3.4851      2.0119
  3690.9500      8.0711   7190.9175      0.0000      3.4851      1.9905
  3690.9000      8.0711   7240.8716      0.0000      3.4546      1.9881
  3690.8500      8.1260   7289.2354      0.0000      3.4950      1.9899
  3690.8000      8.1260   7289.2354      0.0000      3.4950      1.9924
  3690.7500      8.1077   7308.0210      0.0000      3.4645      1.9881
  3690.7000      8.1077   7293.4019      0.0000      3.4950      2.0031
  3690.6500      8.1077   7293.4019      0.0000      3.4950      1.9878
  3690.6000      8.1260   7246.7754      0.0000      3.4851      1.9841
  3690.5500      8.1260   7158.8633      0.0000      3.4851      2.0366
  3690.5000      8.1260   7158.8633      0.0000      3.4851      2.0082
  3690.4500      8.1778   7043.8994      0.0000      3.4851      1.9741
  3690.4000      8.1778   6930.4473      0.0000      3.4447      1.9951
  3690.3500      8.1778   6930.4473      0.0000      3.4447      1.9927
  3690.3000      8.1412   6824.7002      1.0000      3.4950      1.9484
  3690.2500      8.1412   6737.1465      0.0000      3.4851      1.9963
  3690.2000      8.1778   6737.1465      0.0000      3.4851      1.9899
  3690.1500      8.1778   6694.5571      0.0000      3.4851      2.0009
  3690.1000      8.1778   6694.5571      0.0000      3.4851      1.9799
  3690.0500      8.1778   6692.8467      0.0000      3.4950      1.9826
  3690.0000      8.1778   6703.9233      0.0000      3.4546      1.9872
  3689.9500      8.1778   6703.9233      0.0000      3.4546      1.9960
  3689.9000      8.1778   6723.7485      0.0000      3.4950      1.9805
  3689.8500      8.1778   6756.7354      0.0000      3.4851      1.9884
