~Version Information
VERS.                      2.0: CWLS Log ASCII Standard - VERSION 2.0
WRAP.                       NO: One line per depth step
~Well Information Block
STRT.M               3779.4000: START DEPTH
STOP.M               3680.8000: STOP DEPTH
STEP.M                 -0.0500: STEP
NULL.                -999.2500: NULL VALUE
COMP.                  STATOIL: COMPANY
WELL.               15/9-F-1-C: WELL
FLD.                     VOLVE: FIELD
LOC.                          : LOCATION
SRVC.          Halliburton Logging Services: SERVICE COMPANY
DATE.          Thu Dec 04 05-18-20 2014: LOG DATE
UWI.                          : UNIQUE WELL ID
CTRY.                   NORWAY: COUNTRY
SECT.                         : SECTION
TOWN.                         : TOWNSHIP
RANG.                         : RANGE
API.                          : API#
OS.                   --NONE--: OTHER SERVICES
PDAT.FT                  M.S.L: PERMANENT DATUM
EEL.FT                   54.9M: ELEVATION
LMF.FT                   R.K.B: LOG MEASURED FROM
DMF.FT                   R.K.B: DRILLING MEASURED FROM
EKB.FT                   54.9M: KB
EDF.FT                   54.9M: DF
EGL.FT                    -91M: GL
DATE1.         03-DEC-14 @ 05:47: DATE1
RUN1.                    1 & 2: RUN NUMBER
TDD1.FT                  4094M: DEPTH DRILLER
TDL1.FT                  3782M: DEPTH LOGGER
BLI1.FT                  3772M: BOTTOM LOGGED INTERVAL
TLI1.FT                  3572M: TOP LOG INTERVAL
CDD1.IN_FT                    : CASING DRILLER
CDL1.FT                       : CASING LOGGER
BS1.IN                    8.5": BIT SIZE
DFT1.                SEA WATER: TYPE FLUID IN HOLE
DFDV1.GM/C3_CP          1.03SG: DENSITY/VISCOSITY
DFPL1.C3                      : PH/FLUID LOSS
MSS1.                         : SOURCE OF SAMPLE
RMT1.OHHM_DEGF                : RM@MEASURED TEMP
RMFT1.OHMM_DEGF                : RMF@MEASURED TEMP
RMCT1.OHMM_DEGF                : RMC@MEASURED TEMP
RMFS1.                        : SOURCE OF RMF/RMC
RMBT1.OHMM_DEGF                : RM@BHT
TCS1.                         : TIME CIRCULATION STOPPED
TLOB1.                36 HOURS: TIME LOGGER ON BOTTOM
BHT1.DEGF                 FULL: MAXIMUM RECORDED TEMPERATURE
LUN1.                 12030699: EQUIPMENT NUMBER
LUL1.                   NORWAY: LOCATION
ENGI1.              C.JAMIESON: RECORDED BY
WITN1.                A.ALBAWI: WITNESSED BY
~Curve Information Block
DEPT.M             0 000 00 00: Depth
LSPD.M/MIN                   0: Line Speed
LTEN.LB                      0: Surface Line Tension
MINMK.                       0: Minute Mark Ticks
HVOLTA.V                     0: Head Voltage Apparent
CCL.                         0: Casing Collar Locator
~Parameter Information Block
SRFTEMP.DEGC           10.0000: Surface Temperature
MudWgt.LB/GAL           8.5000: Mud Weight
CASETHCK.IN             0.4530: Casing Thickness
BITSIZE.IN              8.5000: Borehole I.D.
~Other Information
TOOL STRING DEPLOYED BY ALTUS INTERVENTION WIRELINE UNIT ON 7/16" CABLE
CABLE HEAD BUILT BY ALTUS
LOG CORRELATED TO SHLUMBERGER 4.5" HSD OX POWER JET PULS DATED 09.APRIL.2014
CORRELATION LOG IS SHALLOWER BY 1.4M, DEPTH SHIFTED 1.4M DOWN AS PER
CLIENTS REQUEST.
4.655" HSC GUN 10 AND 350 DEGREE PHASING, 39 GR MILLENIUM, 4 SHOTS PER FOOT.
ATTEMPT WAS MADE TO RUN 4 GUNS IN ONE STRING BUT AT 3600M PICK UP WEIGHT 
WAS TOO HIGH TO CONTINUE.  CLIENT D4ECIDED TO SPLIT UP ONTO TWO RUNS.
RUN #1 CCL TO TOP SHOT 3.25 M, CCL STOP DEPT: 3729.75 M
PERFORATION INTERVAL 3733M - 3742.6M
RUN #2 CCL TO TOP SHOT 3.25 M, CCL STOP DEPT: 3711.75 M
PERFORATION INTERVAL 3715M - 3724.6M

~A  Depth       LSPD        LTEN       MINMK       HVOLTA       CCL     
  3779.4000   -999.2500   3389.9668      0.0000      3.4851   -999.2500
  3779.3500      0.0000   3389.9668      0.0000      3.4851     -0.0128
  3779.3000      0.0000   4635.4185      0.0000      3.4851     -0.0095
  3779.2500      1.0333   5339.3604      0.0000      3.5156     -0.0131
  3779.2000      2.2494   5339.3604      0.0000      3.5156     -0.0043
  3779.1500      2.2494   5628.3223      0.0000      3.4851     -0.0116
  3779.1000      3.4107   5737.0288      0.0000      3.5255     -0.0150
  3779.0500      3.4107   5737.0288      0.0000      3.5255     -0.0098
  3779.0000      4.7854   5783.1372      0.0000      3.4851     -0.0110
  3778.9500      4.7854   5783.1372      0.0000      3.4851     -0.0034
  3778.9000      5.2121   5811.2764      0.0000      3.5255     -0.0146
  3778.8500      5.3218   5840.1890      0.0000      3.4851     -0.0012
  3778.8000      5.3218   5840.1890      0.0000      3.4851     -0.0104
  3778.7500      5.6236   5865.2622      0.0000      3.5255     -0.0098
  3778.7000      5.6236   5886.2168      0.0000      3.4851     -0.0134
  3778.6500      5.7851   5886.2168      0.0000      3.4851     -0.0113
  3778.6000      5.7851   5911.7627      0.0000      3.4645     -0.0046
  3778.5500      5.8735   5936.1880      0.0000      3.4851     -0.0168
  3778.5000      5.8735   5936.1880      0.0000      3.4851     -0.0156
  3778.4500      5.8735   5954.4688      0.0000      3.4546     -0.0015
  3778.4000      6.1783   5975.4854      0.0000      3.4950     -0.0113
  3778.3500      6.1783   5975.4854      0.0000      3.4950     -0.0116
  3778.3000      6.2149   6000.0869      0.0000      3.5156     -0.0064
  3778.2500      6.2149   6026.1021      0.0000      3.4950     -0.0156
  3778.2000      6.3033   6026.1021      0.0000      3.4950     -0.0140
  3778.1500      6.3033   6062.4131      0.0000      3.4851     -0.0137
  3778.1000      6.3033   6106.2090      0.0000      3.4645     -0.0098
  3778.0500      6.3033   6106.2090      0.0000      3.4645     -0.0034
  3778.0000      6.2667   6142.0732      0.0000      3.5156     -0.0073
  3777.9500      6.2667   6174.6650      0.0000      3.4851     -0.0101
  3777.9000      6.4282   6174.6650      0.0000      3.4851     -0.0150
  3777.8500      6.4282   6217.0381      0.0000      3.4950     -0.0174
  3777.8000      6.3551   6262.3037      0.0000      3.5057     -0.0143
  3777.7500      6.3551   6262.3037      0.0000      3.5057     -0.0128
  3777.7000      6.3551   6306.6099      0.0000      3.4546     -0.0085
  3777.6500      6.4282   6357.5601      0.0000      3.4851     -0.0046
  3777.6000      6.3734   6357.5601      0.0000      3.4851     -0.0040
  3777.5500      6.3734   6408.1489      0.0000      3.4851     -0.0137
  3777.5000      6.3734   6451.1055      0.0000      3.4851     -0.0024
  3777.4500      6.3398   6451.1055      0.0000      3.4851     -0.0079
  3777.4000      6.3398   6494.6934      0.0000      3.4950     -0.0153
  3777.3500      6.3216   6494.6934      0.0000      3.4950     -0.0092
  3777.3000      6.3216   6537.4556      0.0000      3.4851     -0.0134
  3777.2500      6.3216   6569.9727      0.0000      3.4950     -0.0098
  3777.2000      6.3216   6569.9727      0.0000      3.4950     -0.0067
  3777.1500      6.3734   6601.3613      0.0000      3.4851     -0.0067
  3777.1000      6.3734   6646.4175      0.0000      3.4950     -0.0076
  3777.0500      6.2850   6646.4175      0.0000      3.4950     -0.0110
  3777.0000      6.2850   6704.2383      0.0000      3.5156     -0.0034
  3776.9500      6.3734   6767.3540      0.0000      3.4851     -0.0067
  3776.9000      6.3734   6767.3540      0.0000      3.4851     -0.0076
  3776.8500      6.2484   6824.2749      0.0000      3.4752     -0.0125
  3776.8000      6.2484   6860.5952      0.0000      3.4851     -0.0131
  3776.7500      6.2149   6860.5952      0.0000      3.4851     -0.0073
  3776.7000      6.2149   6880.4263      0.0000      3.4546     -0.0064
  3776.6500      6.2149   6901.4019      0.0000      3.4752     -0.0064
  3776.6000      6.2850   6901.4019      0.0000      3.4752     -0.0171
  3776.5500      6.2850   6926.3364      0.0000      3.4546     -0.0104
  3776.5000      6.2484   6951.1357      0.0000      3.4752     -0.0122
  3776.4500      6.2484   6951.1357      0.0000      3.4752     -0.0122
  3776.4000      6.3398   6981.5884      0.0000      3.4752     -0.0061
  3776.3500      6.3398   7015.3442      0.0000      3.4447     -0.0122
  3776.3000      6.3398   7015.3442      0.0000      3.4447     -0.0034
  3776.2500      6.3398   7041.0405      0.0000      3.4851     -0.0146
  3776.2000      6.4099   7063.6426      0.0000      3.4752     -0.0168
  3776.1500      6.4099   7063.6426      0.0000      3.4752     -0.0064
  3776.1000      6.4648   7090.8979      0.0000      3.4851     -0.0107
  3776.0500      6.4648   7116.5215      0.0000      3.4950     -0.0122
  3776.0000      6.4648   7116.5215      0.0000      3.4950     -0.0046
  3775.9500      6.6599   7143.1431      0.0000      3.5156     -0.0146
  3775.9000      6.6599   7175.9399      0.0000      3.4950     -0.0137
  3775.8500      6.8031   7175.9399      0.0000      3.4950     -0.0101
  3775.8000      6.8031   7196.9604      0.0000      3.5255      0.0009
  3775.7500      6.8397   7196.9604      0.0000      3.5255     -0.0162
  3775.7000      6.8397   7196.7139      0.0000      3.5255     -0.0052
  3775.6500      6.9464   7200.3921      0.0000      3.4851     -0.0122
  3775.6000      6.9464   7200.3921      0.0000      3.4851     -0.0165
  3775.5500      6.9464   7225.3750      0.0000      3.4950     -0.0143
  3775.5000      6.8214   7261.1836      0.0000      3.4851     -0.0031
  3775.4500      6.8214   7261.1836      0.0000      3.4851     -0.0040
  3775.4000      6.9098   7301.5737      0.0000      3.4546     -0.0156
  3775.3500      6.9098   7344.0049      0.0000      3.4645     -0.0079
  3775.3000      6.9281   7344.0049      0.0000      3.4645     -0.0266
  3775.2500      6.9281   7380.2227      0.0000      3.4546     -0.0101
  3775.2000      6.9281   7415.5264      1.0000      3.4546     -0.0073
  3775.1500      6.8915   7415.5264      1.0000      3.4546     -0.0061
  3775.1000      6.8915   7457.2607      0.0000      3.4546     -0.0037
  3775.0500      6.9647   7495.9844      0.0000      3.5255     -0.0159
  3775.0000      6.9647   7495.9844      0.0000      3.5255      0.0089
  3774.9500      6.9281   7530.4941      0.0000      3.4645     -0.0092
  3774.9000      6.9281   7572.4092      0.0000      3.4851     -0.0076
  3774.8500      6.9281   7572.4092      0.0000      3.4851     -0.0070
  3774.8000      6.9098   7614.6978      0.0000      3.4645      0.0110
  3774.7500      6.9098   7644.0942      0.0000      3.5255     -0.0458
  3774.7000      6.9281   7644.0942      0.0000      3.5255      0.0522
  3774.6500      6.9281   7668.1064      0.0000      3.4752     -0.1215
  3774.6000      6.8397   7689.9087      0.0000      3.4950     -0.0684
  3774.5500      6.8397   7689.9087      0.0000      3.4950     -0.0592
  3774.5000      6.6416   7700.1914      0.0000      3.4950      0.1175
  3774.4500      6.6416   7707.7944      0.0000      3.4950     -0.0516
  3774.4000      6.3917   7707.7944      0.0000      3.4950     -0.1022
  3774.3500      6.3917   7724.6577      0.0000      3.4752     -0.0095
  3774.3000      6.1051   7739.0356      0.0000      3.4752      0.0806
  3774.2500      6.1051   7739.0356      0.0000      3.4752      0.2567
  3774.2000      5.9649   7747.5522      0.0000      3.4752      0.4416
  3774.1500      5.9649   7747.5522      0.0000      3.4752     -0.3799
  3774.1000      5.8918   7767.0225      0.0000      3.4851     -0.0244
  3774.0500      5.8918   7794.8086      0.0000      3.4851      0.0119
  3774.0000      5.8918   7794.8086      0.0000      3.4851      0.0168
  3773.9500      5.8918   7816.6045      0.0000      3.4752      0.0232
  3773.9000      5.8918   7835.9355      0.0000      3.4645     -0.1556
  3773.8500      5.8918   7835.9355      0.0000      3.4645     -0.0479
