~Version Information
VERS.             2.0 : CWLS log ASCII standard - Version 2.0
WRAP.             NO  : One line per depth step
#
~Well Information Block
#MNEM.UNIT                   Data Type:Information
#__________________________________________________________
 STRT .M           2450.13480  :START INDEX                  
  STOP.M           3113.3796 : STOP INDEX                    
 STEP .M              0.00000  :STEP                         
  NULL.              -999.25 : NULL VALUE                    
  COMP.              Statoil : COMPANY                       
  WELL.            15_9_F-12 : WELL                          
   FLD.                Volve : FIELD                         
   LOC.           Maersk Inspirer : LOCATION                      
  PROV.                      : PROVINCE                      
  CNTY.                      : COUNTY                        
  STAT.                      : STATE                         
  CTRY.                      : COUNTRY                       
  SRVC.              SLB D&M : SERVICE COMPANY               
  DATE.                      : LOG DATE                      
   UWI.                      : UNIQUE WELL ID                
   API.                      : API NUMBER                    
#
~Curve Information Block
#MNEM.UNIT                     : Curve Description
#---------                     --------------------
DEPT        .M                 : Bit Depth 2hz                                                   
TVDE        .M                 : SVY TVD_EXTR 2hz                                                
ARC_GR_RT   .GAPI              : ARC Gamma Ray, Real-Time                                        
ROP5        .M/HR              : 5ft ROP 2hz                                                     
SWOB        .KKGF              : Surface Weight on Bit 2hz                                       
RPM         .RPM               : SRF SRPM 2hz                                                    
TFLO        .LPM               : HSPM Total Pump Flow 2hz                                        
TRPM_RT     .RPM               : MWD TUR_RPM 2hz                                                 
SPPA        .BAR               : SRF PUMPRS 2hz                                                  
TQA         .KMN               : SRF STOR 2hz                                                    
SHKRSK_RT   .----              : MWD SHKRSK 2hz                                                  
SHK2_RT     .----              : ARC Shock Level, Real-Time                                      
SHK_ADN_RT  .----              : ADN Shock Level, Real-Time                                      
PDSHKRSK    .----              : PowerDrive Shock Risk 2hz                                       
ECD_ARC     .G/C3              : Equivalent Circulating Density                                  
ATMP        .DEGC              : ARC Annular Temperature                                         
APRS_ARC    .BAR               : ARC Annular Pressure                                            
#
~Parameter Information Block
#MNEM.UNIT                       Value:Description
#__________________________________________________________
#
~Other Information Block

#
~A    DEPT       TVDE  ARC_GR_RT       ROP5       SWOB        RPM       TFLO    TRPM_RT       SPPA        TQA  SHKRSK_RT    SHK2_RT SHK_ADN_RT   PDSHKRSK    ECD_ARC       ATMP   APRS_ARC
# ...
 3105.4548  2858.3561    -999.25    10.0931     5.7072   138.9074  3395.4215  2617.1875   235.3501    27.0980    -999.25    -999.25    -999.25     0.0000    -999.25    -999.25    -999.25
 3105.6072  2858.4484    -999.25    10.0937     5.6173   138.8990  3408.5817    -999.25   235.2915    25.0004     0.0000     0.0000    -999.25    -999.25    -999.25    -999.25    -999.25
 3105.7595  2858.5344    -999.25    10.0908     5.3149   139.2844  3437.6465    -999.25   235.1928    25.9754    -999.25    -999.25    -999.25    -999.25    -999.25    -999.25    -999.25
 3105.9121  2858.6210    -999.25    10.0944     5.6622   139.5000  3522.6071  2617.1875   235.5360    26.7822    -999.25    -999.25    -999.25     0.0000    -999.25    -999.25    -999.25
 3106.0645  2858.7073    -999.25    10.0914     6.0145   139.3578  3522.6071    -999.25   235.5097    24.7013     0.0000     0.0000    -999.25    -999.25    -999.25    -999.25    -999.25
 3106.2168  2858.7993    -999.25    10.0892     5.4811   139.4220  3522.6071    -999.25   235.4037    26.3799    -999.25    -999.25    -999.25    -999.25    -999.25    -999.25    -999.25
 3106.3691  2858.8859    -999.25    10.0946     5.0799   139.4444  3522.6071  2617.1875   235.4425    24.6518    -999.25    -999.25    -999.25     0.0000    -999.25    -999.25    -999.25
 3106.5215  2858.9722    -999.25    10.0898     5.4167   139.4037  3522.6071    -999.25   235.3522    25.5529     0.0000     0.0000    -999.25    -999.25    -999.25    -999.25    -999.25
 3106.6741  2859.0583    -999.25    10.0931     4.9210   139.3853  3522.6071    -999.25   235.3518    24.2643    -999.25    -999.25    -999.25    -999.25    -999.25    -999.25    -999.25
 3106.8264  2859.1505    -999.25    10.0966     4.8432   139.4630  3522.6071  2617.1875   235.5029    25.5571    -999.25    -999.25    -999.25     0.0000    -999.25    -999.25    -999.25
 3106.9788  2859.2369    -999.25    10.0915     5.6691   139.5229  3522.6071    -999.25   235.6076    25.6840     0.0000     0.0000    -999.25    -999.25    -999.25    -999.25    -999.25
 3107.1311  2859.3232    -999.25    10.0944     5.2068   139.5138  3522.6071    -999.25   235.4542    24.9030    -999.25    -999.25    -999.25    -999.25    -999.25    -999.25    -999.25
 3107.2837  2859.4098    -999.25    10.0959     5.1503   139.0367  3522.6071    -999.25   235.4482    25.2695    -999.25    -999.25    -999.25     0.0000    -999.25    -999.25    -999.25
 3107.4360  2859.5018    -999.25    10.0931     5.2472   139.3670  3522.6071  2617.1875   235.5626    26.4928     0.0000    -999.25    -999.25    -999.25    -999.25    -999.25    -999.25
 3107.5884  2859.5881    -999.25    10.0946     4.9808   138.6852  3522.6071    -999.25   235.3717    26.0684    -999.25     0.0000    -999.25    -999.25    -999.25    -999.25    -999.25
 3107.7407  2859.6744    -999.25    10.0953     5.1722   139.1835  3522.6071    -999.25   235.4577    24.1409    -999.25    -999.25    -999.25    -999.25    -999.25    -999.25    -999.25
 3107.8933  2859.7607    -999.25    10.0944     4.8803   139.3148  3522.6071  2617.1875   235.6514    25.3283     0.0000    -999.25    -999.25     0.0000    -999.25    -999.25    -999.25
 3108.0457  2859.8530    -999.25    10.0966     5.6239   139.4587  3522.6071    -999.25   235.6279    25.1114    -999.25     0.0000    -999.25    -999.25    -999.25    -999.25    -999.25
 3108.1980  2859.9393    -999.25    10.0953     5.3645   139.0184  3522.6071    -999.25   235.5591    24.2335    -999.25    -999.25    -999.25    -999.25    -999.25    -999.25    -999.25
 3108.3503  2860.0256    -999.25    10.0930     5.1619   138.9082  3522.6071  2617.1875   235.7281    25.9585     0.0000    -999.25    -999.25     0.0000    -999.25    -999.25    -999.25
 3108.5027  2860.1120    -999.25    10.0967     5.7986   138.9167  3522.6071    -999.25   235.7843    23.5861    -999.25     0.0000    -999.25    -999.25    -999.25    -999.25    -999.25
 3108.6553  2860.2042    -999.25    10.0962     5.6410   139.0734  3522.6071    -999.25   235.6528    25.0573    -999.25    -999.25    -999.25    -999.25    -999.25    -999.25    -999.25
 3108.8076  2860.2906    -999.25    10.0970     5.1889   139.2037  3522.6071  2617.1875   235.7059    25.3486     0.0000    -999.25    -999.25     0.0000    -999.25    -999.25    -999.25
 3108.9600  2860.3769    -999.25    10.0992     6.0596   138.9908  3522.6071    -999.25   235.7537    24.9554    -999.25     0.0000    -999.25    -999.25    -999.25    -999.25    -999.25
 3109.1123  2860.4632    -999.25    10.0625     7.6939   139.2212  3522.6071    -999.25   235.8140    23.2095    -999.25    -999.25    -999.25    -999.25    -999.25    -999.25    -999.25
 3109.2649  2860.5495    -999.25     9.2899     8.9314   139.1105  3522.6071  2617.1875   235.8147    22.9137     0.0000     0.0000    -999.25     0.0000    -999.25    -999.25    -999.25
 3109.4172  2860.6415    -999.25     7.3104     9.2534   138.8924  3522.6071  2617.1875   235.7686    22.2814     0.0000     0.0000    -999.25     0.0000    -999.25    -999.25    -999.25
 3109.5696  2860.7281    -999.25     7.0060     6.3333   139.1322  3522.6071  2617.1875   235.5501    23.3336     0.0000    -999.25    -999.25     0.0000    -999.25    -999.25    -999.25
 3109.7219  2860.8144    -999.25     7.0039     5.7436   139.2294  3522.6071    -999.25   235.8315    27.9307    -999.25     0.0000    -999.25    -999.25    -999.25    -999.25    -999.25
 3109.8745  2860.9008    -999.25     7.0054     6.0724   139.1101  3522.6071    -999.25   235.8785    26.5954    -999.25    -999.25    -999.25    -999.25    -999.25    -999.25    -999.25
 3110.0269  2860.9930    -999.25     7.0051     5.6827   138.5963  3522.6071  2617.1875   235.7550    26.1445     0.0000    -999.25    -999.25     0.0000    -999.25    -999.25    -999.25
 3110.1792  2861.0791    -999.25     7.0040     5.4258   139.2963  3522.6071    -999.25   235.9658    26.0502    -999.25     0.0000    -999.25    -999.25    -999.25    -999.25    -999.25
 3110.3315  2861.1657    -999.25     7.0035     5.4856   138.7615  3522.6071    -999.25   236.0349    23.3365    -999.25    -999.25    -999.25    -999.25    -999.25    -999.25    -999.25
 3110.4839  2861.2520    -999.25     7.0036     5.3502   139.1651  3522.6071  2617.1875   235.9173    25.0174     0.0000    -999.25    -999.25     0.0000    -999.25    -999.25    -999.25
 3110.6365  2861.3440    -999.25     7.0206     5.1651   139.3395  3522.6071    -999.25   236.1175    26.2817    -999.25     0.0000    -999.25    -999.25    -999.25    -999.25    -999.25
 3110.7888  2861.4303    -999.25     7.4543     5.3653   139.0833  3522.6071    -999.25   236.2155    24.4852    -999.25    -999.25    -999.25    -999.25    -999.25    -999.25    -999.25
 3110.9412  2861.5169    -999.25     9.5188     5.9547   139.0826  3522.6071  2617.1875   236.2098    25.1309     0.0000    -999.25    -999.25     0.0000    -999.25    -999.25    -999.25
 3111.0935  2861.6032    -999.25    10.0898     6.0099   138.8165  3522.6071    -999.25   236.1919    22.9601    -999.25     0.0000    -999.25    -999.25    -999.25    -999.25    -999.25
 3111.2461  2861.6952    -999.25    10.0914     5.9433   139.2752  3522.6071    -999.25   236.3005    25.8061    -999.25    -999.25    -999.25    -999.25    -999.25    -999.25    -999.25
 3111.3984  2861.7815    -999.25    10.0901     5.6687   139.0926  3522.6071  2617.1875   236.2848    25.7620     0.0000    -999.25    -999.25     0.0000    -999.25    -999.25    -999.25
 3111.5508  2861.8678    -999.25    10.0888     5.6460   139.1743  3522.6071    -999.25   236.3020    25.0693    -999.25     0.0000    -999.25    -999.25    -999.25    -999.25    -999.25
 3111.7031  2861.9542    -999.25    10.0914     5.5978   139.7982  3522.6071    -999.25   236.3770    26.2740    -999.25    -999.25    -999.25    -999.25    -999.25    -999.25    -999.25
 3111.8557  2862.0464    -999.25    10.0891     5.5231   139.3761  3522.6071  2617.1875   236.3881    26.1078     0.0000    -999.25    -999.25     0.0000    -999.25    -999.25    -999.25
