~Version Information
VERS.                      2.0: CWLS Log ASCII Standard - VERSION 2.0
WRAP.                       NO: One line per depth step
~Well Information Block
STRT.M               3782.3500: START DEPTH
STOP.M               3681.1500: STOP DEPTH
STEP.M                 -0.0500: STEP
NULL.                -999.2500: NULL VALUE
COMP.                  STATOIL: COMPANY
WELL.               15/9-F-1-C: WELL
FLD.                     VOLVE: FIELD
LOC.                          : LOCATION
SRVC.          Halliburton Logging Services: SERVICE COMPANY
DATE.          Thu Dec 04 04-49-02 2014: LOG DATE
UWI.                          : UNIQUE WELL ID
CTRY.                   NORWAY: COUNTRY
SECT.                         : SECTION
TOWN.                         : TOWNSHIP
RANG.                         : RANGE
API.                          : API#
OS.                   --NONE--: OTHER SERVICES
PDAT.FT                  M.S.L: PERMANENT DATUM
EEL.FT                   54.9M: ELEVATION
LMF.FT                   R.K.B: LOG MEASURED FROM
DMF.FT                   R.K.B: DRILLING MEASURED FROM
EKB.FT                   54.9M: KB
EDF.FT                   54.9M: DF
EGL.FT                    -91M: GL
DATE1.         03-DEC-14 @ 05:47: DATE1
RUN1.                    1 & 2: RUN NUMBER
TDD1.FT                  4094M: DEPTH DRILLER
TDL1.FT                  3782M: DEPTH LOGGER
BLI1.FT                  3772M: BOTTOM LOGGED INTERVAL
TLI1.FT                  3572M: TOP LOG INTERVAL
CDD1.IN_FT                    : CASING DRILLER
CDL1.FT                       : CASING LOGGER
BS1.IN                    8.5": BIT SIZE
DFT1.                SEA WATER: TYPE FLUID IN HOLE
DFDV1.GM/C3_CP          1.03SG: DENSITY/VISCOSITY
DFPL1.C3                      : PH/FLUID LOSS
MSS1.                         : SOURCE OF SAMPLE
RMT1.OHHM_DEGF                : RM@MEASURED TEMP
RMFT1.OHMM_DEGF                : RMF@MEASURED TEMP
RMCT1.OHMM_DEGF                : RMC@MEASURED TEMP
RMFS1.                        : SOURCE OF RMF/RMC
RMBT1.OHMM_DEGF                : RM@BHT
TCS1.                         : TIME CIRCULATION STOPPED
TLOB1.                36 HOURS: TIME LOGGER ON BOTTOM
BHT1.DEGF                 FULL: MAXIMUM RECORDED TEMPERATURE
LUN1.                 12030699: EQUIPMENT NUMBER
LUL1.                   NORWAY: LOCATION
ENGI1.              C.JAMIESON: RECORDED BY
WITN1.                A.ALBAWI: WITNESSED BY
~Curve Information Block
DEPT.M             0 000 00 00: Depth
LSPD.M/MIN                   0: Line Speed
LTEN.LB                      0: Surface Line Tension
MINMK.                       0: Minute Mark Ticks
HVOLTA.V                     0: Head Voltage Apparent
CCL.                         0: Casing Collar Locator
~Parameter Information Block
SRFTEMP.DEGC           12.0000: Surface Temperature
MudWgt.LB/GAL           8.5600: Mud Weight
CASETHCK.IN             0.4530: Casing Thickness
BITSIZE.IN             12.2500: Borehole I.D.
~Other Information
TOOL STRING DEPLOYED BY ALTUS INTERVENTION WIRELINE UNIT ON 7/16" CABLE
CABLE HEAD BUILT BY ALTUS
LOG CORRELATED TO SHLUMBERGER 4.5" HSD OX POWER JET PULS DATED 09.APRIL.2014
CORRELATION LOG IS SHALLOWER BY 1.4M, DEPTH SHIFTED 1.4M DOWN AS PER
CLIENTS REQUEST.
4.655" HSC GUN 10 AND 350 DEGREE PHASING, 39 GR MILLENIUM, 4 SHOTS PER FOOT.
ATTEMPT WAS MADE TO RUN 4 GUNS IN ONE STRING BUT AT 3600M PICK UP WEIGHT 
WAS TOO HIGH TO CONTINUE.  CLIENT D4ECIDED TO SPLIT UP ONTO TWO RUNS.
RUN #1 CCL TO TOP SHOT 3.25 M, CCL STOP DEPT: 3729.75 M
PERFORATION INTERVAL 3733M - 3742.6M
RUN #2 CCL TO TOP SHOT 3.25 M, CCL STOP DEPT: 3711.75 M
PERFORATION INTERVAL 3715M - 3724.6M

~A  Depth       LSPD        LTEN       MINMK       HVOLTA       CCL     
# ...
  3765.5500      9.3025   7518.1763      0.0000      3.4950      0.1376
  3765.5000      9.3025   7471.2373      0.0000      3.4447      0.0540
  3765.4500      9.3939   7410.1665      0.0000      3.4851      0.3217
  3765.4000      9.3939   7410.1665      0.0000      3.4851     -0.2676
  3765.3500      9.3939   7335.6196      0.0000      3.5057      0.7291
  3765.3000      9.4458   7246.4063      0.0000      3.4752      0.0098
  3765.2500      9.4458   7246.4063      0.0000      3.4752      0.4160
  3765.2000      9.4458   7175.9570      0.0000      3.4950      0.2469
  3765.1500      9.4640   7149.9658      0.0000      3.4851     -0.0446
  3765.1000      9.4640   7149.9658      0.0000      3.4851      0.1974
  3765.0500      9.4640   7150.5767      1.0000      3.4752     -0.4349
  3765.0000      9.4823   7160.8613      0.0000      3.4546      0.0888
  3764.9500      9.4823   7160.8613      0.0000      3.4546     -0.0699
  3764.9000      9.4823   7185.9648      0.0000      3.4645      0.0333
  3764.8500      9.4092   7225.5283      0.0000      3.5156     -0.0241
  3764.8000      9.4092   7225.5283      0.0000      3.5156     -0.0085
  3764.7500      9.4092   7274.9248      0.0000      3.4851     -0.0183
  3764.7000      9.3939   7274.9248      0.0000      3.4851     -0.0134
  3764.6500      9.3939   7332.0054      0.0000      3.4851     -0.0107
  3764.6000      9.3939   7383.2456      0.0000      3.4851     -0.0143
  3764.5500      9.3574   7383.2456      0.0000      3.4851     -0.0076
  3764.5000      9.3574   7422.4160      0.0000      3.4851     -0.0113
  3764.4500      9.3574   7462.2930      0.0000      3.4851     -0.0409
  3764.4000      9.3391   7462.2930      0.0000      3.4851      0.1025
  3764.3500      9.3391   7497.8096      0.0000      3.4546      0.0607
  3764.3000      9.3391   7509.2388      0.0000      3.4851      0.0372
  3764.2500      9.3391   7509.2388      0.0000      3.4851      0.0558
  3764.2000      9.3756   7501.8247      0.0000      3.4851      0.1138
  3764.1500      9.3756   7489.4038      0.0000      3.4950      0.0122
  3764.1000      9.3756   7489.4038      0.0000      3.4950     -0.1614
  3764.0500      9.3939   7468.4175      0.0000      3.5156      0.1117
  3764.0000      9.3939   7439.1714      0.0000      3.5255     -0.1675
  3763.9500      9.3939   7439.1714      0.0000      3.5255     -0.3384
  3763.9000      9.4092   7407.2764      0.0000      3.4447      2.0032
  3763.8500      9.4092   7366.0459      0.0000      3.4546      0.6412
  3763.8000      9.4092   7366.0459      0.0000      3.4546      0.2594
  3763.7500      9.4458   7320.1665      0.0000      3.4851     -0.4239
  3763.7000      9.4458   7290.1587      0.0000      3.5156      0.6702
  3763.6500      9.4458   7290.1587      0.0000      3.5156      0.2069
  3763.6000      9.3756   7278.4629      0.0000      3.5255     -0.1785
  3763.5500      9.3756   7279.4321      0.0000      3.4950     -0.0717
  3763.5000      9.3756   7279.4321      0.0000      3.4950     -0.0204
  3763.4500      9.3756   7296.1489      0.0000      3.4851     -0.0647
  3763.4000      9.3756   7317.3945      0.0000      3.4546     -0.0150
  3763.3500      9.3756   7317.3945      0.0000      3.4546      0.0122
  3763.3000      9.3574   7326.2671      0.0000      3.4546     -0.0247
  3763.2500      9.3574   7326.8994      0.0000      3.4950     -0.2478
  3763.2000      9.3574   7326.8994      0.0000      3.4950      0.2628
  3763.1500      9.3574   7318.6973      0.0000      3.4546     -0.0458
  3763.1000      9.3574   7318.6973      0.0000      3.4546     -0.0436
  3763.0500      9.3574   7285.0469      0.0000      3.4851     -0.3720
  3763.0000      9.3574   7235.8774      0.0000      3.4851     -0.1984
  3762.9500      9.4275   7235.8774      0.0000      3.4851     -0.1398
  3762.9000      9.4275   7193.7417      0.0000      3.5156     -0.0165
  3762.8500      9.4275   7145.4741      0.0000      3.4950      1.9806
  3762.8000      9.4092   7145.4741      0.0000      3.4950      1.1270
  3762.7500      9.4092   7082.3574      0.0000      3.4645      0.4910
  3762.7000      9.4092   7037.5537      0.0000      3.4546     -0.0620
  3762.6500      9.4640   7037.5537      0.0000      3.4546      0.0467
  3762.6000      9.4640   7032.4844      0.0000      3.4546     -0.2060
  3762.5500      9.4640   7052.3730      0.0000      3.4546      0.0589
  3762.5000      9.4458   7052.3730      0.0000      3.4546     -0.0229
  3762.4500      9.4458   7084.4844      0.0000      3.5255     -0.0156
  3762.4000      9.4458   7121.2671      0.0000      3.4645     -0.0122
  3762.3500      9.3939   7121.2671      0.0000      3.4645     -0.0104
  3762.3000      9.3939   7152.0825      0.0000      3.4950     -0.0095
  3762.2500      9.3939   7182.5239      0.0000      3.4546     -0.0174
  3762.2000      9.3756   7182.5239      0.0000      3.4546     -0.0067
  3762.1500      9.3756   7220.0122      0.0000      3.5156     -0.0119
  3762.1000      9.3756   7255.2056      0.0000      3.4851     -0.0098
  3762.0500      9.3756   7255.2056      0.0000      3.4851     -0.0104
  3762.0000      9.3574   7288.4429      0.0000      3.4851     -0.0116
  3761.9500      9.3574   7328.3545      0.0000      3.4851     -0.0070
  3761.9000      9.3574   7328.3545      0.0000      3.4851     -0.0092
  3761.8500      9.3574   7365.2505      0.0000      3.4752     -0.0140
  3761.8000      9.3574   7392.0850      0.0000      3.5057     -0.0076
  3761.7500      9.3574   7392.0850      0.0000      3.5057     -0.0372
  3761.7000      9.3756   7417.5571      0.0000      3.5461      0.0732
  3761.6500      9.3756   7431.0073      0.0000      3.4851     -0.2713
  3761.6000      9.3756   7431.0073      0.0000      3.4851     -0.0552
  3761.5500      9.4275   7410.6494      0.0000      3.4752      0.1294
  3761.5000      9.4275   7410.6494      0.0000      3.4752      0.0696
  3761.4500      9.4275   7368.4106      0.0000      3.4546      0.4181
  3761.4000      9.4275   7325.9136      0.0000      3.5355      1.0840
  3761.3500      9.4275   7325.9136      0.0000      3.5355     -2.4051
  3761.3000      9.4275   7279.8716      0.0000      3.4752      0.4358
  3761.2500      9.4458   7234.4775      0.0000      3.4950     -0.0671
  3761.2000      9.4458   7234.4775      0.0000      3.4950     -0.0183
  3761.1500      9.4458   7209.1060      0.0000      3.5049      0.0842
  3761.1000      9.4275   7205.5869      0.0000      3.4645      0.2057
  3761.0500      9.4275   7205.5869      0.0000      3.4645     -0.1349
  3761.0000      9.4275   7217.0283      0.0000      3.4645      0.0342
  3760.9500      9.4275   7243.9531      0.0000      3.5255     -0.0214
  3760.9000      9.3939   7243.9531      0.0000      3.5255     -0.0082
  3760.8500      9.3939   7276.9663      0.0000      3.5156     -0.0040
  3760.8000      9.3939   7305.8125      0.0000      3.4851     -0.0159
  3760.7500      9.3939   7305.8125      0.0000      3.4851     -0.0153
  3760.7000      9.3939   7340.4697      0.0000      3.4851     -0.0073
  3760.6500      9.3939   7381.3896      0.0000      3.5156     -0.0156
  3760.6000      9.3574   7381.3896      0.0000      3.5156     -0.0058
  3760.5500      9.3574   7411.9819      0.0000      3.4851     -0.0049
  3760.5000      9.3574   7435.0278      0.0000      3.4851     -0.0259
  3760.4500      9.3756   7435.0278      0.0000      3.4851     -0.0156
  3760.4000      9.3756   7455.9185      0.0000      3.4851      0.0403
  3760.3500      9.3756   7457.4951      0.0000      3.4447     -0.1471
  3760.3000      9.3939   7457.4951      0.0000      3.4447      0.1190
  3760.2500      9.3939   7434.1650      0.0000      3.4851     -0.1486
  3760.2000      9.3939   7398.7397      0.0000      3.4752      0.2902
  3760.1500      9.3939   7398.7397      0.0000      3.4752     -0.4410
  3760.1000      9.3939   7348.1201      0.0000      3.4851     -0.3152
  3760.0500      9.3939   7276.6938      0.0000      3.5156      0.1453
  3760.0000      9.4275   7276.6938      0.0000      3.5156     -0.2448
