~Version Information
VERS.                      2.0: CWLS Log ASCII Standard - VERSION 2.0
WRAP.                       NO: One line per depth step
~Well Information Block
STRT.M               3782.3500: START DEPTH
STOP.M               3681.1500: STOP DEPTH
STEP.M                 -0.0500: STEP
NULL.                -999.2500: NULL VALUE
COMP.                  STATOIL: COMPANY
WELL.               15/9-F-1-C: WELL
FLD.                     VOLVE: FIELD
LOC.                          : LOCATION
SRVC.          Halliburton Logging Services: SERVICE COMPANY
DATE.          Thu Dec 04 04-49-02 2014: LOG DATE
UWI.                          : UNIQUE WELL ID
CTRY.                   NORWAY: COUNTRY
SECT.                         : SECTION
TOWN.                         : TOWNSHIP
RANG.                         : RANGE
API.                          : API#
OS.                   --NONE--: OTHER SERVICES
PDAT.FT                  M.S.L: PERMANENT DATUM
EEL.FT                   54.9M: ELEVATION
LMF.FT                   R.K.B: LOG MEASURED FROM
DMF.FT                   R.K.B: DRILLING MEASURED FROM
EKB.FT                   54.9M: KB
EDF.FT                   54.9M: DF
EGL.FT                    -91M: GL
DATE1.         03-DEC-14 @ 05:47: DATE1
RUN1.                    1 & 2: RUN NUMBER
TDD1.FT                  4094M: DEPTH DRILLER
TDL1.FT                  3782M: DEPTH LOGGER
BLI1.FT                  3772M: BOTTOM LOGGED INTERVAL
TLI1.FT                  3572M: TOP LOG INTERVAL
CDD1.IN_FT                    : CASING DRILLER
CDL1.FT                       : CASING LOGGER
BS1.IN                    8.5": BIT SIZE
DFT1.                SEA WATER: TYPE FLUID IN HOLE
DFDV1.GM/C3_CP          1.03SG: DENSITY/VISCOSITY
DFPL1.C3                      : PH/FLUID LOSS
MSS1.                         : SOURCE OF SAMPLE
RMT1.OHHM_DEGF                : RM@MEASURED TEMP
RMFT1.OHMM_DEGF                : RMF@MEASURED TEMP
RMCT1.OHMM_DEGF                : RMC@MEASURED TEMP
RMFS1.                        : SOURCE OF RMF/RMC
RMBT1.OHMM_DEGF                : RM@BHT
TCS1.                         : TIME CIRCULATION STOPPED
TLOB1.                36 HOURS: TIME LOGGER ON BOTTOM
BHT1.DEGF                 FULL: MAXIMUM RECORDED TEMPERATURE
LUN1.                 12030699: EQUIPMENT NUMBER
LUL1.                   NORWAY: LOCATION
ENGI1.              C.JAMIESON: RECORDED BY
WITN1.                A.ALBAWI: WITNESSED BY
~Curve Information Block
DEPT.M             0 000 00 00: Depth
LSPD.M/MIN                   0: Line Speed
LTEN.LB                      0: Surface Line Tension
MINMK.                       0: Minute Mark Ticks
HVOLTA.V                     0: Head Voltage Apparent
CCL.                         0: Casing Collar Locator
~Parameter Information Block
SRFTEMP.DEGC           12.0000: Surface Temperature
MudWgt.LB/GAL           8.5600: Mud Weight
CASETHCK.IN             0.4530: Casing Thickness
BITSIZE.IN             12.2500: Borehole I.D.
~Other Information
TOOL STRING DEPLOYED BY ALTUS INTERVENTION WIRELINE UNIT ON 7/16" CABLE
CABLE HEAD BUILT BY ALTUS
LOG CORRELATED TO SHLUMBERGER 4.5" HSD OX POWER JET PULS DATED 09.APRIL.2014
CORRELATION LOG IS SHALLOWER BY 1.4M, DEPTH SHIFTED 1.4M DOWN AS PER
CLIENTS REQUEST.
4.655" HSC GUN 10 AND 350 DEGREE PHASING, 39 GR MILLENIUM, 4 SHOTS PER FOOT.
ATTEMPT WAS MADE TO RUN 4 GUNS IN ONE STRING BUT AT 3600M PICK UP WEIGHT 
WAS TOO HIGH TO CONTINUE.  CLIENT D4ECIDED TO SPLIT UP ONTO TWO RUNS.
RUN #1 CCL TO TOP SHOT 3.25 M, CCL STOP DEPT: 3729.75 M
PERFORATION INTERVAL 3733M - 3742.6M
RUN #2 CCL TO TOP SHOT 3.25 M, CCL STOP DEPT: 3711.75 M
PERFORATION INTERVAL 3715M - 3724.6M

~A  Depth       LSPD        LTEN       MINMK       HVOLTA       CCL     
# ...
  3731.9500      9.4458   6804.7847      0.0000      3.4546     -0.0497
  3731.9000      9.4458   6797.8330      0.0000      3.4851     -0.0046
  3731.8500      9.4458   6807.8926      0.0000      3.4851     -0.0290
  3731.8000      9.4640   6807.8926      0.0000      3.4851     -0.0336
  3731.7500      9.4640   6836.0068      0.0000      3.4851     -0.0180
  3731.7000      9.4640   6883.6328      0.0000      3.4851     -0.0107
  3731.6500      9.4092   6883.6328      0.0000      3.4851     -0.0003
  3731.6000      9.4092   6930.5117      0.0000      3.3836     -0.0162
  3731.5500      9.4092   6964.0791      0.0000      3.5255     -0.0079
  3731.5000      9.3939   6964.0791      0.0000      3.5255     -0.0107
  3731.4500      9.3939   7000.7407      0.0000      3.4851     -0.0107
  3731.4000      9.3939   7000.7407      0.0000      3.4851     -0.0034
  3731.3500      9.3939   7045.2954      0.0000      3.4851     -0.0073
  3731.3000      9.3756   7078.3486      0.0000      3.4546     -0.0146
  3731.2500      9.3756   7078.3486      0.0000      3.4546     -0.0046
  3731.2000      9.3756   7095.3335      0.0000      3.4447     -0.0131
  3731.1500      9.3574   7106.0537      0.0000      3.4546      0.0391
  3731.1000      9.3574   7106.0537      0.0000      3.4546     -0.0250
  3731.0500      9.3574   7110.2485      0.0000      3.4447     -0.0742
  3731.0000      9.3574   7105.0425      0.0000      3.5156      0.0604
  3730.9500      9.3574   7105.0425      0.0000      3.5156      0.0092
  3730.9000      9.3574   7084.3188      0.0000      3.4851     -0.0241
  3730.8500      9.3756   7034.7515      0.0000      3.4851     -0.3162
  3730.8000      9.3756   7034.7515      0.0000      3.4851     -0.3098
  3730.7500      9.3756   6960.5181      0.0000      3.4546      0.8362
  3730.7000      9.4275   6882.1245      0.0000      3.4851      0.3439
  3730.6500      9.4275   6882.1245      0.0000      3.4851      0.8002
  3730.6000      9.4275   6803.0044      0.0000      3.5255     -1.5524
  3730.5500      9.4275   6722.1172      0.0000      3.4348     -5.8307
  3730.5000      9.4275   6722.1172      0.0000      3.4348      1.0815
  3730.4500      9.4275   6660.6841      0.0000      3.4950      0.3897
  3730.4000      9.4458   6631.3442      0.0000      3.4851      0.0085
  3730.3500      9.4458   6631.3442      0.0000      3.4851     -0.0690
  3730.3000      9.4458   6623.9976      0.0000      3.4439     -0.0400
  3730.2500      9.4458   6639.5298      0.0000      3.4851     -0.0140
  3730.2000      9.4275   6639.5298      0.0000      3.4851      0.0070
  3730.1500      9.4275   6681.1982      0.0000      3.5156      0.0034
  3730.1000      9.4275   6731.5620      0.0000      3.4851     -0.0150
  3730.0500      9.3574   6731.5620      0.0000      3.4851     -0.0134
  3730.0000      9.3574   6781.3130      0.0000      3.4950     -0.0159
  3729.9500      9.3574   6836.8198      0.0000      3.4851     -0.0165
  3729.9000      9.3756   6836.8198      0.0000      3.4851     -0.0101
  3729.8500      9.3756   6889.0679      0.0000      3.5057     -0.0131
  3729.8000      9.3756   6889.0679      0.0000      3.5057     -0.0055
  3729.7500      9.3574   6929.4580      0.0000      3.4851     -0.0110
  3729.7000      9.3574   6972.1128      0.0000      3.4851     -0.0046
  3729.6500      9.3574   6972.1128      0.0000      3.4851     -0.0159
  3729.6000      9.3756   7020.5508      0.0000      3.4546     -0.0153
  3729.5500      9.3756   7061.9004      0.0000      3.4546     -0.0021
  3729.5000      9.3756   7061.9004      0.0000      3.4546     -0.0287
  3729.4500      9.4092   7098.4360      0.0000      3.4241      0.0089
  3729.4000      9.4092   7133.4746      0.0000      3.4546     -0.0119
  3729.3500      9.4092   7133.4746      0.0000      3.4546      0.0150
  3729.3000      9.3939   7153.7988      0.0000      3.5156      0.0098
  3729.2500      9.3939   7155.4404      0.0000      3.5255     -0.0754
  3729.2000      9.3939   7155.4404      0.0000      3.5255      0.3488
  3729.1500      9.4092   7140.6235      0.0000      3.4645     -0.3229
  3729.1000      9.4092   7093.9893      0.0000      3.5057     -0.5600
  3729.0500      9.4092   7093.9893      0.0000      3.5057     -0.1956
  3729.0000      9.4092   7011.8789      0.0000      3.5156     -0.5313
  3728.9500      9.3939   6917.5718      0.0000      3.4950     -0.6064
  3728.9000      9.3939   6917.5718      0.0000      3.4950     -1.5576
  3728.8500      9.3939   6824.5796      0.0000      3.4851     -1.1810
  3728.8000      9.3756   6742.7690      0.0000      3.5156      0.2936
  3728.7500      9.3756   6742.7690      0.0000      3.5156     -0.2728
  3728.7000      9.3756   6698.8896      0.0000      3.5156     -0.1245
  3728.6500      9.3939   6697.5781      0.0000      3.5156     -0.1385
  3728.6000      9.3939   6697.5781      0.0000      3.5156      0.0320
  3728.5500      9.3939   6711.0093      0.0000      3.4851     -0.0421
  3728.5000      9.3939   6728.3198      0.0000      3.4851     -0.0293
  3728.4500      9.3939   6728.3198      0.0000      3.4851      0.0150
  3728.4000      9.3939   6757.6118      0.0000      3.4851     -0.0293
  3728.3500      9.4092   6793.5654      0.0000      3.4752     -0.0116
  3728.3000      9.4092   6793.5654      0.0000      3.4752      0.0061
  3728.2500      9.4092   6832.8657      0.0000      3.5057     -0.0302
  3728.2000      9.4275   6832.8657      0.0000      3.5057      0.0061
  3728.1500      9.4275   6880.9287      0.0000      3.4851     -0.0082
  3728.1000      9.4275   6927.5396      0.0000      3.4950     -0.0153
  3728.0500      9.4275   6927.5396      0.0000      3.4950      0.0015
  3728.0000      9.4275   6965.1465      0.0000      3.4950     -0.0131
  3727.9500      9.4275   7004.8608      0.0000      3.4851     -0.0089
  3727.9000      9.4275   7004.8608      0.0000      3.4851     -0.0156
  3727.8500      9.4275   7043.5391      0.0000      3.4851     -0.0070
  3727.8000      9.4275   7066.0488      0.0000      3.4950     -0.0034
  3727.7500      9.4275   7066.0488      0.0000      3.4950     -0.0421
  3727.7000      9.3756   7078.5850      0.0000      3.4851     -0.0211
  3727.6500      9.3756   7087.0381      0.0000      3.5561     -0.1004
  3727.6000      9.3756   7087.0381      0.0000      3.5561      0.0870
  3727.5500      9.3391   7074.2290      1.0000      3.4950      0.3281
  3727.5000      9.3391   7036.9819      0.0000      3.4843      0.4733
  3727.4500      9.3391   7036.9819      0.0000      3.4843      0.2142
  3727.4000      9.3391   6991.7998      0.0000      3.4950      0.2646
  3727.3500      9.3391   6938.1099      0.0000      3.5355     -1.8839
  3727.3000      9.3391   6938.1099      0.0000      3.5355      0.9119
  3727.2500      9.3756   6874.8838      0.0000      3.5049      0.1666
  3727.2000      9.3756   6824.4912      0.0000      3.4752     -0.0516
  3727.1500      9.3756   6824.4912      0.0000      3.4752     -0.1999
  3727.1000      9.4275   6805.0415      0.0000      3.4851     -0.0275
  3727.0500      9.4275   6817.6475      0.0000      3.5156     -0.0156
  3727.0000      9.4275   6817.6475      0.0000      3.5156      0.0009
  3726.9500      9.4458   6857.5132      0.0000      3.4645     -0.0128
  3726.9000      9.4458   6905.4160      0.0000      3.4645     -0.0162
  3726.8500      9.4458   6905.4160      0.0000      3.4645     -0.0098
  3726.8000      9.4458   6939.1938      0.0000      3.4851     -0.0027
  3726.7500      9.4458   6967.2617      0.0000      3.4851     -0.0162
  3726.7000      9.4458   6967.2617      0.0000      3.4851     -0.0186
  3726.6500      9.4458   7006.1812      0.0000      3.5156     -0.0034
  3726.6000      9.4092   7006.1812      0.0000      3.5156     -0.0082
  3726.5500      9.4092   7046.1304      0.0000      3.5156     -0.0195
  3726.5000      9.4092   7079.4546      0.0000      3.5156     -0.0073
  3726.4500      9.3574   7079.4546      0.0000      3.5156     -0.0131
  3726.4000      9.3574   7113.0186      0.0000      3.5057     -0.0125
