~Version Information
VERS.             2.0 : CWLS log ASCII standard - Version 2.0
WRAP.             NO  : One line per depth step
#
~Well Information Block
#MNEM.UNIT                   Data Type:Information
#__________________________________________________________
 STRT .M           2450.13480  :START INDEX                  
  STOP.M           3113.3796 : STOP INDEX                    
 STEP .M              0.00000  :STEP                         
  NULL.              -999.25 : NULL VALUE                    
  COMP.              Statoil : COMPANY                       
  WELL.            15_9_F-12 : WELL                          
   FLD.                Volve : FIELD                         
   LOC.           Maersk Inspirer : LOCATION                      
  PROV.                      : PROVINCE                      
  CNTY.                      : COUNTY                        
  STAT.                      : STATE                         
  CTRY.                      : COUNTRY                       
  SRVC.              SLB D&M : SERVICE COMPANY               
  DATE.                      : LOG DATE                      
   UWI.                      : UNIQUE WELL ID                
   API.                      : API NUMBER                    
#
~Curve Information Block
#MNEM.UNIT                     : Curve Description
#---------                     --------------------
DEPT        .M                 : Bit Depth 2hz                                                   
TVDE        .M                 : SVY TVD_EXTR 2hz                                                
ARC_GR_RT   .GAPI              : ARC Gamma Ray, Real-Time                                        
ROP5        .M/HR              : 5ft ROP 2hz                                                     
SWOB        .KKGF              : Surface Weight on Bit 2hz                                       
RPM         .RPM               : SRF SRPM 2hz                                                    
TFLO        .LPM               : HSPM Total Pump Flow 2hz                                        
TRPM_RT     .RPM               : MWD TUR_RPM 2hz                                                 
SPPA        .BAR               : SRF PUMPRS 2hz                                                  
TQA         .KMN               : SRF STOR 2hz                                                    
SHKRSK_RT   .----              : MWD SHKRSK 2hz                                                  
SHK2_RT     .----              : ARC Shock Level, Real-Time                                      
SHK_ADN_RT  .----              : ADN Shock Level, Real-Time                                      
PDSHKRSK    .----              : PowerDrive Shock Risk 2hz                                       
ECD_ARC     .G/C3              : Equivalent Circulating Density                                  
ATMP        .DEGC              : ARC Annular Temperature                                         
APRS_ARC    .BAR               : ARC Annular Pressure                                            
#
~Parameter Information Block
#MNEM.UNIT                       Value:Description
#__________________________________________________________
#
~Other Information Block

#
~A    DEPT       TVDE  ARC_GR_RT       ROP5       SWOB        RPM       TFLO    TRPM_RT       SPPA        TQA  SHKRSK_RT    SHK2_RT SHK_ADN_RT   PDSHKRSK    ECD_ARC       ATMP   APRS_ARC
# ...
 2646.7307  2550.6194    -999.25    21.5792     0.5067   179.4651  3455.1121    -999.25   211.9405    30.0507    -999.25    -999.25     0.0000    -999.25     1.3756    74.0000   343.4280
 2646.8833  2550.7584    36.8942    22.0565     0.6280   179.9545  3425.4287    -999.25   211.9044    28.9388    -999.25    -999.25    -999.25    -999.25     1.3753    74.0000   343.3590
 2647.0356  2550.9070    -999.25    19.5391     0.0615   179.2773  3385.5821    -999.25   205.6756    25.7708    -999.25    -999.25    -999.25    -999.25     1.3757    74.0000   343.4969
 2647.1880  2551.0457    -999.25    15.1279     0.4845   178.8670  3247.0955    -999.25   195.1631    24.7008    -999.25    -999.25    -999.25    -999.25     1.3757    74.0000   343.4969
 2647.3403  2551.1853    43.5896    12.9130     0.1262   178.0783  3273.8304  2460.9375   195.1561    25.4249    -999.25    -999.25    -999.25    -999.25     1.3759    74.0000   343.5659
 2647.4929  2551.3240    35.3076    11.6581    -0.0546   179.3356  3278.6014  3320.3125   195.0451    26.7390    -999.25    -999.25    -999.25    -999.25     1.3755    74.0000   343.4969
 2647.6453  2551.4725    35.3076     9.9228     0.4414   179.1051  3243.1939    -999.25   195.0127    26.4644    -999.25    -999.25     0.0000    -999.25     1.3757    74.0000   343.5659
 2647.7976  2551.6115    -999.25     8.6049     0.1946   178.2831  3265.1453    -999.25   194.8074    27.5207    -999.25    -999.25    -999.25    -999.25     1.3759    74.0000   343.6348
 2647.9500  2551.7505    38.5157     7.5709     0.1255   179.0413  3294.7590    -999.25   194.9372    27.0247    -999.25    -999.25    -999.25    -999.25     1.3759    74.0000   343.6348
 2648.1023  2551.8898    43.5896     6.7554     0.1072   178.7945  3265.8548    -999.25   194.6371    26.7336    -999.25    -999.25     0.0000    -999.25     1.3758    74.0000   343.6348
 2648.2549  2552.0288    -999.25     6.0974    -0.1386   178.8402  3295.8998    -999.25   194.5357    25.7894    -999.25    -999.25    -999.25    -999.25     1.3757    74.0000   343.6348
 2648.4072  2552.1770    45.3506     5.5154     0.1978   162.0214  3255.8973    -999.25   191.8175    25.7364    -999.25    -999.25    -999.25    -999.25     1.3756    74.0000   343.6348
 2648.5596  2552.3161    -999.25     5.6988     1.2889   139.0000  3256.7499    -999.25   188.0790    24.1439    -999.25    -999.25    -999.25    -999.25     1.3758    74.0000   343.7038
 2648.7119  2552.4554    -999.25     6.2288     1.7373   138.9818  3256.7499  2382.8125   187.9245    24.8415    -999.25    -999.25    -999.25     0.0000     1.3758    74.0000   343.7038
 2648.8645  2552.5944    47.1465     6.7012     0.3633   139.1091  3256.7499    -999.25   187.8251    25.7444     0.0000    -999.25    -999.25    -999.25     1.3760    74.0000   343.7727
 2649.0168  2552.7429    -999.25     7.0979    -0.7427   138.9259  3256.7499    -999.25   187.9084    26.5089    -999.25     0.0000    -999.25    -999.25     1.3759    74.0000   343.7727
 2649.1692  2552.8816    -999.25     7.9445    -0.0971   138.4909  3256.7499    -999.25   188.2893    23.6532    -999.25    -999.25    -999.25    -999.25     1.3764    74.0000   343.9106
 2649.3215  2553.0209    58.6541     9.0177     0.3574   138.4444  3256.7499    -999.25   188.3393    23.9086    -999.25    -999.25    -999.25    -999.25     1.3763    74.0000   343.9106
 2649.4741  2553.1599    -999.25    10.4138     0.8030   139.3091  3256.7499    -999.25   188.4685    25.4864    -999.25    -999.25    -999.25    -999.25     1.3760    74.0000   343.8417
 2649.6265  2553.3081    67.0233    12.3358     1.1347   139.6667  3256.7499  2382.8125   188.2380    25.9785    -999.25    -999.25    -999.25     0.0000     1.3762    74.0000   343.9106
 2649.7788  2553.4474    -999.25    15.1340     1.7380   139.5636  3256.7499    -999.25   188.0122    27.0344     0.0000    -999.25     0.0000    -999.25     1.3761    74.0000   343.9106
 2649.9312  2553.5865    -999.25    20.0897     2.1486   139.5091  3256.7499    -999.25   187.9880    26.9054    -999.25     0.0000    -999.25    -999.25     1.3758    74.0000   343.8417
 2650.0835  2551.9916    69.2028     8.0368     1.0826    23.6735  3247.1570  2382.8125    33.5679    21.8709    -999.25    -999.25    -999.25     0.0000     1.3757    74.0000   343.8417
 2650.2361  2552.1345    -999.25     8.1400     3.1863    59.7895  3246.2559    -999.25   192.8594    22.6474     0.0000    -999.25    -999.25    -999.25     1.3762    74.0000   343.9796
 2650.3884  2552.2687    -999.25     8.2074     4.0065    59.8139  3136.1867    -999.25   192.9405    25.7948    -999.25     0.0000    -999.25    -999.25     1.3758    74.0000   343.9106
 2650.5408  2552.4027    75.9505     8.2294     4.7016    59.1569  3225.4722    -999.25   192.9060    29.0024    -999.25    -999.25    -999.25    -999.25     1.3760    74.0000   343.9796
 2650.6931  2552.5369    -999.25     8.2311     4.5430    59.1273  3253.1246    -999.25   192.9976    27.8487    -999.25    -999.25    -999.25    -999.25     1.3757    74.0000   343.9106
 2650.8457  2552.6798    73.6664     8.2275     4.7299    59.0000  3227.7473    -999.25   193.0687    28.1104    -999.25    -999.25    -999.25    -999.25     1.3759    74.0000   343.9796
 2650.9980  2552.8140    -999.25     7.5645     3.9388    66.9474  3222.9342  2382.8125   192.5342    25.1969     0.0000    -999.25    -999.25     0.0000     1.3758    74.0000   343.9796
 2651.1504  2552.9480    54.6788     7.6115     3.2627   109.3043  3079.0299    -999.25   191.3895    27.0091    -999.25     0.0000    -999.25    -999.25     1.3760    74.0000   344.0485
 2651.3027  2553.0822    -999.25     7.6687     2.3143   123.4318  3247.6863    -999.25   191.1921    31.1683    -999.25    -999.25     0.0000    -999.25     1.3759    75.0000   344.0485
 2651.4551  2553.2251    -999.25     7.7666     1.4992   134.0000  3229.8047    -999.25   191.1999    32.0139    -999.25    -999.25    -999.25    -999.25     1.3759    75.0000   344.0485
 2651.6077  2553.3590    -999.25    19.0583     0.4965   138.3056  3129.3598    -999.25   191.2282    32.4267    -999.25    -999.25    -999.25    -999.25     1.3761    75.0000   344.1175
 2651.7600  2553.4933    56.6490    19.0814    -0.0092   123.0000  3159.7482    -999.25   191.2843    28.3208    -999.25    -999.25    -999.25    -999.25     1.3760    74.0000   344.1175
 2651.9124  2553.6272    -999.25    19.3176     0.8046   131.7222  3085.0506  2382.8125   191.1898    28.9331    -999.25    -999.25    -999.25     0.0000     1.3759    75.0000   344.1175
 2652.0647  2553.7615    50.8429    20.0624     1.4909   118.3000  3243.4571    -999.25   191.0641    26.1517    -999.25    -999.25    -999.25    -999.25     1.3759    75.0000   344.1175
 2652.2173  2553.9043    50.8429    20.9702     1.0575   139.3226  3256.7499    -999.25   191.0884    30.9940     0.0000    -999.25    -999.25    -999.25     1.3763    75.0000   344.2554
 2652.3696  2554.0386    -999.25    21.4405     0.5241   130.7273  3084.5467    -999.25   190.9415    28.8008    -999.25     0.0000    -999.25    -999.25     1.3763    75.0000   344.2554
 2652.5220  2554.1725    52.7434    28.5811     0.5356   132.8838  3242.8392    -999.25   190.9565    28.7156    -999.25    -999.25    -999.25    -999.25     1.3765    75.0000   344.3243
 2652.6743  2554.3065    -999.25    28.7174     0.6280   138.8409  3229.5598    -999.25   191.0233    29.6324    -999.25    -999.25     0.0000    -999.25     1.3761    75.0000   344.2554
 2652.8269  2554.4497    -999.25    28.7211     0.8106   139.5227  3170.6481    -999.25   190.9908    29.5009    -999.25    -999.25    -999.25    -999.25     1.3763    75.0000   344.3243
 2652.9792  2554.5839    54.6788    28.1951     0.8045   138.7727  3239.6303    -999.25   190.9418    26.3179    -999.25    -999.25    -999.25    -999.25     1.3760    75.0000   344.2554
 2653.1316  2554.7175    -999.25    27.6915     0.9621   138.8605  3249.0215    -999.25   190.8546    26.8212    -999.25    -999.25    -999.25     0.0000     1.3762    75.0000   344.3243
