~Version Information
VERS.                      2.0: CWLS Log ASCII Standard - VERSION 2.0
WRAP.                       NO: One line per depth step
~Well Information Block
STRT.M               3169.9500: START DEPTH
STOP.M               3076.7000: STOP DEPTH
STEP.M                 -0.0500: STEP
NULL.                -999.2500: NULL VALUE
COMP.                  Statoil: COMPANY
WELL.                15/9-F-12: WELL
FLD.                     Volve: FIELD
LOC.                          : LOCATION
SRVC.          Halliburton Logging Services: SERVICE COMPANY
DATE.          Wed Nov 26 07-57-02 2014: LOG DATE
UWI.                          : UNIQUE WELL ID
SECT.                         : SECTION
TOWN.                         : TOWNSHIP
RANG.                         : RANGE
API.                          : API#
OS.                           : OTHER SERVICES
PDAT.FT                       : PERMANENT DATUM
EEL.FT                        : ELEVATION
LMF.FT                        : LOG MEASURED FROM
DMF.FT                        : DRILLING MEASURED FROM
EKB.FT                        : KB
EDF.FT                        : DF
EGL.FT                        : GL
DATE1.                        : DATE1
RUN1.                         : RUN NUMBER
TDD1.FT                       : DEPTH DRILLER
TDL1.FT                       : DEPTH LOGGER
BLI1.FT                       : BOTTOM LOGGED INTERVAL
TLI1.FT                       : TOP LOG INTERVAL
CDD1.IN_FT                    : CASING DRILLER
CDL1.FT                       : CASING LOGGER
BS1.IN                        : BIT SIZE
DFT1.                         : TYPE FLUID IN HOLE
DFDV1.GM/C3_CP                : DENSITY/VISCOSITY
DFPL1.C3                      : PH/FLUID LOSS
MSS1.                         : SOURCE OF SAMPLE
RMT1.OHHM_DEGF                : RM@MEASURED TEMP
RMFT1.OHMM_DEGF                : RMF@MEASURED TEMP
RMCT1.OHMM_DEGF                : RMC@MEASURED TEMP
RMFS1.                        : SOURCE OF RMF/RMC
RMBT1.OHMM_DEGF                : RM@BHT
TCS1.                         : TIME CIRCULATION STOPPED
TLOB1.                        : TIME LOGGER ON BOTTOM
BHT1.DEGF                     : MAXIMUM RECORDED TEMPERATURE
LUN1.                         : EQUIPMENT NUMBER
LUL1.                         : LOCATION
ENGI1.                        : RECORDED BY
WITN1.                        : WITNESSED BY
~Curve Information Block
DEPT.M             0 000 00 00: Depth
LSPD.M/MIN                   0: Line Speed
LTEN.LB                      0: Surface Line Tension
MINMK.                       0: Minute Mark Ticks
GR.GAPI                      0: Gamma Ray
CCL.                         0: Casing Collar Locator
ACCX.                        0: X Axis Accelerometer
ACCY.                        0: Y Axis Accelerometer
ACCZ.                        0: Z Axis Accelerometer
RB.DEG                       0: Relative Bearing
DEVI.DEG                     0: Deviation
TOTG.GEE                     0: Total G
RBRef.DEG                    0: RB Reference
IntTemp.DEGF                 0: Internal Electronics Temperature
~Parameter Information Block
~A  Depth       LSPD        LTEN       MINMK         GR         CCL         ACCX        ACCY        ACCZ         RB         DEVI        TOTG       RBRef      IntTemp   
# ...
  3121.9500      9.1775   4312.0137      0.0000     31.0778    527.0000   2089.3999  -2046.2000   2225.0000    315.5985      0.0245   3674.6633     44.4015    225.8600
  3121.9000      9.1074   4270.6836      0.0000     31.3285    527.0000   2097.2000  -2056.3000   2198.5000    315.5642      0.0245   3668.7900     44.4358    225.8600
  3121.8500      9.1074   4219.6743      0.0000     31.2658    535.0000   2095.3000  -2043.1000   2172.3999    315.7227      0.0247   3644.7031     44.2773    225.8600
  3121.8000      9.1074   4165.6030      0.0000     30.4513    523.0000   2104.5000  -2045.0000   2177.8000    315.8215      0.0246   3654.2795     44.1785    225.8600
  3121.7500      9.1592   4133.2969      0.0000     29.9500    527.0000   2094.6001  -2087.0000   2108.6001    315.1041      0.0248   3631.6819     44.8959    225.8600
  3121.7000      9.1592   4158.4150      0.0000     29.1981    537.0000   2086.5000  -2078.3000   2113.8999    315.1128      0.0248   3625.1050     44.8872    225.8600
  3121.6500      9.1592   4192.2656      0.0000     27.6317    532.0000   2094.8999  -2071.8999   2115.3999    315.3163      0.0248   3627.1602     44.6837    225.8600
  3121.6000      9.1775   4196.7183      0.0000     26.1279    549.0000   2092.2000  -2016.4000   2145.7000    316.0569      0.0249   3612.0906     43.9431    225.8558
  3121.5500      9.1775   4198.7261      0.0000     24.4989    518.0000   2116.3000  -1983.4000   2150.1001    316.8567      0.0249   3610.4753     43.1433    225.8537
  3121.5000      9.1775   4238.0151      0.0000     22.9324    521.0000   2116.0000  -1968.7000   2141.3000    317.0653      0.0250   3596.9990     42.9347    225.8516
  3121.4500      9.1775   4295.2842      0.0000     21.5540    522.0000   2144.8999  -1952.4000   2192.8000    317.6899      0.0248   3636.0464     42.3101    225.8474
  3121.4000      9.1410   4320.5117      0.0000     20.8648    516.0000   2156.0000  -1917.6000   2182.0000    318.3493      0.0249   3617.5474     41.6507    225.8431
  3121.3500      9.1410   4287.5332      0.0000     19.9876    522.0000   2151.0000  -1923.5000   2193.5000    318.1958      0.0248   3624.6511     41.8042    225.8459
  3121.3000      9.1410   4248.0195      0.0000     19.5490    516.0000   2149.6001  -1927.5000   2168.6001    318.1181      0.0249   3610.9365     41.8819    225.8459
  3121.2500      9.1592   4236.1343      0.0000     20.4888    526.0000   2140.8999  -1964.4000   2175.5000    317.4618      0.0248   3629.7549     42.5382    225.8474
  3121.2000      9.1592   4244.2612      0.0000     21.3034    532.0000   2148.1001  -2010.7000   2197.1001    316.8923      0.0245   3672.1243     43.1077    225.8516
  3121.1500      9.1592   4230.0742      0.0000     22.1179    523.0000   2137.6001  -2038.7000   2153.8999    316.3566      0.0246   3655.8059     43.6434    225.8572
  3121.1000      9.1257   4182.0347      0.0000     22.8698    523.0000   2131.0000  -2043.2000   2164.3999    316.2050      0.0246   3660.6631     43.7950    225.8642
  3121.0500      9.1257   4121.9731      0.0000     23.3084    522.0000   2140.0000  -2012.1000   2147.7000    316.7644      0.0247   3638.7856     43.2356    225.8755
  3121.0000      9.1257   4136.5728      0.0000     22.0552    530.0000   2146.1001  -1992.5000   2175.8999    317.1255      0.0247   3648.3342     42.8745    225.8832
  3120.9500      9.1775   4195.2759      0.0000     20.6768    521.0000   2129.1001  -2008.0000   2177.3999    316.6767      0.0247   3647.7666     43.3233    225.8895
  3120.9000      9.1775   4242.4355      1.0000     18.7344    529.0000   2107.0000  -1993.2000   2144.1001    316.5898      0.0250   3606.8630     43.4102    225.8895
  3120.8500      9.1775   4223.0586      0.0000     17.7946    533.0000   2102.6001  -1971.1000   2164.1001    316.8489      0.0250   3604.0938     43.1511    225.8832
  3120.8000      9.1958   4203.5410      0.0000     18.4838    536.0000   2105.7000  -1962.9000   2163.2000    317.0101      0.0250   3600.8865     42.9899    225.8776
  3120.7500      9.1958   4227.3423      0.0000     20.4888    525.0000   2105.5000  -1967.0000   2170.6001    316.9478      0.0249   3607.4539     43.0522    225.8734
  3120.7000      9.1958   4278.8003      0.0000     23.4964    509.0000   2098.3999  -1970.2000   2142.5000    316.8048      0.0251   3588.2136     43.1952    225.8677
  3120.6500      9.1257   4264.5615      0.0000     25.9400    517.0000   2107.3999  -1975.2000   2137.0000    316.8547      0.0250   3592.9539     43.1453    225.8677
  3120.6000      9.1257   4211.3936      0.0000     28.8222    521.0000   2108.0000  -1953.1000   2163.5000    317.1843      0.0250   3597.0815     42.8157    225.8677
  3120.5500      9.1257   4171.5654      0.0000     30.0127    529.0000   2122.7000  -1963.6000   2151.0000    317.2297      0.0250   3603.9397     42.7703    225.8642
  3120.5000      9.1410   4178.1084      0.0000     31.1405    520.0000   2120.5000  -1977.7000   2147.8999    316.9956      0.0249   3608.5027     43.0044    225.8558
  3120.4500      9.1410   4195.7910      0.0000     31.8297    522.0000   2106.7000  -1990.9000   2160.5000    316.6188      0.0249   3615.1941     43.3812    225.8495
  3120.4000      9.1410   4190.3657      0.0000     33.2082    527.0000   2098.3999  -2014.6000   2177.3999    316.1672      0.0248   3633.5886     43.8328    225.8431
  3120.3500      9.1592   4147.9360      0.0000     34.7120    533.0000   2113.0000  -2018.6000   2168.6001    316.3089      0.0247   3639.0027     43.6911    225.8509
  3120.3000      9.1592   4126.8701      0.0000     36.7170    514.0000   2111.1001  -2009.7000   2148.1001    316.4096      0.0249   3620.7695     43.5904    225.8691
  3120.2500      9.1592   4147.2168      0.0000     38.0954    522.0000   2097.2000  -2014.3000   2167.7000    316.1551      0.0248   3626.9236     43.8449    225.8881
  3120.2000      9.1410   4198.7905      0.0000     39.0353    516.0000   2094.1001  -2020.9000   2172.3999    316.0191      0.0248   3631.6130     43.9809    225.9071
  3120.1500      9.1410   4241.0503      0.0000     38.1581    529.0000   2096.2000  -2043.6000   2174.2000    315.7280      0.0247   3646.5737     44.2720    225.9310
  3120.1000      9.1410   4228.5112      0.0000     38.2834    533.0000   2108.7000  -2019.6000   2163.8000    316.2364      0.0248   3634.2029     43.7636    225.9296
  3120.0500      9.2507   4219.3486      0.0000     36.8423    509.0000   2103.1001  -2033.0000   2169.0000    315.9710      0.0247   3641.5217     44.0290    225.9148
  3120.0000      9.2507   4274.1689      0.0000     35.6518    536.0000   2116.8000  -2022.4000   2179.0000    316.3065      0.0247   3649.5186     43.6935    225.8980
  3119.9500      9.2507   4326.9409      0.0000     34.6493    550.0000   2130.2000  -2013.5000   2167.0000    316.6132      0.0247   3645.2466     43.3868    225.8874
  3119.9000      9.1410   4328.9741      0.0000     33.1455    318.0000   2158.2000  -1990.1000   2150.8000    317.3205      0.0247   3639.2671     42.6795    225.8776
  3119.8500      9.1410   4279.9570      0.0000     29.8874    642.0000   2164.0000  -1952.1000   2139.8999    317.9470      0.0249   3615.6274     42.0530    225.8755
  3119.8000      9.1410   4223.0020      0.0000     26.9425    655.0000   2166.1001  -1955.4000   2157.3999    317.9265      0.0248   3629.0430     42.0735    225.8818
  3119.7500      9.1074   4229.5723      0.0000     25.0628    453.0000   2166.6001  -1943.5000   2171.7000    318.1070      0.0248   3631.4775     41.8930    225.8825
  3119.7000      9.1074   4253.3647      0.0000     24.3109    498.0000   2175.5000  -1934.0000   2160.3000    318.3632      0.0248   3624.9211     41.6368    225.8804
  3119.6500      9.1074   4249.0542      0.0000     25.2508    522.0000   2176.8999  -1923.5000   2168.2000    318.5363      0.0248   3624.8911     41.4637    225.8783
  3119.6000      9.1775   4222.9561      0.0000     26.8172    486.0000   2167.2000  -1932.7000   2182.3000    318.2736      0.0248   3632.4260     41.7264    225.8755
