~Version Information
VERS.                      2.0: CWLS Log ASCII Standard - VERSION 2.0
WRAP.                       NO: One line per depth step
~Well Information Block
STRT.M               3135.0500: START DEPTH
STOP.M               3039.9000: STOP DEPTH
STEP.M                 -0.0500: STEP
NULL.                -999.2500: NULL VALUE
COMP.                  Statoil: COMPANY
WELL.                15/9-F-12: WELL
FLD.                     Volve: FIELD
LOC.                          : LOCATION
SRVC.          Halliburton Logging Services: SERVICE COMPANY
DATE.          Wed Nov 26 21-01-09 2014: LOG DATE
UWI.                          : UNIQUE WELL ID
SECT.                         : SECTION
TOWN.                         : TOWNSHIP
RANG.                         : RANGE
API.                          : API#
OS.                           : OTHER SERVICES
PDAT.FT                       : PERMANENT DATUM
EEL.FT                        : ELEVATION
LMF.FT                        : LOG MEASURED FROM
DMF.FT                        : DRILLING MEASURED FROM
EKB.FT                        : KB
EDF.FT                        : DF
EGL.FT                        : GL
DATE1.                        : DATE1
RUN1.                         : RUN NUMBER
TDD1.FT                       : DEPTH DRILLER
TDL1.FT                       : DEPTH LOGGER
BLI1.FT                       : BOTTOM LOGGED INTERVAL
TLI1.FT                       : TOP LOG INTERVAL
CDD1.IN_FT                    : CASING DRILLER
CDL1.FT                       : CASING LOGGER
BS1.IN                        : BIT SIZE
DFT1.                         : TYPE FLUID IN HOLE
DFDV1.GM/C3_CP                : DENSITY/VISCOSITY
DFPL1.C3                      : PH/FLUID LOSS
MSS1.                         : SOURCE OF SAMPLE
RMT1.OHHM_DEGF                : RM@MEASURED TEMP
RMFT1.OHMM_DEGF                : RMF@MEASURED TEMP
RMCT1.OHMM_DEGF                : RMC@MEASURED TEMP
RMFS1.                        : SOURCE OF RMF/RMC
RMBT1.OHMM_DEGF                : RM@BHT
TCS1.                         : TIME CIRCULATION STOPPED
TLOB1.                        : TIME LOGGER ON BOTTOM
BHT1.DEGF                     : MAXIMUM RECORDED TEMPERATURE
LUN1.                         : EQUIPMENT NUMBER
LUL1.                         : LOCATION
ENGI1.                        : RECORDED BY
WITN1.                        : WITNESSED BY
~Curve Information Block
DEPT.M             0 000 00 00: Depth
LSPD.M/MIN                   0: Line Speed
LTEN.LB                      0: Surface Line Tension
MINMK.                       0: Minute Mark Ticks
HVOLTA.V                     0: Head Voltage Apparent
CCL.                         0: Casing Collar Locator
~Parameter Information Block
SRFTEMP.DEGC           10.0000: Surface Temperature
MudWgt.LB/GAL           8.5000: Mud Weight
CASETHCK.IN             6.1840: Casing Thickness
BITSIZE.IN              8.5000: Borehole I.D.
~A  Depth       LSPD        LTEN       MINMK       HVOLTA       CCL     
# ...
  3079.0500      9.2690   4248.5269      0.0000      3.5675     -2.0098
  3079.0000      9.3574   4248.5269      0.0000      3.5675     -2.0095
  3078.9500      9.3574   4210.1699      0.0000      3.6285     -2.0067
  3078.9000      9.3574   4210.1699      0.0000      3.6285     -1.9960
  3078.8500      9.3391   4177.5454      0.0000      3.5675     -2.0061
  3078.8000      9.3391   4156.3047      0.0000      3.5469     -2.0046
  3078.7500      9.3391   4156.3047      0.0000      3.5469     -2.0134
  3078.7000      9.2842   4153.4736      0.0000      3.5774     -2.0043
  3078.6500      9.2842   4169.2656      0.0000      3.5774     -2.0223
  3078.6000      9.2842   4169.2656      0.0000      3.5774     -2.0064
  3078.5500      9.2842   4191.1484      0.0000      3.5774     -2.0177
  3078.5000      9.3939   4212.5298      1.0000      3.5675     -1.9963
  3078.4500      9.3939   4212.5298      1.0000      3.5675     -2.0104
  3078.4000      9.3939   4232.2515      0.0000      3.5774     -2.0073
  3078.3500      9.3391   4239.7720      0.0000      3.5774     -2.0128
  3078.3000      9.3391   4239.7720      0.0000      3.5774     -2.0119
  3078.2500      9.3391   4228.6025      0.0000      3.5774     -2.0107
  3078.2000      9.3939   4206.1040      0.0000      3.5774     -2.0113
  3078.1500      9.3939   4206.1040      0.0000      3.5774     -2.0046
  3078.1000      9.3939   4177.2905      0.0000      3.5774     -2.0049
  3078.0500      9.4275   4148.1362      0.0000      3.5774     -1.9994
  3078.0000      9.4275   4148.1362      0.0000      3.5774     -2.0153
  3077.9500      9.4275   4133.5171      0.0000      3.5370     -1.9988
  3077.9000      9.3756   4137.4854      0.0000      3.5774     -2.0122
  3077.8500      9.3756   4137.4854      0.0000      3.5774     -2.0201
  3077.8000      9.3756   4153.6006      0.0000      3.5675     -2.0122
  3077.7500      9.4092   4181.3223      0.0000      3.5774     -2.0003
  3077.7000      9.4092   4181.3223      0.0000      3.5774     -2.0092
  3077.6500      9.4092   4211.3906      0.0000      3.5675     -2.0082
  3077.6000      9.3025   4224.2544      0.0000      3.5774     -1.9982
  3077.5500      9.3025   4224.2544      0.0000      3.5774     -2.0079
  3077.5000      9.3025   4218.7446      0.0000      3.5675     -2.0006
  3077.4500      9.3208   4204.7910      0.0000      3.5675     -2.0104
  3077.4000      9.3208   4204.7910      0.0000      3.5675     -1.9966
  3077.3500      9.3208   4182.4326      0.0000      3.5774     -1.9997
  3077.3000      9.3208   4182.4326      0.0000      3.5774     -2.0214
  3077.2500      9.3756   4161.1323      0.0000      3.5774     -2.0027
  3077.2000      9.3756   4160.6797      0.0000      3.5774     -2.0192
  3077.1500      9.3756   4160.6797      0.0000      3.5774     -1.9945
  3077.1000      9.3025   4181.5703      0.0000      3.5576     -2.0201
  3077.0500      9.3025   4212.7910      0.0000      3.5675     -1.9976
  3077.0000      9.3025   4212.7910      0.0000      3.5675     -2.0061
  3076.9500      9.3574   4248.1733      0.0000      3.6079     -2.0089
  3076.9000      9.3574   4275.4307      0.0000      3.6079     -2.0012
  3076.8500      9.3574   4275.4307      0.0000      3.6079     -2.0134
  3076.8000      9.3208   4282.5732      0.0000      3.5675     -2.0153
  3076.7500      9.3208   4274.2847      0.0000      3.5370     -2.0131
  3076.7000      9.3208   4274.2847      0.0000      3.5370     -2.0064
  3076.6500      9.2842   4258.8608      0.0000      3.5370     -1.9966
  3076.6000      9.2842   4237.1943      0.0000      3.5370     -2.0159
  3076.5500      9.2842   4237.1943      0.0000      3.5370     -2.0159
  3076.5000      9.3939   4216.2935      0.0000      3.6079     -2.0165
  3076.4500      9.3939   4206.9551      0.0000      3.5774     -2.0150
  3076.4000      9.3939   4206.9551      0.0000      3.5774     -2.0095
  3076.3500      9.3756   4208.3477      0.0000      3.5675     -2.0104
  3076.3000      9.3756   4216.5620      0.0000      3.5774     -2.0232
  3076.2500      9.3756   4216.5620      0.0000      3.5774     -1.9957
  3076.2000      9.3574   4233.7817      0.0000      3.5774     -2.0140
  3076.1500      9.3574   4256.6729      0.0000      3.5675     -2.0067
  3076.1000      9.3574   4256.6729      0.0000      3.5675     -2.0211
  3076.0500      9.3574   4274.1616      0.0000      3.5774     -2.0113
  3076.0000      9.3574   4280.4263      0.0000      3.5774     -2.0095
  3075.9500      9.3574   4280.4263      0.0000      3.5774     -2.0116
  3075.9000      9.3574   4273.3398      0.0000      3.5370     -2.0168
  3075.8500      9.2690   4248.3794      0.0000      3.5774     -2.0143
  3075.8000      9.2690   4248.3794      0.0000      3.5774     -2.0116
  3075.7500      9.2690   4211.4106      0.0000      3.5774     -2.0146
  3075.7000      9.3025   4211.4106      0.0000      3.5774     -2.0079
  3075.6500      9.3025   4179.9980      0.0000      3.5675     -2.0128
  3075.6000      9.3025   4165.1689      0.0000      3.5774     -2.0015
  3075.5500      9.3391   4165.1689      0.0000      3.5774     -2.0204
  3075.5000      9.3391   4171.3999      0.0000      3.5774     -2.0098
  3075.4500      9.3391   4200.4380      0.0000      3.5675     -2.0150
  3075.4000      9.3756   4200.4380      0.0000      3.5675     -2.0082
  3075.3500      9.3756   4239.8135      0.0000      3.5370     -2.0201
  3075.3000      9.3756   4273.3311      0.0000      3.5774     -2.0165
  3075.2500      9.4092   4273.3311      0.0000      3.5774     -1.9966
  3075.2000      9.4092   4298.4409      0.0000      3.5370     -2.0143
  3075.1500      9.4092   4309.3242      0.0000      3.5774     -2.0076
  3075.1000      9.3574   4309.3242      0.0000      3.5774     -1.9957
  3075.0500      9.3574   4294.7568      0.0000      3.5774     -2.0116
  3075.0000      9.3574   4264.0415      0.0000      3.5774     -2.0085
  3074.9500      9.3574   4264.0415      0.0000      3.5774     -2.0110
  3074.9000      9.3574   4236.0332      0.0000      3.5774     -2.0079
  3074.8500      9.3574   4217.2920      0.0000      3.5675     -2.0027
  3074.8000      9.3574   4217.2920      0.0000      3.5675     -1.9994
  3074.7500      9.3756   4213.9126      0.0000      3.5675     -2.0174
  3074.7000      9.3756   4229.7642      0.0000      3.5675     -1.9991
  3074.6500      9.3756   4229.7642      0.0000      3.5675     -2.0201
  3074.6000      9.3574   4252.1782      0.0000      3.5675     -2.0116
  3074.5500      9.3574   4269.9692      0.0000      3.5469     -2.0085
  3074.5000      9.3574   4269.9692      0.0000      3.5469     -2.0211
  3074.4500      9.3756   4285.9229      0.0000      3.5774     -2.0055
  3074.4000      9.3756   4296.6382      0.0000      3.5469     -2.0140
  3074.3500      9.3756   4296.6382      0.0000      3.5469     -2.0006
  3074.3000      9.3391   4293.4355      0.0000      3.5370     -2.0107
  3074.2500      9.3391   4282.2158      0.0000      3.5774     -2.0107
  3074.2000      9.3391   4282.2158      0.0000      3.5774     -2.0006
  3074.1500      9.2842   4271.4126      0.0000      3.5774     -2.0122
  3074.1000      9.2842   4271.4126      0.0000      3.5774     -2.0146
  3074.0500      9.2842   4263.2817      0.0000      3.5675     -2.0092
  3074.0000      9.3574   4268.5298      0.0000      3.5675     -2.0113
  3073.9500      9.3574   4268.5298      0.0000      3.5675     -2.0128
  3073.9000      9.3574   4291.6719      0.0000      3.5469     -2.0079
  3073.8500      9.3391   4317.1904      0.0000      3.5774     -2.0085
  3073.8000      9.3391   4317.1904      0.0000      3.5774     -2.0241
  3073.7500      9.3391   4335.8535      0.0000      3.5469     -1.9976
  3073.7000      9.3756   4350.1177      0.0000      3.5675     -2.0104
  3073.6500      9.3756   4350.1177      0.0000      3.5675     -2.0107
  3073.6000      9.3756   4353.2798      0.0000      3.5675     -2.0058
  3073.5500      9.3756   4340.0107      0.0000      3.5774     -2.0024
  3073.5000      9.4275   4340.0107      0.0000      3.5774     -2.0269
