~Version Information
VERS.                      2.0: CWLS Log ASCII Standard - VERSION 2.0
WRAP.                       NO: One line per depth step
~Well Information Block
STRT.M               3782.3500: START DEPTH
STOP.M               3681.1500: STOP DEPTH
STEP.M                 -0.0500: STEP
NULL.                -999.2500: NULL VALUE
COMP.                  STATOIL: COMPANY
WELL.               15/9-F-1-C: WELL
FLD.                     VOLVE: FIELD
LOC.                          : LOCATION
SRVC.          Halliburton Logging Services: SERVICE COMPANY
DATE.          Thu Dec 04 04-49-02 2014: LOG DATE
UWI.                          : UNIQUE WELL ID
CTRY.                   NORWAY: COUNTRY
SECT.                         : SECTION
TOWN.                         : TOWNSHIP
RANG.                         : RANGE
API.                          : API#
OS.                   --NONE--: OTHER SERVICES
PDAT.FT                  M.S.L: PERMANENT DATUM
EEL.FT                   54.9M: ELEVATION
LMF.FT                   R.K.B: LOG MEASURED FROM
DMF.FT                   R.K.B: DRILLING MEASURED FROM
EKB.FT                   54.9M: KB
EDF.FT                   54.9M: DF
EGL.FT                    -91M: GL
DATE1.         03-DEC-14 @ 05:47: DATE1
RUN1.                    1 & 2: RUN NUMBER
TDD1.FT                  4094M: DEPTH DRILLER
TDL1.FT                  3782M: DEPTH LOGGER
BLI1.FT                  3772M: BOTTOM LOGGED INTERVAL
TLI1.FT                  3572M: TOP LOG INTERVAL
CDD1.IN_FT                    : CASING DRILLER
CDL1.FT                       : CASING LOGGER
BS1.IN                    8.5": BIT SIZE
DFT1.                SEA WATER: TYPE FLUID IN HOLE
DFDV1.GM/C3_CP          1.03SG: DENSITY/VISCOSITY
DFPL1.C3                      : PH/FLUID LOSS
MSS1.                         : SOURCE OF SAMPLE
RMT1.OHHM_DEGF                : RM@MEASURED TEMP
RMFT1.OHMM_DEGF                : RMF@MEASURED TEMP
RMCT1.OHMM_DEGF                : RMC@MEASURED TEMP
RMFS1.                        : SOURCE OF RMF/RMC
RMBT1.OHMM_DEGF                : RM@BHT
TCS1.                         : TIME CIRCULATION STOPPED
TLOB1.                36 HOURS: TIME LOGGER ON BOTTOM
BHT1.DEGF                 FULL: MAXIMUM RECORDED TEMPERATURE
LUN1.                 12030699: EQUIPMENT NUMBER
LUL1.                   NORWAY: LOCATION
ENGI1.              C.JAMIESON: RECORDED BY
WITN1.                A.ALBAWI: WITNESSED BY
~Curve Information Block
DEPT.M             0 000 00 00: Depth
LSPD.M/MIN                   0: Line Speed
LTEN.LB                      0: Surface Line Tension
MINMK.                       0: Minute Mark Ticks
HVOLTA.V                     0: Head Voltage Apparent
CCL.                         0: Casing Collar Locator
~Parameter Information Block
SRFTEMP.DEGC           12.0000: Surface Temperature
MudWgt.LB/GAL           8.5600: Mud Weight
CASETHCK.IN             0.4530: Casing Thickness
BITSIZE.IN             12.2500: Borehole I.D.
~Other Information
TOOL STRING DEPLOYED BY ALTUS INTERVENTION WIRELINE UNIT ON 7/16" CABLE
CABLE HEAD BUILT BY ALTUS
LOG CORRELATED TO SHLUMBERGER 4.5" HSD OX POWER JET PULS DATED 09.APRIL.2014
CORRELATION LOG IS SHALLOWER BY 1.4M, DEPTH SHIFTED 1.4M DOWN AS PER
CLIENTS REQUEST.
4.655" HSC GUN 10 AND 350 DEGREE PHASING, 39 GR MILLENIUM, 4 SHOTS PER FOOT.
ATTEMPT WAS MADE TO RUN 4 GUNS IN ONE STRING BUT AT 3600M PICK UP WEIGHT 
WAS TOO HIGH TO CONTINUE.  CLIENT D4ECIDED TO SPLIT UP ONTO TWO RUNS.
RUN #1 CCL TO TOP SHOT 3.25 M, CCL STOP DEPT: 3729.75 M
PERFORATION INTERVAL 3733M - 3742.6M
RUN #2 CCL TO TOP SHOT 3.25 M, CCL STOP DEPT: 3711.75 M
PERFORATION INTERVAL 3715M - 3724.6M

~A  Depth       LSPD        LTEN       MINMK       HVOLTA       CCL     
# ...
  3754.3500      9.3939   7157.2017      0.0000      3.4447     -1.0931
  3754.3000      9.3939   7159.5166      0.0000      3.4447      0.0784
  3754.2500      9.3939   7155.8120      0.0000      3.4142      0.1001
  3754.2000      9.3756   7155.8120      0.0000      3.4142      0.0580
  3754.1500      9.3756   7157.3711      0.0000      3.4851      0.0031
  3754.1000      9.3756   7165.6533      0.0000      3.5049     -0.1425
  3754.0500      9.4275   7165.6533      0.0000      3.5049      0.0711
  3754.0000      9.4275   7172.8828      0.0000      3.4447     -0.0705
  3753.9500      9.4275   7172.6968      0.0000      3.5049      0.2155
  3753.9000      9.4092   7172.6968      0.0000      3.5049     -1.0513
  3753.8500      9.4092   7160.7197      0.0000      3.5255      0.3360
  3753.8000      9.4092   7145.5591      0.0000      3.4645     -0.0558
  3753.7500      9.4275   7145.5591      0.0000      3.4645      3.7961
  3753.7000      9.4275   7140.7769      0.0000      3.4851     -1.3666
  3753.6500      9.4275   7140.7769      0.0000      3.4851      0.1431
  3753.6000      9.4275   7140.9976      0.0000      3.4653     -0.0742
  3753.5500      9.4275   7141.7485      0.0000      3.4950     -0.0015
  3753.5000      9.4275   7141.7485      0.0000      3.4950      0.0076
  3753.4500      9.4275   7156.8262      0.0000      3.5255      0.0311
  3753.4000      9.3756   7185.0469      0.0000      3.4447     -0.0272
  3753.3500      9.3756   7185.0469      0.0000      3.4447     -0.0043
  3753.3000      9.3756   7209.6333      0.0000      3.5561      0.0024
  3753.2500      9.3574   7233.8535      0.0000      3.4752      0.1602
  3753.2000      9.3574   7233.8535      0.0000      3.4752     -0.1889
  3753.1500      9.3574   7262.5332      0.0000      3.4645     -0.7129
  3753.1000      9.3391   7275.2524      0.0000      3.5255      0.9671
  3753.0500      9.3391   7275.2524      0.0000      3.5255      0.2682
  3753.0000      9.3391   7263.1895      0.0000      3.4851     -0.8395
  3752.9500      9.3391   7245.5068      0.0000      3.4645     -0.6845
  3752.9000      9.3391   7245.5068      0.0000      3.4645      0.5966
  3752.8500      9.3391   7227.5112      0.0000      3.5255     -0.0586
  3752.8000      9.3756   7197.7256      0.0000      3.4241     -0.2988
  3752.7500      9.3756   7197.7256      0.0000      3.4241     -0.1157
  3752.7000      9.3756   7160.1519      0.0000      3.4851     -1.8118
  3752.6500      9.4275   7127.3940      0.0000      3.4645     -0.2771
  3752.6000      9.4275   7127.3940      0.0000      3.4645     -0.6174
  3752.5500      9.4275   7104.3218      0.0000      3.5255      0.2747
  3752.5000      9.4275   7094.5981      0.0000      3.4950      0.2451
  3752.4500      9.4458   7094.5981      0.0000      3.4950     -0.0412
  3752.4000      9.4458   7098.6187      0.0000      3.4546     -0.1361
  3752.3500      9.4458   7111.7651      0.0000      3.4851     -0.4459
  3752.3000      9.4640   7111.7651      0.0000      3.4851      0.0058
  3752.2500      9.4640   7137.4814      0.0000      3.4851      0.0165
  3752.2000      9.4640   7175.7236      0.0000      3.4851      0.0537
  3752.1500      9.4092   7175.7236      0.0000      3.4851      0.0385
  3752.1000      9.4092   7208.2891      0.0000      3.4851      0.0101
  3752.0500      9.4092   7208.2891      0.0000      3.4851     -0.0418
  3752.0000      9.3756   7225.9370      0.0000      3.5355     -0.1367
  3751.9500      9.3756   7233.0410      0.0000      3.5057     -0.0998
  3751.9000      9.3756   7233.0410      0.0000      3.5057      0.1401
  3751.8500      9.3574   7220.6680      0.0000      3.4851     -0.2939
  3751.8000      9.3574   7185.6016      0.0000      3.4546      0.2753
  3751.7500      9.3574   7185.6016      0.0000      3.4546     -1.4120
  3751.7000      9.3574   7147.8643      0.0000      3.4851     -0.3763
  3751.6500      9.3574   7114.5986      0.0000      3.4851      0.3030
  3751.6000      9.3574   7114.5986      0.0000      3.4851      0.0107
  3751.5500      9.4275   7076.1714      0.0000      3.4950     -0.3796
  3751.5000      9.4275   7042.5522      0.0000      3.4546      0.7022
  3751.4500      9.4275   7042.5522      0.0000      3.4546     -1.4182
  3751.4000      9.4275   7020.9619      0.0000      3.5057     -0.8737
  3751.3500      9.4275   6990.1841      0.0000      3.5156      0.0684
  3751.3000      9.4275   6990.1841      0.0000      3.5156     -0.0870
  3751.2500      9.4275   6951.2026      0.0000      3.4851      0.1962
  3751.2000      9.4823   6937.3716      0.0000      3.5255      0.2701
  3751.1500      9.4823   6937.3716      0.0000      3.5255      0.3403
  3751.1000      9.4823   6956.5327      0.0000      3.4752     -0.0400
  3751.0500      9.4823   6993.1045      0.0000      3.5057     -0.0610
  3751.0000      9.4823   6993.1045      0.0000      3.5057     -0.0012
  3750.9500      9.4823   7043.8555      0.0000      3.5255     -0.0137
  3750.9000      9.4275   7100.9658      0.0000      3.4950     -0.0070
  3750.8500      9.4275   7100.9658      0.0000      3.4950     -0.0122
  3750.8000      9.4275   7142.8594      0.0000      3.4851     -0.0116
  3750.7500      9.3939   7160.7803      0.0000      3.4851     -0.0082
  3750.7000      9.3939   7160.7803      0.0000      3.4851     -0.0171
  3750.6500      9.3939   7152.9458      0.0000      3.4546     -0.0125
  3750.6000      9.3391   7114.5386      0.0000      3.5156     -0.0156
  3750.5500      9.3391   7114.5386      0.0000      3.5156     -0.0128
  3750.5000      9.3391   7062.3325      0.0000      3.5057     -0.0046
  3750.4500      9.3391   7062.3325      0.0000      3.5057      0.0226
  3750.4000      9.3391   7019.2686      0.0000      3.4546     -0.0067
  3750.3500      9.3391   6979.7241      0.0000      3.4851     -0.0208
  3750.3000      9.3391   6979.7241      0.0000      3.4851     -0.0128
  3750.2500      9.3391   6939.6084      0.0000      3.4851     -0.0641
  3750.2000      9.3391   6914.7759      0.0000      3.5156     -0.1709
  3750.1500      9.3391   6914.7759      0.0000      3.5156      0.1556
  3750.1000      9.3756   6903.7578      0.0000      3.4950     -0.1334
  3750.0500      9.3756   6892.8950      0.0000      3.4752      0.0061
  3750.0000      9.3756   6892.8950      0.0000      3.4752     -0.0772
  3749.9500      9.4092   6887.1885      0.0000      3.5057     -0.2432
  3749.9000      9.4092   6886.6284      0.0000      3.4851     -0.2188
  3749.8500      9.4092   6886.6284      0.0000      3.4851      0.0430
  3749.8000      9.4275   6873.2056      0.0000      3.5156     -0.0586
  3749.7500      9.4275   6846.6519      0.0000      3.5255     -0.2957
  3749.7000      9.4275   6846.6519      0.0000      3.5255     -0.0616
  3749.6500      9.4092   6822.4937      0.0000      3.5156     -0.0952
  3749.6000      9.4092   6803.1782      0.0000      3.4546     -0.2383
  3749.5500      9.4092   6803.1782      0.0000      3.4546     -0.7477
  3749.5000      9.4092   6792.4072      0.0000      3.4645      0.0137
  3749.4500      9.4092   6803.3359      0.0000      3.5255     -0.0723
  3749.4000      9.4092   6803.3359      0.0000      3.5255     -0.0241
  3749.3500      9.3574   6833.9692      0.0000      3.4653     -0.0098
  3749.3000      9.3574   6870.0732      0.0000      3.4645     -0.0250
  3749.2500      9.3574   6870.0732      0.0000      3.4645     -0.0131
  3749.2000      9.3574   6904.4121      0.0000      3.4645     -0.0055
  3749.1500      9.3574   6929.5850      0.0000      3.4950     -0.0165
  3749.1000      9.3574   6929.5850      0.0000      3.4950     -0.0497
  3749.0500      9.3574   6942.3462      0.0000      3.4546      0.0507
  3749.0000      9.3756   6953.6763      0.0000      3.5049     -0.2255
  3748.9500      9.3756   6953.6763      0.0000      3.5049      0.2863
  3748.9000      9.3756   6961.3643      0.0000      3.5156     -0.4819
  3748.8500      9.3574   6961.3643      0.0000      3.5156     -0.0336
  3748.8000      9.3574   6947.7275      0.0000      3.4950      0.3540
