~Version Information
VERS.             2.0 : CWLS log ASCII standard - Version 2.0
WRAP.             NO  : One line per depth step
#
~Well Information Block
#MNEM.UNIT                   Data Type:Information
#__________________________________________________________
 STRT .M           2450.13480  :START INDEX                  
  STOP.M           3113.3796 : STOP INDEX                    
 STEP .M              0.00000  :STEP                         
  NULL.              -999.25 : NULL VALUE                    
  COMP.              Statoil : COMPANY                       
  WELL.            15_9_F-12 : WELL                          
   FLD.                Volve : FIELD                         
   LOC.           Maersk Inspirer : LOCATION                      
  PROV.                      : PROVINCE                      
  CNTY.                      : COUNTY                        
  STAT.                      : STATE                         
  CTRY.                      : COUNTRY                       
  SRVC.              SLB D&M : SERVICE COMPANY               
  DATE.                      : LOG DATE                      
   UWI.                      : UNIQUE WELL ID                
   API.                      : API NUMBER                    
#
~Curve Information Block
#MNEM.UNIT                     : Curve Description
#---------                     --------------------
DEPT        .M                 : Bit Depth 2hz                                                   
TVDE        .M                 : SVY TVD_EXTR 2hz                                                
ARC_GR_RT   .GAPI              : ARC Gamma Ray, Real-Time                                        
ROP5        .M/HR              : 5ft ROP 2hz                                                     
SWOB        .KKGF              : Surface Weight on Bit 2hz                                       
RPM         .RPM               : SRF SRPM 2hz                                                    
TFLO        .LPM               : HSPM Total Pump Flow 2hz                                        
TRPM_RT     .RPM               : MWD TUR_RPM 2hz                                                 
SPPA        .BAR               : SRF PUMPRS 2hz                                                  
TQA         .KMN               : SRF STOR 2hz                                                    
SHKRSK_RT   .----              : MWD SHKRSK 2hz                                                  
SHK2_RT     .----              : ARC Shock Level, Real-Time                                      
SHK_ADN_RT  .----              : ADN Shock Level, Real-Time                                      
PDSHKRSK    .----              : PowerDrive Shock Risk 2hz                                       
ECD_ARC     .G/C3              : Equivalent Circulating Density                                  
ATMP        .DEGC              : ARC Annular Temperature                                         
APRS_ARC    .BAR               : ARC Annular Pressure                                            
#
~Parameter Information Block
#MNEM.UNIT                       Value:Description
#__________________________________________________________
#
~Other Information Block

#
~A    DEPT       TVDE  ARC_GR_RT       ROP5       SWOB        RPM       TFLO    TRPM_RT       SPPA        TQA  SHKRSK_RT    SHK2_RT SHK_ADN_RT   PDSHKRSK    ECD_ARC       ATMP   APRS_ARC
# ...
 2935.0715  2760.3632    22.7216     8.4811     7.3634   145.3230  3544.7618  2578.1250   225.2771    30.7582     0.0000     0.0000     0.0000    -999.25     1.3905    81.0000   375.9713
 2935.2241  2760.4552    28.0513     8.2115     7.9326   146.7178  3544.7618  2578.1250   225.2384    30.4204     0.0000     0.0000     0.0000     1.0000     1.3895    81.0000   375.6955
 2935.3765  2760.5537    24.0014     8.1108     7.3093   147.0312  3544.7618  2578.1250   225.1484    28.8202     0.0000     0.0000     0.0000     1.0000     1.3904    81.0000   375.9713
 2935.5288  2760.6457    19.0924     8.1826     7.4804   147.1074  3544.7618  2578.1250   225.2026    32.1145     0.0000     0.0000     0.0000     1.0000     1.3901    81.0000   375.9023
 2935.6812  2760.7379    20.2671     8.2486     7.1481   144.9918  3544.7618  2578.1250   225.2087    28.4464    -999.25    -999.25     0.0000     0.0000     1.3891    81.0000   375.6265
 2935.8335  2760.8302    25.3163     8.0240     7.3866   147.8278  3544.7618  2617.1875   225.2462    32.1315    -999.25     0.0000     0.0000     0.0000     1.3900    82.0000   375.9023
 2935.9861  2760.9284    26.6663     7.6627     7.4700   147.0329  3544.7618  2617.1875   225.3539    28.5199     0.0000     0.0000     0.0000     0.0000     1.3887    82.0000   375.5576
 2936.1384  2761.0207    25.3163     7.4393     7.7125   148.0904  3544.7618  2578.1250   225.5947    30.2556    -999.25     0.0000     0.0000     0.0000     1.3900    82.0000   375.9023
 2936.2908  2761.1127    28.0513     7.4003     6.8793   148.0361  3544.7618    -999.25   225.8787    29.2202     0.0000     0.0000     0.0000     0.0000     1.3889    82.0000   375.6265
 2936.4431  2761.2050    21.4768     7.4393     7.3659   145.2632  3544.7618  2617.1875   226.2071    30.2388    -999.25     0.0000     0.0000    -999.25     1.3896    77.0000   375.8334
 2936.5957  2761.3035    26.6663     7.3503     7.7887   146.8784  3544.7618    -999.25   226.4601    29.7400    -999.25    -999.25     0.0000    -999.25     1.3896    78.0000   375.8334
 2936.7480  2761.3958    17.9528     7.2821     7.6176   145.6328  3544.7618  2617.1875   226.7332    28.6820    -999.25     0.0000     0.0000     0.0000     1.3898    80.0000   375.9023
 2936.9004  2761.4877    21.4768     7.2255     7.9542   147.6802  3544.7618  2617.1875   226.8289    30.9022    -999.25     0.0000     0.0000     0.0000     1.3907    81.0000   376.1781
 2937.0527  2761.5800    24.0014     7.0930     7.8052   146.7571  3544.7618  2617.1875   227.4157    29.6257    -999.25     0.0000     0.0000     0.0000     1.3899    81.0000   375.9713
 2937.2051  2761.6782    32.4168     6.9836     7.4619   146.9931  3544.7618    -999.25   227.3864    29.7367     0.0000     0.0000     0.0000    -999.25     1.3909    81.0000   376.2470
 2937.3577  2761.7705    29.4714     7.1074     7.3576   147.2016  3544.7618  2578.1250   227.1104    32.2666     0.0000    -999.25     0.0000     0.0000     1.3904    81.0000   376.1091
 2937.5100  2761.8625    32.4168     7.5105     7.0513   146.5556  3544.7618    -999.25   227.3119    29.5375    -999.25     0.0000     0.0000     0.0000     1.3898    81.0000   375.9713
 2937.6624  2761.9548    26.6663     7.8237     7.3714   146.8796  3544.7618  2617.1875   226.9180    32.4741    -999.25     0.0000     0.0000    -999.25     1.3905    82.0000   376.1781
 2937.8147  2762.0470    24.0014     7.8349     7.1887   148.6741  3544.7618  2617.1875   226.5619    30.7505     0.0000    -999.25     0.0000     0.0000     1.3902    82.0000   376.1091
 2937.9673  2762.1453    25.3163     7.7291     7.6942   148.2239  3544.7618  2578.1250   226.3556    28.3452     0.0000     0.0000     0.0000     0.0000     1.3902    82.0000   376.1091
 2938.1196  2762.2375    24.0014     7.7072     7.5984   147.4934  3544.7618    -999.25   225.9095    30.3548     0.0000     0.0000     0.0000     0.0000     1.3899    82.0000   376.0402
 2938.2720  2762.3295    22.7216     7.9083     7.4077   148.4214  3544.7618  2617.1875   225.5974    28.3196    -999.25     0.0000     0.0000     0.0000     1.3893    82.0000   375.9023
 2938.4243  2762.4218    29.4714     8.1270     7.0542   148.4371  3544.7618  2578.1250   225.9593    25.6679     0.0000     0.0000     0.0000     0.0000     1.3885    82.0000   375.6955
 2938.5769  2762.5203    26.6663     8.4244     6.9801   149.0620  3544.7618  2578.1250   225.1604    34.4168    -999.25     0.0000     0.0000    -999.25     1.3885    82.0000   375.6955
 2938.7292  2762.6126    25.3163     8.6221     6.8704   148.0427  3544.7618  2617.1875   226.2294    29.1978     0.0000    -999.25     0.0000     0.0000     1.3882    82.0000   375.6265
 2938.8816  2762.7046    21.4768     8.5514     7.9150   148.2762  3544.7618    -999.25   226.4605    31.4852     0.0000     0.0000     0.0000     0.0000     1.3884    82.0000   375.6955
 2939.0339  2762.7968    24.0014     8.0682     7.6664   147.0966  3544.7618  2578.1250   224.8285    29.3233     0.0000     0.0000     0.0000     0.0000     1.3881    82.0000   375.6265
 2939.1863  2762.8951    22.7216     7.7453     7.1857   148.4121  3544.7618  2578.1250   223.3346    27.3348     0.0000     0.0000     0.0000     0.0000     1.3885    82.0000   375.7644
 2939.3389  2762.9873    20.2671     7.5701     7.0353   147.4822  3544.7618  2578.1250   220.0120    27.5910     0.0000     0.0000     0.0000     0.0000     1.3885    82.0000   375.7644
 2939.4912  2763.0796    26.6663     7.5225     7.2624   147.4895  3544.7618  2539.0625   219.2227    30.2165    -999.25     0.0000     0.0000     0.0000     1.3872    82.0000   375.4197
 2939.6436  2763.1716    26.6663     7.6052     7.1787   148.2889  3544.7618  2539.0625   218.6021    29.2905     0.0000     0.0000     0.0000     1.0000     1.3869    83.0000   375.3507
 2939.7959  2763.2698    26.6663     7.6112     6.9253   147.3643  3544.7618  2578.1250   220.9924    29.4663     0.0000     0.0000     0.0000    -999.25     1.3868    83.0000   375.3507
 2939.9485  2763.3621    28.0513     7.1006     4.2193   147.5042  3540.6659  2539.0625   218.3266    29.4353     0.0000     0.0000     0.0000     0.0000     1.3858    83.0000   375.0749
 2940.1008  2763.4544    21.4768     7.3659     7.1627   147.3919  3307.6468  2617.1875   227.7131    32.0791     0.0000    -999.25     0.0000    -999.25     1.3855    83.0000   375.0060
 2940.2532  2763.5466    22.7216     7.3071     8.9299   144.9688  3525.7223    -999.25   227.2508    28.8940     0.0000     0.0000     0.0000     1.0000     1.3869    83.0000   375.4197
 2940.4055  2763.6449    21.4768     7.0671     8.7737   144.3226  3332.5053  2597.6563   227.0616    31.9004     0.0000     0.0000     0.0000     1.0000     1.3854    83.0000   375.0060
 2940.5581  2763.7371    26.6663     7.0746     8.4239   146.3678  3441.6276  2578.1250   227.2743    29.3502     0.0000     0.0000     0.0000     1.0000     1.3861    83.0000   375.2128
 2940.7104  2763.8291    29.4714     7.1478     8.7698   145.3892  3386.8538    -999.25   227.2592    31.8534     0.0000     0.0000     0.0000     1.0000     1.3853    83.0000   375.0060
 2940.8628  2763.9214    25.3163     7.3030     8.1223   145.4000  3355.7078  2578.1250   227.1969    30.3598    -999.25     0.0000     0.0000     0.0000     1.3855    83.0000   375.0749
 2941.0151  2764.0196    32.4168     7.3759     7.4736   146.7657  3451.2967  2578.1250   227.2102    32.5870     0.0000     0.0000     0.0000    -999.25     1.3854    83.0000   375.0749
 2941.1675  2764.1119    29.4714     7.5544     7.4915   143.4654  3339.4461  2578.1250   227.1775    29.3023     0.0000    -999.25     0.0000     0.0000     1.3854    84.0000   375.0749
 2941.3201  2764.2041    28.0513     7.7776     7.6843   144.5306  3394.2000    -999.25   227.1113    32.9811    -999.25     0.0000     0.0000     0.0000     1.3866    84.0000   375.4197
 2941.4724  2764.2964    32.4168     8.4168     8.4127   143.9161  3477.7906  2578.1250   227.1117    30.3820     0.0000     0.0000     0.0000    -999.25     1.3858    84.0000   375.2128
