~Version Information
VERS.                      2.0: CWLS Log ASCII Standard - VERSION 2.0
WRAP.                       NO: One line per depth step
~Well Information Block
STRT.M               3169.8000: START DEPTH
STOP.M               3077.9500: STOP DEPTH
STEP.M                 -0.0500: STEP
NULL.                -999.2500: NULL VALUE
COMP.                  Statoil: COMPANY
WELL.                15/9-F-12: WELL
FLD.                     Volve: FIELD
LOC.                          : LOCATION
SRVC.          Halliburton Logging Services: SERVICE COMPANY
DATE.          Wed Nov 26 07-41-16 2014: LOG DATE
UWI.                          : UNIQUE WELL ID
SECT.                         : SECTION
TOWN.                         : TOWNSHIP
RANG.                         : RANGE
API.                          : API#
OS.                           : OTHER SERVICES
PDAT.FT                       : PERMANENT DATUM
EEL.FT                        : ELEVATION
LMF.FT                        : LOG MEASURED FROM
DMF.FT                        : DRILLING MEASURED FROM
EKB.FT                        : KB
EDF.FT                        : DF
EGL.FT                        : GL
DATE1.                        : DATE1
RUN1.                         : RUN NUMBER
TDD1.FT                       : DEPTH DRILLER
TDL1.FT                       : DEPTH LOGGER
BLI1.FT                       : BOTTOM LOGGED INTERVAL
TLI1.FT                       : TOP LOG INTERVAL
CDD1.IN_FT                    : CASING DRILLER
CDL1.FT                       : CASING LOGGER
BS1.IN                        : BIT SIZE
DFT1.                         : TYPE FLUID IN HOLE
DFDV1.GM/C3_CP                : DENSITY/VISCOSITY
DFPL1.C3                      : PH/FLUID LOSS
MSS1.                         : SOURCE OF SAMPLE
RMT1.OHHM_DEGF                : RM@MEASURED TEMP
RMFT1.OHMM_DEGF                : RMF@MEASURED TEMP
RMCT1.OHMM_DEGF                : RMC@MEASURED TEMP
RMFS1.                        : SOURCE OF RMF/RMC
RMBT1.OHMM_DEGF                : RM@BHT
TCS1.                         : TIME CIRCULATION STOPPED
TLOB1.                        : TIME LOGGER ON BOTTOM
BHT1.DEGF                     : MAXIMUM RECORDED TEMPERATURE
LUN1.                         : EQUIPMENT NUMBER
LUL1.                         : LOCATION
ENGI1.                        : RECORDED BY
WITN1.                        : WITNESSED BY
~Curve Information Block
DEPT.M             0 000 00 00: Depth
LSPD.M/MIN                   0: Line Speed
LTEN.LB                      0: Surface Line Tension
MINMK.                       0: Minute Mark Ticks
GR.GAPI                      0: Gamma Ray
CCL.                         0: Casing Collar Locator
ACCX.                        0: X Axis Accelerometer
ACCY.                        0: Y Axis Accelerometer
ACCZ.                        0: Z Axis Accelerometer
RB.DEG                       0: Relative Bearing
DEVI.DEG                     0: Deviation
TOTG.GEE                     0: Total G
RBRef.DEG                    0: RB Reference
IntTemp.DEGF                 0: Internal Electronics Temperature
~Parameter Information Block
~A  Depth       LSPD        LTEN       MINMK         GR         CCL         ACCX        ACCY        ACCZ         RB         DEVI        TOTG       RBRef      IntTemp   
# ...
  3095.4000      9.3025   4589.6108      0.0000     17.6066    361.0000   2279.6001   1860.6000   2126.8000     39.2212      0.0248   3630.6594    -39.2212    225.1632
  3095.3500      9.3025   4573.0962      0.0000     18.7344    375.0000   2291.8000   1870.1000   2108.8999     39.2143      0.0248   3632.7786    -39.2143    225.1569
  3095.3000      9.3391   4568.9390      0.0000     19.7369    404.0000   2285.3999   1895.4000   2130.0000     39.6707      0.0246   3654.1064    -39.6707    225.1505
  3095.2500      9.3391   4608.0459      0.0000     20.5515    367.0000   2297.1001   1879.6000   2156.3000     39.2917      0.0245   3668.6775    -39.2917    225.1442
  3095.2000      9.3391   4640.6245      0.0000     22.2432    370.0000   2331.3999   1871.6000   2148.0000     38.7568      0.0244   3681.3335    -38.7568    225.1498
  3095.1500      9.3025   4641.4619      0.0000     23.8096    365.0000   2308.2000   1876.1000   2137.7000     39.1041      0.0246   3662.9631    -39.1041    225.1583
  3095.1000      9.3025   4622.0801      0.0000     25.6894    381.0000   2279.7000   1933.3000   2113.2000     40.2996      0.0246   3660.6414    -40.2996    225.1688
  3095.0500      9.3025   4624.5610      0.0000     26.3786    361.0000   2208.6001   1993.5000   2168.8999     42.0697      0.0244   3681.8586    -42.0697    225.1885
  3095.0000      9.2842   4650.5859      0.0000     25.8147    360.0000   2114.7000   2018.5000   2125.3000     43.6667      0.0249   3614.3047    -43.6667    225.1991
  3094.9500      9.2842   4663.5566      0.0000     25.0001    374.0000   2060.5000   2061.0000   2081.1001     45.0070      0.0251   3581.1113    -45.0070    225.1991
  3094.9000      9.2842   4644.1606      0.0000     24.8122    367.0000   1899.7000   2167.8999   2048.3999     48.7724      0.0255   3536.1833    -48.7724    225.1955
  3094.8500      9.3391   4600.9888      0.0000     24.6242    366.0000   1864.9000   2197.3999   2036.7000     49.6792      0.0255   3529.1025    -49.6792    225.1899
  3094.8000      9.3391   4559.6299      0.0000     25.6894    372.0000   1823.0000   2255.8999   2067.7000     51.0582      0.0253   3561.9934    -51.0582    225.1752
  3094.7500      9.3391   4548.7642      0.0000     26.3786    367.0000   1777.8000   2291.3999   2065.7000     52.1936      0.0253   3560.6465    -52.1936    225.1611
  3094.7000      9.3574   4587.6079      0.0000     26.5665    375.0000   1764.4000   2329.2000   2054.2000     52.8556      0.0252   3571.8367    -52.8556    225.1505
  3094.6500      9.3574   4613.7510      0.0000     25.5640    361.0000   1769.4000   2358.6001   2104.5000     53.1231      0.0248   3622.5256    -53.1231    225.1442
  3094.6000      9.3574   4611.9175      0.0000     23.9976    364.0000   1760.9000   2376.5000   2148.3999     53.4629      0.0246   3655.7002    -53.4629    225.1400
  3094.5500      9.3756   4617.7671      0.0000     22.4938    363.0000   1746.5000   2381.1001   2156.3000     53.7405      0.0246   3656.4368    -53.7405    225.1463
  3094.5000      9.3756   4661.0029      0.0000     22.4938    375.0000   1735.1000   2394.8999   2147.7000     54.0767      0.0246   3654.9600    -54.0767    225.1526
  3094.4500      9.3756   4695.5405      0.0000     23.9976    407.0000   1720.2000   2426.7000   2155.6001     54.6685      0.0245   3673.4958    -54.6685    225.1590
  3094.4000      9.3756   4669.9048      0.0000     25.7520    363.0000   1689.3000   2423.2000   2147.8999     55.1183      0.0246   3652.2742    -55.1183    225.1653
  3094.3500      9.3756   4569.4385      0.0000     27.5064    354.0000   1666.6000   2427.7000   2149.8000     55.5307      0.0247   3645.9460    -55.5307    225.1723
  3094.3000      9.3756   4532.0215      0.0000     27.5064    359.0000   1645.4000   2444.6001   2132.3999     56.0565      0.0247   3637.3809    -56.0565    225.1674
  3094.2500      9.3756   4520.1226      0.0000     26.7545    360.0000   1625.7000   2463.0000   2140.3000     56.5732      0.0247   3645.5664    -56.5732    225.1611
  3094.2000      9.3574   4535.8110      0.0000     25.1254    360.0000   1588.5000   2474.5000   2139.5000     57.3017      0.0247   3636.4739    -57.3017    225.1548
  3094.1500      9.3574   4530.1279      0.0000     22.6192    361.0000   1574.0000   2466.3000   2126.8999     57.4539      0.0249   3617.1558    -57.4539    225.1463
  3094.1000      9.3574   4503.1987      0.0000     21.1154    364.0000   1552.9000   2487.3000   2151.5000     58.0222      0.0247   3636.9097    -58.0222    225.1407
  3094.0500      9.3391   4483.2886      0.0000     20.6141    366.0000   1527.6000   2496.5000   2164.1001     58.5377      0.0247   3639.9729    -58.5377    225.1400
  3094.0000      9.3391   4490.6616      0.0000     21.3034    388.0000   1495.2000   2548.5000   2163.1001     59.5999      0.0246   3661.8953    -59.5999    225.1400
  3093.9500      9.3391   4505.1289      0.0000     22.4312    365.0000   1475.3000   2608.7000   2158.8000     60.5105      0.0244   3693.5408    -60.5105    225.1400
  3093.9000      9.3208   4493.3618      0.0000     24.0603    365.0000   1459.4000   2670.3000   2139.8999     61.3421      0.0242   3720.1509    -61.3421    225.1400
  3093.8500      9.3208   4446.7754      0.0000     26.3159    356.0000   1410.9000   2702.0000   2144.7000     62.4278      0.0241   3727.0874    -62.4278    225.1400
  3093.8000      9.3208   4394.6274      0.0000     29.0728    383.0000   1365.9000   2761.8999   2120.8000     63.6853      0.0241   3740.5303    -63.6853    225.1400
  3093.7500      9.3391   4419.9053      0.0000     29.9500    351.0000   1323.3000   2802.3000   2079.2000     64.7224      0.0241   3731.9004    -64.7224    225.1400
  3093.7000      9.3391   4486.0596      0.0000     30.9525    372.0000   1276.3000   2809.8999   2099.3000     65.5717      0.0241   3732.4978    -65.5717    225.1400
  3093.6500      9.3391   4530.1455      0.0000     30.5139    361.0000   1211.3000   2777.0000   2076.8999     66.4336      0.0245   3673.2124    -66.4336    225.1400
  3093.6000      9.3208   4511.6357      0.0000     28.5089    369.0000   1172.6000   2749.1001   2070.3999     66.8998      0.0248   3635.8076    -66.8998    225.1400
  3093.5500      9.3208   4510.9063      0.0000     27.1931    368.0000   1158.6000   2761.1001   2067.2000     67.2363      0.0247   3638.5908    -67.2363    225.1400
  3093.5000      9.3208   4554.2930      0.0000     25.9400    384.0000   1143.6000   2740.7000   2082.5000     67.3509      0.0248   3627.1289    -67.3509    225.1400
  3093.4500      9.3391   4593.8774      0.0000     24.3109    356.0000   1135.2000   2721.3999   2107.2000     67.3571      0.0248   3624.2224    -67.3571    225.1400
  3093.4000      9.3391   4577.7598      0.0000     23.3084    378.0000   1136.5000   2715.6001   2103.8999     67.2903      0.0249   3618.3574    -67.2903    225.1400
  3093.3500      9.3391   4520.3462      0.0000     24.4989    354.0000   1149.9000   2732.3000   2091.6001     67.1760      0.0248   3628.0193    -67.1760    225.1400
  3093.3000      9.3574   4493.8662      0.0000     27.1305    355.0000   1147.9000   2716.8999   2135.0000     67.0958      0.0247   3641.0774    -67.0958    225.1428
  3093.2500      9.3574   4537.7485      0.0000     29.0728    363.0000   1144.2000   2720.6001   2132.5000     67.1899      0.0247   3641.2107    -67.1899    225.1449
  3093.2000      9.3574   4576.4731      0.0000     32.8949    363.0000   1145.0000   2725.7000   2133.1001     67.2139      0.0247   3645.6250    -67.2139    225.1470
  3093.1500      9.3756   4562.9634      0.0000     43.1706    367.0000   1145.8000   2730.3000   2161.0000     67.2341      0.0246   3665.6946    -67.2341    225.1491
  3093.1000      9.3756   4479.7002      0.0000     65.5392    367.0000   1130.3000   2741.1001   2193.8999     67.5911      0.0244   3688.4150    -67.5911    225.1576
  3093.0500      9.3756   4435.9482      0.0000     87.5318    377.0000   1152.8000   2720.3000   2209.0000     67.0339      0.0244   3688.9919    -67.0339    225.1639
