~Version Information
VERS.                      2.0: CWLS Log ASCII Standard - VERSION 2.0
WRAP.                       NO: One line per depth step
~Well Information Block
STRT.M               3169.9500: START DEPTH
STOP.M               3076.7000: STOP DEPTH
STEP.M                 -0.0500: STEP
NULL.                -999.2500: NULL VALUE
COMP.                  Statoil: COMPANY
WELL.                15/9-F-12: WELL
FLD.                     Volve: FIELD
LOC.                          : LOCATION
SRVC.          Halliburton Logging Services: SERVICE COMPANY
DATE.          Wed Nov 26 07-57-02 2014: LOG DATE
UWI.                          : UNIQUE WELL ID
SECT.                         : SECTION
TOWN.                         : TOWNSHIP
RANG.                         : RANGE
API.                          : API#
OS.                           : OTHER SERVICES
PDAT.FT                       : PERMANENT DATUM
EEL.FT                        : ELEVATION
LMF.FT                        : LOG MEASURED FROM
DMF.FT                        : DRILLING MEASURED FROM
EKB.FT                        : KB
EDF.FT                        : DF
EGL.FT                        : GL
DATE1.                        : DATE1
RUN1.                         : RUN NUMBER
TDD1.FT                       : DEPTH DRILLER
TDL1.FT                       : DEPTH LOGGER
BLI1.FT                       : BOTTOM LOGGED INTERVAL
TLI1.FT                       : TOP LOG INTERVAL
CDD1.IN_FT                    : CASING DRILLER
CDL1.FT                       : CASING LOGGER
BS1.IN                        : BIT SIZE
DFT1.                         : TYPE FLUID IN HOLE
DFDV1.GM/C3_CP                : DENSITY/VISCOSITY
DFPL1.C3                      : PH/FLUID LOSS
MSS1.                         : SOURCE OF SAMPLE
RMT1.OHHM_DEGF                : RM@MEASURED TEMP
RMFT1.OHMM_DEGF                : RMF@MEASURED TEMP
RMCT1.OHMM_DEGF                : RMC@MEASURED TEMP
RMFS1.                        : SOURCE OF RMF/RMC
RMBT1.OHMM_DEGF                : RM@BHT
TCS1.                         : TIME CIRCULATION STOPPED
TLOB1.                        : TIME LOGGER ON BOTTOM
BHT1.DEGF                     : MAXIMUM RECORDED TEMPERATURE
LUN1.                         : EQUIPMENT NUMBER
LUL1.                         : LOCATION
ENGI1.                        : RECORDED BY
WITN1.                        : WITNESSED BY
~Curve Information Block
DEPT.M             0 000 00 00: Depth
LSPD.M/MIN                   0: Line Speed
LTEN.LB                      0: Surface Line Tension
MINMK.                       0: Minute Mark Ticks
GR.GAPI                      0: Gamma Ray
CCL.                         0: Casing Collar Locator
ACCX.                        0: X Axis Accelerometer
ACCY.                        0: Y Axis Accelerometer
ACCZ.                        0: Z Axis Accelerometer
RB.DEG                       0: Relative Bearing
DEVI.DEG                     0: Deviation
TOTG.GEE                     0: Total G
RBRef.DEG                    0: RB Reference
IntTemp.DEGF                 0: Internal Electronics Temperature
~Parameter Information Block
~A  Depth       LSPD        LTEN       MINMK         GR         CCL         ACCX        ACCY        ACCZ         RB         DEVI        TOTG       RBRef      IntTemp   
# ...
  3097.9500      9.1074   4305.0449      0.0000     24.4989    518.0000   2217.2000   1901.5000   2160.1001     40.6168      0.0248   3632.8652    -40.6168    226.1884
  3097.9000      9.1074   4329.1177      0.0000     23.8096    485.0000   2220.0000   1886.7000   2182.5000     40.3600      0.0247   3640.2395    -40.3600    226.1820
  3097.8500      9.1410   4295.2256      0.0000     21.6793    527.0000   2251.6001   1877.4000   2209.1001     39.8216      0.0245   3670.7571    -39.8216    226.1750
  3097.8000      9.1410   4252.3745      0.0000     20.6141    524.0000   2249.3999   1888.6000   2168.3999     40.0169      0.0247   3650.8311    -40.0169    226.1666
  3097.7500      9.1410   4252.4619      0.0000     21.1154    527.0000   2263.5000   1889.1000   2093.1001     39.8481      0.0249   3615.6880    -39.8481    226.1497
  3097.7000      9.1958   4277.1147      0.0000     20.6141    527.0000   2262.6001   1881.6000   2147.3999     39.7472      0.0247   3642.9526    -39.7472    226.1427
  3097.6500      9.1958   4262.0576      0.0000     21.6793    531.0000   2277.8999   1897.8000   2187.2000     39.7989      0.0244   3684.3340    -39.7989    226.1469
  3097.6000      9.1958   4193.6177      0.0000     23.1831    527.0000   2257.3999   1906.9000   2172.8000     40.1889      0.0245   3667.8579    -40.1889    226.1560
  3097.5500      9.2141   4130.4663      0.0000     23.4337    527.0000   2255.0000   1903.5000   2088.7000     40.1685      0.0249   3615.3845    -40.1685    226.1673
  3097.5000      9.2141   4165.7715      0.0000     23.4337    534.0000   2273.3000   1883.3000   2098.6001     39.6398      0.0248   3621.9932    -39.6398    226.1757
  3097.4500      9.2141   4228.0640      0.0000     24.8122    533.0000   2269.0000   1861.3000   2146.8999     39.3626      0.0248   3636.2039    -39.3626    226.1799
  3097.4000      9.2141   4249.4756      0.0000     25.1881    522.0000   2264.2000   1838.5000   2155.3000     39.0761      0.0248   3626.5688    -39.0761    226.1757
  3097.3500      9.2141   4222.4219      0.0000     25.1881    544.0000   2268.3999   1804.3000   2094.3000     38.4990      0.0252   3575.9236    -38.4990    226.1609
  3097.3000      9.2141   4205.5000      0.0000     25.3761    518.0000   2287.0000   1771.5000   2090.0000     37.7612      0.0252   3568.8486    -37.7612    226.1504
  3097.2500      9.1592   4214.0884      0.0000     24.6868    518.0000   2306.2000   1779.5000   2127.5000     37.6543      0.0250   3607.1367    -37.6543    226.1462
  3097.2000      9.1592   4227.5117      0.0000     21.6166    509.0000   2307.3000   1765.9000   2178.5000     37.4288      0.0248   3631.5146    -37.4288    226.1420
  3097.1500      9.1592   4200.4507      0.0000     19.2983    531.0000   2312.3999   1746.1000   2129.0000     37.0566      0.0250   3595.6501    -37.0566    226.1476
  3097.1000      9.1410   4143.4741      0.0000     17.8572    510.0000   2313.7000   1741.0000   2098.5000     36.9605      0.0252   3576.0300    -36.9605    226.1638
  3097.0500      9.1410   4097.9023      0.0000     17.2307    536.0000   2337.8000   1771.3000   2137.7000     37.1504      0.0248   3629.4041    -37.1504    226.1785
  3097.0000      9.1410   4102.3193      0.0000     17.3560    532.0000   2330.8000   1760.7000   2191.3000     37.0676      0.0246   3651.6421    -37.0676    226.1891
  3096.9500      9.1410   4136.0356      0.0000     19.1730    521.0000   2333.3000   1726.3000   2180.5000     36.4960      0.0248   3630.2866    -36.4960    226.1996
  3096.9000      9.1410   4155.1099      0.0000     21.4913    531.0000   2317.3999   1717.0000   2142.5000     36.5354      0.0250   3592.8730    -36.5354    226.2045
  3096.8500      9.1410   4145.4019      0.0000     23.1831    540.0000   2307.7000   1742.8000   2141.5000     37.0605      0.0250   3598.4514    -37.0605    226.1961
  3096.8000      9.2141   4156.2500      0.0000     23.0578    516.0000   2328.0000   1744.5000   2151.2000     36.8463      0.0249   3618.0830    -36.8463    226.1870
  3096.7500      9.2141   4204.7173      0.0000     23.8723    513.0000   2339.6001   1729.4000   2133.1001     36.4713      0.0249   3607.5850    -36.4713    226.1743
  3096.7000      9.2141   4254.6719      0.0000     23.9350    551.0000   2349.7000   1739.5000   2101.6001     36.5128      0.0250   3600.5100    -36.5128    226.1638
  3096.6500      9.2842   4250.3779      0.0000     23.4337    249.0000   2358.3000   1772.9000   2090.7000     36.9348      0.0249   3616.0447    -36.9348    226.1638
  3096.6000      9.2842   4222.9722      0.0000     23.1831    921.0000   2376.8999   1779.9000   2111.0000     36.8271      0.0247   3643.3525    -36.8271    226.1743
  3096.5500      9.2842   4187.7007      0.0000     23.6843    361.0000   2378.3000   1770.0000   2112.8999     36.6577      0.0247   3640.5435    -36.6577    226.1813
  3096.5000      9.3574   4194.9902      0.0000     23.3084    532.0000   2374.0000   1768.0000   2128.7000     36.6763      0.0247   3645.9653    -36.6763    226.2052
  3096.4500      9.3574   4225.4238      0.0000     22.3059    534.0000   2357.3999   1773.8000   2123.7000     36.9592      0.0248   3635.0793    -36.9592    226.2193
  3096.4000      9.3574   4235.2251      0.0000     21.9299    526.0000   2356.0000   1764.8000   2119.3000     36.8356      0.0248   3627.2148    -36.8356    226.2172
  3096.3500      9.3574   4208.1475      0.0000     22.3059    526.0000   2352.6001   1778.9000   2141.5000     37.0945      0.0247   3644.8916    -37.0945    226.2052
  3096.3000      9.4458   4177.1792      0.0000     23.0578    536.0000   2351.7000   1773.2000   2146.8000     37.0166      0.0247   3644.6511    -37.0166    226.1884
  3096.2500      9.4458   4203.5679      0.0000     24.1856    535.0000   2329.2000   1770.2000   2134.7000     37.2350      0.0249   3621.5637    -37.2350    226.1673
  3096.2000      9.4458   4239.9272      0.0000     25.6894    528.0000   2331.8999   1759.4000   2131.1001     37.0343      0.0249   3615.9138    -37.0343    226.1497
  3096.1500      9.4275   4206.4966      0.0000     26.9425    526.0000   2336.2000   1753.1000   2167.8000     36.8848      0.0247   3637.3818    -36.8848    226.1497
  3096.1000      9.4275   4160.6699      0.0000     27.1931    517.0000   2355.3999   1765.4000   2191.1001     36.8520      0.0245   3669.5320    -36.8520    226.1511
  3096.0500      9.4275   4121.2529      0.0000     26.8798    533.0000   2378.0000   1761.0000   2147.0000     36.5214      0.0246   3655.9014    -36.5214    226.1490
  3096.0000      9.4640   4157.7578      0.0000     26.1906    516.0000   2383.6001   1771.3000   2124.6001     36.6168      0.0246   3651.4351    -36.6168    226.1497
  3095.9500      9.4640   4236.8296      0.0000     25.8147    534.0000   2385.8000   1765.2000   2108.3999     36.4969      0.0247   3640.5112    -36.4969    226.1427
  3095.9000      9.4640   4230.7915      0.0000     25.6894    522.0000   2395.3000   1776.3000   2141.0000     36.5598      0.0245   3671.0469    -36.5598    226.1307
  3095.8500      9.4275   4188.1514      0.0000     25.8773    527.0000   2399.8999   1760.4000   2111.3000     36.2612      0.0247   3649.1252    -36.2612    226.1202
  3095.8000      9.4275   4177.5669      0.0000     26.6292    528.0000   2392.8999   1763.3000   2082.0000     36.3861      0.0248   3629.0386    -36.3861    226.1216
  3095.7500      9.4275   4211.1914      0.0000     27.0051    534.0000   2384.6001   1745.4000   2112.5000     36.2021      0.0248   3632.5466    -36.2021    226.1258
  3095.7000      9.3939   4238.0684      0.0000     26.9425    508.0000   2374.3000   1729.3000   2141.1001     36.0674      0.0248   3634.8438    -36.0674    226.1391
  3095.6500      9.3939   4239.4595      0.0000     26.6919    527.0000   2377.5000   1722.8000   2158.2000     35.9281      0.0247   3643.9502    -35.9281    226.1525
  3095.6000      9.3939   4212.8032      0.0000     25.6894    534.0000   2391.2000   1694.5000   2141.7000     35.3229      0.0248   3629.8823    -35.3229    226.1602
