~Version Information
VERS.                      2.0: CWLS Log ASCII Standard - VERSION 2.0
WRAP.                       NO: One line per depth step
~Well Information Block
STRT.M               3135.0500: START DEPTH
STOP.M               3039.9000: STOP DEPTH
STEP.M                 -0.0500: STEP
NULL.                -999.2500: NULL VALUE
COMP.                  Statoil: COMPANY
WELL.                15/9-F-12: WELL
FLD.                     Volve: FIELD
LOC.                          : LOCATION
SRVC.          Halliburton Logging Services: SERVICE COMPANY
DATE.          Wed Nov 26 21-01-09 2014: LOG DATE
UWI.                          : UNIQUE WELL ID
SECT.                         : SECTION
TOWN.                         : TOWNSHIP
RANG.                         : RANGE
API.                          : API#
OS.                           : OTHER SERVICES
PDAT.FT                       : PERMANENT DATUM
EEL.FT                        : ELEVATION
LMF.FT                        : LOG MEASURED FROM
DMF.FT                        : DRILLING MEASURED FROM
EKB.FT                        : KB
EDF.FT                        : DF
EGL.FT                        : GL
DATE1.                        : DATE1
RUN1.                         : RUN NUMBER
TDD1.FT                       : DEPTH DRILLER
TDL1.FT                       : DEPTH LOGGER
BLI1.FT                       : BOTTOM LOGGED INTERVAL
TLI1.FT                       : TOP LOG INTERVAL
CDD1.IN_FT                    : CASING DRILLER
CDL1.FT                       : CASING LOGGER
BS1.IN                        : BIT SIZE
DFT1.                         : TYPE FLUID IN HOLE
DFDV1.GM/C3_CP                : DENSITY/VISCOSITY
DFPL1.C3                      : PH/FLUID LOSS
MSS1.                         : SOURCE OF SAMPLE
RMT1.OHHM_DEGF                : RM@MEASURED TEMP
RMFT1.OHMM_DEGF                : RMF@MEASURED TEMP
RMCT1.OHMM_DEGF                : RMC@MEASURED TEMP
RMFS1.                        : SOURCE OF RMF/RMC
RMBT1.OHMM_DEGF                : RM@BHT
TCS1.                         : TIME CIRCULATION STOPPED
TLOB1.                        : TIME LOGGER ON BOTTOM
BHT1.DEGF                     : MAXIMUM RECORDED TEMPERATURE
LUN1.                         : EQUIPMENT NUMBER
LUL1.                         : LOCATION
ENGI1.                        : RECORDED BY
WITN1.                        : WITNESSED BY
~Curve Information Block
DEPT.M             0 000 00 00: Depth
LSPD.M/MIN                   0: Line Speed
LTEN.LB                      0: Surface Line Tension
MINMK.                       0: Minute Mark Ticks
HVOLTA.V                     0: Head Voltage Apparent
CCL.                         0: Casing Collar Locator
~Parameter Information Block
SRFTEMP.DEGC           10.0000: Surface Temperature
MudWgt.LB/GAL           8.5000: Mud Weight
CASETHCK.IN             6.1840: Casing Thickness
BITSIZE.IN              8.5000: Borehole I.D.
~A  Depth       LSPD        LTEN       MINMK       HVOLTA       CCL     
# ...
  3051.0500      9.3756   4253.9575      0.0000      3.5667     -2.0143
  3051.0000      9.3756   4253.1924      0.0000      3.5774     -2.0153
  3050.9500      9.3756   4253.1924      0.0000      3.5774     -2.0064
  3050.9000      9.3208   4259.8828      0.0000      3.5675     -2.0195
  3050.8500      9.3208   4276.8501      0.0000      3.5370     -2.0128
  3050.8000      9.3208   4276.8501      0.0000      3.5370     -2.0168
  3050.7500      9.3939   4312.7817      0.0000      3.5873     -2.0168
  3050.7000      9.3939   4363.7026      0.0000      3.6079     -2.0189
  3050.6500      9.3939   4363.7026      0.0000      3.6079     -2.0037
  3050.6000      9.3574   4409.3252      0.0000      3.5675     -2.0116
  3050.5500      9.3574   4436.3032      0.0000      3.5980     -2.0079
  3050.5000      9.3574   4436.3032      0.0000      3.5980     -2.0034
  3050.4500      9.3391   4436.8726      1.0000      3.5370     -2.0287
  3050.4000      9.3391   4397.7314      0.0000      3.6179     -2.0128
  3050.3500      9.3391   4397.7314      0.0000      3.6179     -1.9866
  3050.3000      9.3756   4324.2686      0.0000      3.5873     -2.0110
  3050.2500      9.3756   4324.2686      0.0000      3.5873     -2.0253
  3050.2000      9.3756   4244.4365      0.0000      3.5774     -2.0116
  3050.1500      9.3025   4171.9258      0.0000      3.5576     -2.0189
  3050.1000      9.3025   4171.9258      0.0000      3.5576     -2.0125
  3050.0500      9.3025   4113.7905      0.0000      3.5469     -2.0226
  3050.0000      9.4092   4092.6169      0.0000      3.5774     -2.0131
  3049.9500      9.4092   4092.6169      0.0000      3.5774     -1.9960
  3049.9000      9.4092   4115.6704      0.0000      3.5675     -2.0128
  3049.8500      9.3574   4161.4028      0.0000      3.5774     -2.0027
  3049.8000      9.3574   4161.4028      0.0000      3.5774     -2.0098
  3049.7500      9.3574   4211.0767      0.0000      3.5675     -2.0146
  3049.7000      9.3574   4256.4385      0.0000      3.5469     -1.9991
  3049.6500      9.2842   4256.4385      0.0000      3.5469     -2.0113
  3049.6000      9.2842   4287.5625      0.0000      3.5469     -1.9976
  3049.5500      9.2842   4302.9385      0.0000      3.5774     -1.9985
  3049.5000      9.4092   4302.9385      0.0000      3.5774     -2.0061
  3049.4500      9.4092   4309.3408      0.0000      3.5469     -2.0150
  3049.4000      9.4092   4301.9473      0.0000      3.5370     -2.0143
  3049.3500      9.2842   4301.9473      0.0000      3.5370     -2.0156
  3049.3000      9.2842   4274.2773      0.0000      3.5675     -2.0177
  3049.2500      9.2842   4235.8208      0.0000      3.5675     -2.0128
  3049.2000      9.3756   4235.8208      0.0000      3.5675     -2.0125
  3049.1500      9.3756   4200.3369      0.0000      3.5675     -1.9911
  3049.1000      9.3756   4180.9805      0.0000      3.5675     -2.0229
  3049.0500      9.4275   4180.9805      0.0000      3.5675     -2.0153
  3049.0000      9.4275   4191.9990      0.0000      3.5675     -2.0095
  3048.9500      9.4275   4228.1465      0.0000      3.5774     -2.0018
  3048.9000      9.3025   4228.1465      0.0000      3.5774     -2.0073
  3048.8500      9.3025   4264.7329      0.0000      3.5675     -2.0201
  3048.8000      9.3025   4291.8823      0.0000      3.5774     -2.0061
  3048.7500      9.3574   4291.8823      0.0000      3.5774     -2.0076
  3048.7000      9.3574   4310.8892      0.0000      3.5675     -2.0143
  3048.6500      9.3574   4310.8892      0.0000      3.5675     -2.0159
  3048.6000      9.3208   4309.5254      0.0000      3.5881     -2.0003
  3048.5500      9.3208   4285.1963      0.0000      3.5774     -2.0226
  3048.5000      9.3208   4285.1963      0.0000      3.5774     -2.0134
  3048.4500      9.3208   4256.9956      0.0000      3.5469     -2.0092
  3048.4000      9.2842   4233.6494      0.0000      3.5774     -2.0073
  3048.3500      9.2842   4233.6494      0.0000      3.5774     -2.0159
  3048.3000      9.2842   4213.7021      0.0000      3.5774     -1.9957
  3048.2500      9.3574   4203.8262      0.0000      3.5774     -2.0192
  3048.2000      9.3574   4203.8262      0.0000      3.5774     -2.0101
  3048.1500      9.3574   4202.6763      0.0000      3.5675     -2.0128
  3048.1000      9.3391   4199.6973      0.0000      3.5675     -2.0009
  3048.0500      9.3391   4199.6973      0.0000      3.5675     -2.0064
  3048.0000      9.3391   4197.3418      0.0000      3.5881     -2.0156
  3047.9500      9.3756   4198.3818      0.0000      3.5774     -2.0150
  3047.9000      9.3756   4198.3818      0.0000      3.5774     -2.0110
  3047.8500      9.3756   4196.0928      0.0000      3.5774     -1.9948
  3047.8000      9.4458   4196.3232      0.0000      3.5675     -2.0165
  3047.7500      9.4458   4196.3232      0.0000      3.5675     -2.0079
  3047.7000      9.4458   4204.9741      0.0000      3.5370     -2.0067
  3047.6500      9.3939   4208.8579      0.0000      3.5378     -2.0040
  3047.6000      9.3939   4208.8579      0.0000      3.5378     -2.0137
  3047.5500      9.3939   4204.0083      0.0000      3.5774     -2.0119
  3047.5000      9.3939   4202.3970      0.0000      3.5675     -2.0122
  3047.4500      9.3939   4202.3970      0.0000      3.5675     -2.0082
  3047.4000      9.3939   4205.6885      0.0000      3.5370     -2.0055
  3047.3500      9.3756   4210.1719      0.0000      3.5370     -2.0085
  3047.3000      9.3756   4210.1719      0.0000      3.5370     -2.0195
  3047.2500      9.3756   4219.1611      0.0000      3.5675     -1.9957
  3047.2000      9.3756   4219.1611      0.0000      3.5675     -2.0168
  3047.1500      9.2842   4230.8403      0.0000      3.5469     -2.0192
  3047.1000      9.2842   4238.1860      0.0000      3.5675     -2.0238
  3047.0500      9.2842   4238.1860      0.0000      3.5675     -2.0198
  3047.0000      9.3208   4242.5225      0.0000      3.5370     -2.0015
  3046.9500      9.3208   4245.2109      0.0000      3.6079     -1.9911
  3046.9000      9.3208   4245.2109      0.0000      3.6079     -2.0156
  3046.8500      9.3208   4239.2979      0.0000      3.5774     -2.0275
  3046.8000      9.3208   4225.7100      0.0000      3.5469     -2.0128
  3046.7500      9.3208   4225.7100      0.0000      3.5469     -2.0098
  3046.7000      9.3208   4218.1221      0.0000      3.5774     -2.0006
  3046.6500      9.3208   4222.5928      0.0000      3.5774     -1.9973
  3046.6000      9.3208   4222.5928      0.0000      3.5774     -2.0143
  3046.5500      9.3574   4232.8335      0.0000      3.5370     -1.9991
  3046.5000      9.3574   4244.6919      0.0000      3.5675     -1.9921
  3046.4500      9.3574   4244.6919      0.0000      3.5675     -2.0128
  3046.4000      9.3574   4251.6484      0.0000      3.5469     -2.0107
  3046.3500      9.3574   4244.1470      0.0000      3.5675     -2.0018
  3046.3000      9.3574   4244.1470      0.0000      3.5675     -2.0220
  3046.2500      9.3574   4228.1167      0.0000      3.5370     -2.0159
  3046.2000      9.3574   4211.7280      0.0000      3.6079     -2.0320
  3046.1500      9.3574   4211.7280      0.0000      3.6079     -2.0058
  3046.1000      9.4275   4189.5420      0.0000      3.5370     -2.0238
  3046.0500      9.4275   4166.8838      0.0000      3.5675     -2.0162
  3046.0000      9.4275   4166.8838      0.0000      3.5675     -1.9994
  3045.9500      9.3756   4159.8374      0.0000      3.5774     -2.0003
  3045.9000      9.3756   4167.9644      0.0000      3.5774     -2.0058
  3045.8500      9.3756   4167.9644      0.0000      3.5774     -2.0189
  3045.8000      9.3756   4184.9902      0.0000      3.5370     -2.0085
  3045.7500      9.3939   4211.3774      0.0000      3.5774     -2.0034
  3045.7000      9.3939   4211.3774      0.0000      3.5774     -2.0174
  3045.6500      9.3939   4237.4502      0.0000      3.5469     -2.0067
  3045.6000      9.3391   4237.4502      0.0000      3.5469     -2.0131
  3045.5500      9.3391   4253.8174      0.0000      3.5675     -2.0211
  3045.5000      9.3391   4267.3345      0.0000      3.5675     -2.0043
