~Version Information
VERS.                      2.0: CWLS Log ASCII Standard - VERSION 2.0
WRAP.                       NO: One line per depth step
~Well Information Block
STRT.M               3782.3500: START DEPTH
STOP.M               3681.1500: STOP DEPTH
STEP.M                 -0.0500: STEP
NULL.                -999.2500: NULL VALUE
COMP.                  STATOIL: COMPANY
WELL.               15/9-F-1-C: WELL
FLD.                     VOLVE: FIELD
LOC.                          : LOCATION
SRVC.          Halliburton Logging Services: SERVICE COMPANY
DATE.          Thu Dec 04 04-49-02 2014: LOG DATE
UWI.                          : UNIQUE WELL ID
CTRY.                   NORWAY: COUNTRY
SECT.                         : SECTION
TOWN.                         : TOWNSHIP
RANG.                         : RANGE
API.                          : API#
OS.                   --NONE--: OTHER SERVICES
PDAT.FT                  M.S.L: PERMANENT DATUM
EEL.FT                   54.9M: ELEVATION
LMF.FT                   R.K.B: LOG MEASURED FROM
DMF.FT                   R.K.B: DRILLING MEASURED FROM
EKB.FT                   54.9M: KB
EDF.FT                   54.9M: DF
EGL.FT                    -91M: GL
DATE1.         03-DEC-14 @ 05:47: DATE1
RUN1.                    1 & 2: RUN NUMBER
TDD1.FT                  4094M: DEPTH DRILLER
TDL1.FT                  3782M: DEPTH LOGGER
BLI1.FT                  3772M: BOTTOM LOGGED INTERVAL
TLI1.FT                  3572M: TOP LOG INTERVAL
CDD1.IN_FT                    : CASING DRILLER
CDL1.FT                       : CASING LOGGER
BS1.IN                    8.5": BIT SIZE
DFT1.                SEA WATER: TYPE FLUID IN HOLE
DFDV1.GM/C3_CP          1.03SG: DENSITY/VISCOSITY
DFPL1.C3                      : PH/FLUID LOSS
MSS1.                         : SOURCE OF SAMPLE
RMT1.OHHM_DEGF                : RM@MEASURED TEMP
RMFT1.OHMM_DEGF                : RMF@MEASURED TEMP
RMCT1.OHMM_DEGF                : RMC@MEASURED TEMP
RMFS1.                        : SOURCE OF RMF/RMC
RMBT1.OHMM_DEGF                : RM@BHT
TCS1.                         : TIME CIRCULATION STOPPED
TLOB1.                36 HOURS: TIME LOGGER ON BOTTOM
BHT1.DEGF                 FULL: MAXIMUM RECORDED TEMPERATURE
LUN1.                 12030699: EQUIPMENT NUMBER
LUL1.                   NORWAY: LOCATION
ENGI1.              C.JAMIESON: RECORDED BY
WITN1.                A.ALBAWI: WITNESSED BY
~Curve Information Block
DEPT.M             0 000 00 00: Depth
LSPD.M/MIN                   0: Line Speed
LTEN.LB                      0: Surface Line Tension
MINMK.                       0: Minute Mark Ticks
HVOLTA.V                     0: Head Voltage Apparent
CCL.                         0: Casing Collar Locator
~Parameter Information Block
SRFTEMP.DEGC           12.0000: Surface Temperature
MudWgt.LB/GAL           8.5600: Mud Weight
CASETHCK.IN             0.4530: Casing Thickness
BITSIZE.IN             12.2500: Borehole I.D.
~Other Information
TOOL STRING DEPLOYED BY ALTUS INTERVENTION WIRELINE UNIT ON 7/16" CABLE
CABLE HEAD BUILT BY ALTUS
LOG CORRELATED TO SHLUMBERGER 4.5" HSD OX POWER JET PULS DATED 09.APRIL.2014
CORRELATION LOG IS SHALLOWER BY 1.4M, DEPTH SHIFTED 1.4M DOWN AS PER
CLIENTS REQUEST.
4.655" HSC GUN 10 AND 350 DEGREE PHASING, 39 GR MILLENIUM, 4 SHOTS PER FOOT.
ATTEMPT WAS MADE TO RUN 4 GUNS IN ONE STRING BUT AT 3600M PICK UP WEIGHT 
WAS TOO HIGH TO CONTINUE.  CLIENT D4ECIDED TO SPLIT UP ONTO TWO RUNS.
RUN #1 CCL TO TOP SHOT 3.25 M, CCL STOP DEPT: 3729.75 M
PERFORATION INTERVAL 3733M - 3742.6M
RUN #2 CCL TO TOP SHOT 3.25 M, CCL STOP DEPT: 3711.75 M
PERFORATION INTERVAL 3715M - 3724.6M

~A  Depth       LSPD        LTEN       MINMK       HVOLTA       CCL     
# ...
  3698.3500      9.4458   6751.9463      0.0000      3.5156      0.2356
  3698.3000      9.4458   6750.6299      0.0000      3.4851     -0.0681
  3698.2500      9.4458   6757.7754      0.0000      3.4950      0.0156
  3698.2000      9.4458   6757.7754      0.0000      3.4950     -0.0064
  3698.1500      9.4458   6790.4424      0.0000      3.4752     -0.0177
  3698.1000      9.3939   6844.0146      0.0000      3.4950     -0.0061
  3698.0500      9.3939   6844.0146      0.0000      3.4950     -0.0055
  3698.0000      9.3939   6900.9580      0.0000      3.4950     -0.0146
  3697.9500      9.3756   6900.9580      0.0000      3.4950     -0.0037
  3697.9000      9.3756   6952.6904      0.0000      3.4447     -0.0055
  3697.8500      9.3756   6988.4102      0.0000      3.4950     -0.0089
  3697.8000      9.3574   6988.4102      0.0000      3.4950     -0.0082
  3697.7500      9.3574   7009.0171      0.0000      3.4950      0.0125
  3697.7000      9.3574   7027.7051      0.0000      3.4447      0.0476
  3697.6500      9.3574   7027.7051      0.0000      3.4447      0.0659
  3697.6000      9.3574   7028.8867      0.0000      3.4950     -0.0208
  3697.5500      9.3574   6986.6157      0.0000      3.4447      0.1093
  3697.5000      9.3939   6986.6157      0.0000      3.4447     -0.3494
  3697.4500      9.3939   6917.5635      0.0000      3.5156     -0.4077
  3697.4000      9.3939   6850.7583      0.0000      3.4851     -0.2499
  3697.3500      9.4275   6850.7583      0.0000      3.4851     -0.4135
  3697.3000      9.4275   6788.4712      0.0000      3.4950     -0.0394
  3697.2500      9.4275   6742.4590      0.0000      3.5461     -0.2011
  3697.2000      9.4458   6742.4590      0.0000      3.5461     -0.1059
  3697.1500      9.4458   6737.3018      0.0000      3.4851     -0.0467
  3697.1000      9.4458   6765.2178      0.0000      3.4851     -0.0055
  3697.0500      9.4458   6765.2178      0.0000      3.4851     -0.0519
  3697.0000      9.4458   6802.7642      0.0000      3.4447     -0.0189
  3696.9500      9.4458   6844.5493      0.0000      3.5561     -0.0027
  3696.9000      9.4458   6844.5493      0.0000      3.5561     -0.0137
  3696.8500      9.3756   6885.1323      0.0000      3.4851     -0.0253
  3696.8000      9.3756   6915.8931      0.0000      3.5355     -0.0018
  3696.7500      9.3756   6915.8931      0.0000      3.5355     -0.0162
  3696.7000      9.3574   6943.4478      0.0000      3.4546     -0.0119
  3696.6500      9.3574   6972.2671      0.0000      3.5156     -0.0024
  3696.6000      9.3574   6972.2671      0.0000      3.5156     -0.0128
  3696.5500      9.3208   6993.8057      0.0000      3.5255     -0.0113
  3696.5000      9.3208   6993.8057      0.0000      3.5255     -0.0140
  3696.4500      9.3208   7010.1953      0.0000      3.5255     -0.0269
  3696.4000      9.3208   7028.9307      0.0000      3.4851     -0.0223
  3696.3500      9.3208   7028.9307      0.0000      3.4851     -0.0073
  3696.3000      9.3208   7043.8628      0.0000      3.4752     -0.0314
  3696.2500      9.3939   7047.2563      0.0000      3.5255      0.0323
  3696.2000      9.3939   7047.2563      0.0000      3.5255     -0.0424
  3696.1500      9.3939   7030.7217      0.0000      3.4851     -0.1703
  3696.1000      9.4092   6981.7368      0.0000      3.5156     -0.3720
  3696.0500      9.4092   6981.7368      0.0000      3.5156      0.3290
  3696.0000      9.4092   6906.0688      0.0000      3.4851      0.2365
  3695.9500      9.4275   6824.3604      0.0000      3.4950     -0.6216
  3695.9000      9.4275   6824.3604      0.0000      3.4950      0.8340
  3695.8500      9.4275   6743.1572      0.0000      3.4851     -0.4373
  3695.8000      9.4275   6672.5688      0.0000      3.5255      0.5783
  3695.7500      9.5006   6672.5688      0.0000      3.5255     -0.1114
  3695.7000      9.5006   6648.1016      0.0000      3.4851     -0.0211
  3695.6500      9.5006   6682.7061      0.0000      3.4447     -0.0134
  3695.6000      9.4092   6682.7061      0.0000      3.4447     -0.0189
  3695.5500      9.4092   6743.0625      0.0000      3.4950     -0.0134
  3695.5000      9.4092   6801.7891      0.0000      3.4950     -0.0034
  3695.4500      9.4092   6801.7891      0.0000      3.4950     -0.0134
  3695.4000      9.4092   6853.7358      0.0000      3.4546     -0.0122
  3695.3500      9.4092   6893.6685      0.0000      3.4752     -0.0034
  3695.3000      9.3756   6893.6685      0.0000      3.4752     -0.0092
  3695.2500      9.3756   6928.1050      0.0000      3.4546     -0.0168
  3695.2000      9.3756   6973.4819      0.0000      3.4950     -0.0052
  3695.1500      9.3208   6973.4819      0.0000      3.4950     -0.0095
  3695.1000      9.3208   7023.7979      0.0000      3.4447     -0.0031
  3695.0500      9.3208   7064.3511      0.0000      3.4950     -0.0125
  3695.0000      9.3756   7064.3511      0.0000      3.4950     -0.0128
  3694.9500      9.3756   7102.5493      0.0000      3.4752     -0.0171
  3694.9000      9.3756   7102.5493      0.0000      3.4752     -0.0061
  3694.8500      9.3939   7141.9170      0.0000      3.4950     -0.0107
  3694.8000      9.3939   7167.6069      0.0000      3.5057     -0.0134
  3694.7500      9.3939   7167.6069      0.0000      3.5057     -0.0085
  3694.7000      9.3939   7177.4194      0.0000      3.4851      0.0034
  3694.6500      9.3939   7177.4287      0.0000      3.4241     -0.0107
  3694.6000      9.3939   7177.4287      0.0000      3.4241      0.0226
  3694.5500      9.3939   7162.8506      0.0000      3.4851     -0.4233
  3694.5000      9.3939   7131.9189      0.0000      3.4851     -0.1202
  3694.4500      9.3939   7131.9189      0.0000      3.4851      0.8154
  3694.4000      9.3939   7084.0010      0.0000      3.4645     -0.1093
  3694.3500      9.3939   7010.6753      0.0000      3.4447      0.2408
  3694.3000      9.3939   7010.6753      0.0000      3.4447     -0.0595
  3694.2500      9.3939   6920.7969      0.0000      3.4950      0.2203
  3694.2000      9.3756   6840.0371      0.0000      3.4546     -0.1328
  3694.1500      9.3756   6840.0371      0.0000      3.4546      0.1678
  3694.1000      9.3756   6773.0903      0.0000      3.4851      0.0076
  3694.0500      9.3939   6717.2607      0.0000      3.4546     -0.0983
  3694.0000      9.3939   6717.2607      0.0000      3.4546      0.0464
  3693.9500      9.3939   6693.0029      0.0000      3.4447      0.0986
  3693.9000      9.4092   6709.4995      0.0000      3.5156     -0.0186
  3693.8500      9.4092   6709.4995      0.0000      3.5156     -0.0272
  3693.8000      9.4092   6745.5405      0.0000      3.4645     -0.0018
  3693.7500      9.4275   6789.9146      0.0000      3.5049     -0.0003
  3693.7000      9.4275   6789.9146      0.0000      3.5049     -0.0128
  3693.6500      9.4275   6844.8159      0.0000      3.5156     -0.0040
  3693.6000      9.4092   6895.7070      0.0000      3.4447      0.0000
  3693.5500      9.4092   6895.7070      0.0000      3.4447     -0.0092
  3693.5000      9.4092   6933.6655      0.0000      3.4752      0.0058
  3693.4500      9.4092   6976.9507      0.0000      3.4950     -0.0018
  3693.4000      9.4092   6976.9507      0.0000      3.4950     -0.0208
  3693.3500      9.4092   7033.2822      0.0000      3.4950     -0.0143
  3693.3000      9.4092   7033.2822      0.0000      3.4950     -0.0079
  3693.2500      9.3939   7087.4761      0.0000      3.4546     -0.0125
  3693.2000      9.3939   7128.8887      0.0000      3.4645     -0.0031
  3693.1500      9.3939   7128.8887      0.0000      3.4645     -0.0153
  3693.1000      9.3574   7150.5376      0.0000      3.4752     -0.0128
  3693.0500      9.3574   7146.3823      0.0000      3.4752     -0.0125
  3693.0000      9.3574   7146.3823      0.0000      3.4752      0.3708
  3692.9500      9.3574   7123.3394      0.0000      3.4645      0.1385
  3692.9000      9.3574   7087.9624      0.0000      3.4645      0.1709
  3692.8500      9.3574   7087.9624      0.0000      3.4645      0.0256
  3692.8000      9.3574   7039.6699      0.0000      3.4447     -0.0339
