~Version Information
VERS.                      2.0: CWLS Log ASCII Standard - VERSION 2.0
WRAP.                       NO: One line per depth step
~Well Information Block
STRT.M               3785.6000: START DEPTH
STOP.M               3572.2000: STOP DEPTH
STEP.M                 -0.0500: STEP
NULL.                -999.2500: NULL VALUE
COMP.                  STATOIL: COMPANY
WELL.               15/9-F-1-C: WELL
FLD.                     VOLVE: FIELD
LOC.                          : LOCATION
SRVC.          Halliburton Logging Services: SERVICE COMPANY
DATE.          Wed Dec 03 05-47-41 2014: LOG DATE
UWI.                          : UNIQUE WELL ID
CTRY.                   NORWAY: COUNTRY
SECT.                         : SECTION
TOWN.                         : TOWNSHIP
RANG.                         : RANGE
API.                          : API#
OS.                   --NONE--: OTHER SERVICES
PDAT.FT                  M.S.L: PERMANENT DATUM
EEL.FT                   54.9M: ELEVATION
LMF.FT                   R.K.B: LOG MEASURED FROM
DMF.FT                   R.K.B: DRILLING MEASURED FROM
EKB.FT                   54.9M: KB
EDF.FT                   54.9M: DF
EGL.FT                    -91M: GL
DATE1.         03-DEC-14 @ 05:47: DATE1
RUN1.                    1 & 2: RUN NUMBER
TDD1.FT                  4094M: DEPTH DRILLER
TDL1.FT                  3782M: DEPTH LOGGER
BLI1.FT                  3772M: BOTTOM LOGGED INTERVAL
TLI1.FT                  3572M: TOP LOG INTERVAL
CDD1.IN_FT                    : CASING DRILLER
CDL1.FT                       : CASING LOGGER
BS1.IN                    8.5": BIT SIZE
DFT1.                SEA WATER: TYPE FLUID IN HOLE
DFDV1.GM/C3_CP          1.03SG: DENSITY/VISCOSITY
DFPL1.C3                      : PH/FLUID LOSS
MSS1.                         : SOURCE OF SAMPLE
RMT1.OHHM_DEGF                : RM@MEASURED TEMP
RMFT1.OHMM_DEGF                : RMF@MEASURED TEMP
RMCT1.OHMM_DEGF                : RMC@MEASURED TEMP
RMFS1.                        : SOURCE OF RMF/RMC
RMBT1.OHMM_DEGF                : RM@BHT
TCS1.                         : TIME CIRCULATION STOPPED
TLOB1.                36 HOURS: TIME LOGGER ON BOTTOM
BHT1.DEGF                 FULL: MAXIMUM RECORDED TEMPERATURE
LUN1.                 12030699: EQUIPMENT NUMBER
LUL1.                   NORWAY: LOCATION
ENGI1.              C.JAMIESON: RECORDED BY
WITN1.                A.ALBAWI: WITNESSED BY
~Curve Information Block
DEPT.M             0 000 00 00: Depth
LSPD.M/MIN                   0: Line Speed
LTEN.LB                      0: Surface Line Tension
MINMK.                       0: Minute Mark Ticks
HVOLTA.V                     0: Head Voltage Apparent
CCL.                         0: Casing Collar Locator
~Parameter Information Block
SRFTEMP.DEGC           12.0000: Surface Temperature
MudWgt.LB/GAL           8.5600: Mud Weight
CASETHCK.IN             0.4530: Casing Thickness
BITSIZE.IN             12.2500: Borehole I.D.
~Other Information
TOOL STRING DEPLOYED BY ALTUS INTERVENTION WIRELINE UNIT ON 7/16" CABLE
CABLE HEAD BUILT BY ALTUS
LOG CORRELATED TO SHLUMBERGER 4.5" HSD OX POWER JET PULS DATED 09.APRIL.2014
CORRELATION LOG IS SHALLOWER BY 1.4M, DEPTH SHIFTED 1.4M DOWN AS PER
CLIENTS REQUEST.
4.655" HSC GUN 10 AND 350 DEGREE PHASING, 39 GR MILLENIUM, 4 SHOTS PER FOOT.
ATTEMPT WAS MADE TO RUN 4 GUNS IN ONE STRING BUT AT 3600M PICK UP WEIGHT 
WAS TOO HIGH TO CONTINUE.  CLIENT D4ECIDED TO SPLIT UP ONTO TWO RUNS.
RUN #1 CCL TO TOP SHOT 3.25 M, CCL STOP DEPT: 3729.75 M
PERFORATION INTERVAL 3733M - 3742.6M
RUN #2 CCL TO TOP SHOT 3.25 M, CCL STOP DEPT: 3711.75 M
PERFORATION INTERVAL 3715M - 3724.6M

~A  Depth       LSPD        LTEN       MINMK       HVOLTA       CCL     
# ...
  3690.4000      9.2690   6544.4487      0.0000      3.4958     -0.0455
  3690.3500      9.2690   6544.4487      0.0000      3.4958     -0.2496
  3690.3000      9.2842   6508.0249      0.0000      3.4653      0.0647
  3690.2500      9.2842   6479.4658      0.0000      3.5362      0.0946
  3690.2000      9.2842   6479.4658      0.0000      3.5362     -0.0058
  3690.1500      9.2842   6462.9146      0.0000      3.6163      0.0104
  3690.1000      9.3574   6462.9146      0.0000      3.6163     -0.0912
  3690.0500      9.3574   6476.6963      0.0000      3.4752      0.0021
  3690.0000      9.3574   6511.2188      0.0000      3.4859      0.0278
  3689.9500      9.3391   6511.2188      0.0000      3.4859      0.0223
  3689.9000      9.3391   6542.7988      0.0000      3.4958     -0.0244
  3689.8500      9.3391   6570.5190      0.0000      3.5362     -0.0061
  3689.8000      9.3756   6570.5190      0.0000      3.5362     -0.0125
  3689.7500      9.3756   6600.0288      0.0000      3.5362     -0.0223
  3689.7000      9.3756   6629.5137      0.0000      3.5461      0.0012
  3689.6500      9.3391   6629.5137      0.0000      3.5461     -0.0021
  3689.6000      9.3391   6659.5454      0.0000      3.5164     -0.0095
  3689.5500      9.3391   6684.6641      0.0000      3.5065     -0.0159
  3689.5000      9.3025   6684.6641      0.0000      3.5065      0.0345
  3689.4500      9.3025   6689.7754      0.0000      3.4851      0.0043
  3689.4000      9.3025   6671.6045      0.0000      3.5255     -0.0275
  3689.3500      9.3391   6671.6045      0.0000      3.5255     -0.0220
  3689.3000      9.3391   6632.8467      0.0000      3.5568      0.0403
  3689.2500      9.3391   6565.2788      0.0000      3.4859      0.0491
  3689.2000      9.3025   6565.2788      0.0000      3.4859      0.0760
  3689.1500      9.3025   6475.8774      0.0000      3.4958     -0.2203
  3689.1000      9.3025   6394.9727      0.0000      3.5561     -0.8569
  3689.0500      9.3574   6394.9727      0.0000      3.5561     -0.4105
  3689.0000      9.3574   6341.0962      0.0000      3.5255      0.2280
  3688.9500      9.3574   6319.4385      0.0000      3.4851      0.0769
  3688.9000      9.3574   6319.4385      0.0000      3.4851      0.1102
  3688.8500      9.3939   6335.2534      0.0000      3.4859      0.0211
  3688.8000      9.3939   6371.4980      0.0000      3.4859      0.0266
  3688.7500      9.3939   6371.4980      0.0000      3.4859     -0.0180
  3688.7000      9.3391   6396.7861      0.0000      3.4851      0.0052
  3688.6500      9.3391   6411.1523      0.0000      3.5156     -0.0095
  3688.6000      9.3391   6411.1523      0.0000      3.5156     -0.0092
  3688.5500      9.3939   6432.7690      0.0000      3.4859     -0.0015
  3688.5000      9.3939   6432.7690      0.0000      3.4859     -0.0162
  3688.4500      9.3939   6459.8149      0.0000      3.4859     -0.0058
  3688.4000      9.3574   6490.1172      0.0000      3.5057     -0.0098
  3688.3500      9.3574   6490.1172      0.0000      3.5057     -0.0159
  3688.3000      9.3574   6533.4058      0.0000      3.4851     -0.0208
  3688.2500      9.3025   6585.2397      0.0000      3.5057     -0.0223
  3688.2000      9.3025   6585.2397      0.0000      3.5057     -0.0226
  3688.1500      9.3025   6631.5493      0.0000      3.4752      0.0058
  3688.1000      9.3208   6667.1255      0.0000      3.4653     -0.0027
  3688.0500      9.3208   6667.1255      0.0000      3.4653     -0.0015
  3688.0000      9.3208   6686.6499      0.0000      3.5156     -0.0156
  3687.9500      9.2842   6688.5381      0.0000      3.5660      0.0085
  3687.9000      9.2842   6688.5381      0.0000      3.5660     -0.0278
  3687.8500      9.2842   6683.6328      0.0000      3.4851     -0.0284
  3687.8000      9.2690   6667.5762      0.0000      3.4653      0.0085
  3687.7500      9.2690   6667.5762      0.0000      3.4653     -0.0040
  3687.7000      9.2690   6623.7998      0.0000      3.4958     -0.0800
  3687.6500      9.3208   6565.9541      0.0000      3.4950      0.0275
  3687.6000      9.3208   6565.9541      0.0000      3.4950      0.0754
  3687.5500      9.3208   6518.2080      0.0000      3.5561      0.1578
  3687.5000      9.3208   6479.7974      0.0000      3.5362      0.5130
  3687.4500      9.3208   6479.7974      0.0000      3.5362     -0.1270
  3687.4000      9.3208   6454.4458      0.0000      3.5164      0.0900
  3687.3500      9.3208   6456.6997      0.0000      3.5263      0.0024
  3687.3000      9.3756   6456.6997      0.0000      3.5263     -0.0323
  3687.2500      9.3756   6475.1670      0.0000      3.5156      0.0229
  3687.2000      9.3756   6490.5063      0.0000      3.5156     -0.0229
  3687.1500      9.3939   6490.5063      0.0000      3.5156     -0.0552
  3687.1000      9.3939   6510.9556      0.0000      3.4958      0.0238
  3687.0500      9.3939   6543.0166      0.0000      3.5164     -0.0214
  3687.0000      9.3391   6543.0166      0.0000      3.5164     -0.0040
  3686.9500      9.3391   6572.6865      0.0000      3.4859     -0.0131
  3686.9000      9.3391   6572.6865      0.0000      3.4859      0.0076
  3686.8500      9.3574   6599.8970      0.0000      3.5156     -0.0357
  3686.8000      9.3574   6633.5786      0.0000      3.5255     -0.0070
  3686.7500      9.3574   6633.5786      0.0000      3.5255     -0.0098
  3686.7000      9.3025   6663.9946      0.0000      3.4958     -0.0119
  3686.6500      9.3025   6683.3218      0.0000      3.5263     -0.0070
  3686.6000      9.3025   6683.3218      0.0000      3.5263     -0.0092
  3686.5500      9.3025   6695.5283      0.0000      3.5263     -0.0128
  3686.5000      9.3025   6694.2012      0.0000      3.4851      0.1077
  3686.4500      9.3025   6694.2012      0.0000      3.4851     -0.0473
  3686.4000      9.3025   6675.3511      0.0000      3.5156      0.1465
  3686.3500      9.3025   6650.6133      0.0000      3.4859      0.1956
  3686.3000      9.3025   6650.6133      0.0000      3.4859     -0.1724
  3686.2500      9.2690   6619.4580      0.0000      3.4958      0.0836
  3686.2000      9.2690   6575.5278      0.0000      3.5156      0.0351
  3686.1500      9.2690   6575.5278      0.0000      3.5156      0.2701
  3686.1000      9.3208   6532.3594      0.0000      3.4447     -0.1056
  3686.0500      9.3208   6494.9556      0.0000      3.5156     -0.0330
  3686.0000      9.3208   6494.9556      0.0000      3.5156     -0.1230
  3685.9500      9.3391   6452.0742      0.0000      3.4958     -0.1740
  3685.9000      9.3391   6412.4624      0.0000      3.4859     -0.0912
  3685.8500      9.3391   6412.4624      0.0000      3.4859     -0.1797
  3685.8000      9.3391   6390.2935      0.0000      3.4447     -0.1837
  3685.7500      9.3756   6380.7065      0.0000      3.5156     -0.0726
  3685.7000      9.3756   6380.7065      0.0000      3.5156      0.0656
  3685.6500      9.3756   6388.6533      0.0000      3.5057      0.0946
  3685.6000      9.4092   6426.7891      0.0000      3.4653      0.0928
  3685.5500      9.4092   6426.7891      0.0000      3.4653     -0.0430
  3685.5000      9.4092   6476.2759      0.0000      3.4859     -0.0885
  3685.4500      9.3391   6513.6411      0.0000      3.5255     -0.0455
  3685.4000      9.3391   6513.6411      0.0000      3.5255      0.0616
  3685.3500      9.3391   6549.2783      0.0000      3.4645     -0.0470
  3685.3000      9.3208   6549.2783      0.0000      3.4645     -0.0565
  3685.2500      9.3208   6594.4995      0.0000      3.5263     -0.0406
  3685.2000      9.3208   6645.1558      0.0000      3.5164      0.0113
  3685.1500      9.3025   6645.1558      0.0000      3.5164     -0.0168
  3685.1000      9.3025   6703.4043      0.0000      3.4752     -0.0232
  3685.0500      9.3025   6760.3457      0.0000      3.4851     -0.0262
  3685.0000      9.2507   6760.3457      0.0000      3.4851      0.0162
  3684.9500      9.2507   6789.2573      0.0000      3.5057     -0.0757
  3684.9000      9.2507   6784.6787      0.0000      3.5263     -0.0342
  3684.8500      9.2842   6784.6787      0.0000      3.5263      0.0568
