~Version Information
VERS.                      2.0: CWLS Log ASCII Standard - VERSION 2.0
WRAP.                       NO: One line per depth step
~Well Information Block
STRT.M               3779.4000: START DEPTH
STOP.M               3680.8000: STOP DEPTH
STEP.M                 -0.0500: STEP
NULL.                -999.2500: NULL VALUE
COMP.                  STATOIL: COMPANY
WELL.               15/9-F-1-C: WELL
FLD.                     VOLVE: FIELD
LOC.                          : LOCATION
SRVC.          Halliburton Logging Services: SERVICE COMPANY
DATE.          Thu Dec 04 05-18-20 2014: LOG DATE
UWI.                          : UNIQUE WELL ID
CTRY.                   NORWAY: COUNTRY
SECT.                         : SECTION
TOWN.                         : TOWNSHIP
RANG.                         : RANGE
API.                          : API#
OS.                   --NONE--: OTHER SERVICES
PDAT.FT                  M.S.L: PERMANENT DATUM
EEL.FT                   54.9M: ELEVATION
LMF.FT                   R.K.B: LOG MEASURED FROM
DMF.FT                   R.K.B: DRILLING MEASURED FROM
EKB.FT                   54.9M: KB
EDF.FT                   54.9M: DF
EGL.FT                    -91M: GL
DATE1.         03-DEC-14 @ 05:47: DATE1
RUN1.                    1 & 2: RUN NUMBER
TDD1.FT                  4094M: DEPTH DRILLER
TDL1.FT                  3782M: DEPTH LOGGER
BLI1.FT                  3772M: BOTTOM LOGGED INTERVAL
TLI1.FT                  3572M: TOP LOG INTERVAL
CDD1.IN_FT                    : CASING DRILLER
CDL1.FT                       : CASING LOGGER
BS1.IN                    8.5": BIT SIZE
DFT1.                SEA WATER: TYPE FLUID IN HOLE
DFDV1.GM/C3_CP          1.03SG: DENSITY/VISCOSITY
DFPL1.C3                      : PH/FLUID LOSS
MSS1.                         : SOURCE OF SAMPLE
RMT1.OHHM_DEGF                : RM@MEASURED TEMP
RMFT1.OHMM_DEGF                : RMF@MEASURED TEMP
RMCT1.OHMM_DEGF                : RMC@MEASURED TEMP
RMFS1.                        : SOURCE OF RMF/RMC
RMBT1.OHMM_DEGF                : RM@BHT
TCS1.                         : TIME CIRCULATION STOPPED
TLOB1.                36 HOURS: TIME LOGGER ON BOTTOM
BHT1.DEGF                 FULL: MAXIMUM RECORDED TEMPERATURE
LUN1.                 12030699: EQUIPMENT NUMBER
LUL1.                   NORWAY: LOCATION
ENGI1.              C.JAMIESON: RECORDED BY
WITN1.                A.ALBAWI: WITNESSED BY
~Curve Information Block
DEPT.M             0 000 00 00: Depth
LSPD.M/MIN                   0: Line Speed
LTEN.LB                      0: Surface Line Tension
MINMK.                       0: Minute Mark Ticks
HVOLTA.V                     0: Head Voltage Apparent
CCL.                         0: Casing Collar Locator
~Parameter Information Block
SRFTEMP.DEGC           10.0000: Surface Temperature
MudWgt.LB/GAL           8.5000: Mud Weight
CASETHCK.IN             0.4530: Casing Thickness
BITSIZE.IN              8.5000: Borehole I.D.
~Other Information
TOOL STRING DEPLOYED BY ALTUS INTERVENTION WIRELINE UNIT ON 7/16" CABLE
CABLE HEAD BUILT BY ALTUS
LOG CORRELATED TO SHLUMBERGER 4.5" HSD OX POWER JET PULS DATED 09.APRIL.2014
CORRELATION LOG IS SHALLOWER BY 1.4M, DEPTH SHIFTED 1.4M DOWN AS PER
CLIENTS REQUEST.
4.655" HSC GUN 10 AND 350 DEGREE PHASING, 39 GR MILLENIUM, 4 SHOTS PER FOOT.
ATTEMPT WAS MADE TO RUN 4 GUNS IN ONE STRING BUT AT 3600M PICK UP WEIGHT 
WAS TOO HIGH TO CONTINUE.  CLIENT D4ECIDED TO SPLIT UP ONTO TWO RUNS.
RUN #1 CCL TO TOP SHOT 3.25 M, CCL STOP DEPT: 3729.75 M
PERFORATION INTERVAL 3733M - 3742.6M
RUN #2 CCL TO TOP SHOT 3.25 M, CCL STOP DEPT: 3711.75 M
PERFORATION INTERVAL 3715M - 3724.6M

~A  Depth       LSPD        LTEN       MINMK       HVOLTA       CCL     
# ...
  3689.8000      8.1260   6756.7354      0.0000      3.4851      2.0034
  3689.7500      8.1260   6788.2939      0.0000      3.4447      2.0024
  3689.7000      8.1260   6813.5776      0.0000      3.5255      1.9857
  3689.6500      8.1260   6813.5776      0.0000      3.5255      1.9817
  3689.6000      8.1260   6845.0186      0.0000      3.4645      1.9826
  3689.5500      8.1260   6880.0498      0.0000      3.4851      2.0006
  3689.5000      8.1260   6880.0498      0.0000      3.4851      1.9918
  3689.4500      8.1260   6911.9819      0.0000      3.4653      1.9881
  3689.4000      8.1260   6947.1675      0.0000      3.4752      1.9963
  3689.3500      8.1412   6947.1675      0.0000      3.4752      1.9905
  3689.3000      8.1412   6979.5820      0.0000      3.4752      1.9954
  3689.2500      8.1778   6995.5493      0.0000      3.5057      1.9753
  3689.2000      8.1778   6995.5493      0.0000      3.5057      1.9951
  3689.1500      8.1778   7000.4185      0.0000      3.5057      1.9786
  3689.1000      8.1595   6997.6426      0.0000      3.4851      1.9957
  3689.0500      8.1595   6997.6426      0.0000      3.4851      1.9924
  3689.0000      8.1595   6975.2612      0.0000      3.4653      1.9875
  3688.9500      8.1077   6936.7080      0.0000      3.4042      1.9991
  3688.9000      8.1077   6936.7080      0.0000      3.4042      1.9948
  3688.8500      8.1077   6894.5215      0.0000      3.4851      1.9884
  3688.8000      8.1077   6844.7559      0.0000      3.4546      1.9841
  3688.7500      8.1077   6844.7559      0.0000      3.4546      1.9954
  3688.7000      8.1412   6795.7402      0.0000      3.4851      2.0006
  3688.6500      8.1412   6773.7056      0.0000      3.4851      1.9789
  3688.6000      8.1412   6773.7056      0.0000      3.4851      2.0058
  3688.5500      8.1077   6777.6025      0.0000      3.4851      1.9786
  3688.5000      8.1077   6777.6025      0.0000      3.4851      1.9835
  3688.4500      8.1077   6789.5327      0.0000      3.4546      1.9945
  3688.4000      8.1595   6811.2046      0.0000      3.4851      1.9899
  3688.3500      8.1595   6811.2046      0.0000      3.4851      1.9960
  3688.3000      8.1595   6841.7720      0.0000      3.5255      1.9835
  3688.2500      8.1595   6867.0205      0.0000      3.4851      1.9774
  3688.2000      8.1595   6867.0205      0.0000      3.4851      2.0003
  3688.1500      8.1595   6889.8872      0.0000      3.5255      1.9911
  3688.1000      8.1595   6918.0640      0.0000      3.4851      2.0024
  3688.0500      8.1595   6918.0640      0.0000      3.4851      1.9921
  3688.0000      8.2144   6940.9370      0.0000      3.4752      1.9680
  3687.9500      8.2144   6957.2285      0.0000      3.4851      2.0015
  3687.9000      8.2144   6957.2285      0.0000      3.4851      1.9747
  3687.8500      8.6258   6978.6538      0.0000      3.4851      1.9976
  3687.8000      8.6258   7004.3330      0.0000      3.4851      1.9969
  3687.7500      8.6258   7004.3330      0.0000      3.4851      1.9823
  3687.7000      9.0891   7030.3984      0.0000      3.4851      2.0101
  3687.6500      9.0891   7052.7656      0.0000      3.5156      2.0027
  3687.6000      9.0891   7052.7656      0.0000      3.5156      1.9728
  3687.5500      9.0891   7052.4688      0.0000      3.4546      2.0006
  3687.5000      9.6774   7020.1987      0.0000      3.4546      1.9725
  3687.4500      9.6774   7020.1987      0.0000      3.4546      1.9847
  3687.4000      9.6774   6977.8320      0.0000      3.4851      1.9765
  3687.3500      9.6774   6939.4282      0.0000      3.4546      1.9893
  3687.3000     10.3205   6939.4282      0.0000      3.4546      1.9838
  3687.2500     10.3205   6892.0000      0.0000      3.4546      1.9725
  3687.2000     10.3205   6835.1304      0.0000      3.4950      1.9982
  3687.1500     10.5888   6835.1304      0.0000      3.4950      1.9673
  3687.1000     10.5888   6784.3755      0.0000      3.4851      1.9802
  3687.0500     10.5888   6745.3887      0.0000      3.4447      2.0220
  3687.0000     10.5888   6745.3887      0.0000      3.4447      2.0043
  3686.9500     10.8936   6723.0103      0.0000      3.4851      1.9905
  3686.9000     10.8936   6723.0103      0.0000      3.4851      1.9927
  3686.8500     10.8936   6721.7759      0.0000      3.4851      1.9997
  3686.8000     10.8936   6732.9478      0.0000      3.4851      1.9915
  3686.7500     11.0002   6732.9478      0.0000      3.4851      1.9689
  3686.7000     11.0002   6753.6479      0.0000      3.5156      2.0189
  3686.6500     11.0002   6789.3042      0.0000      3.4752      1.9756
  3686.6000     11.0520   6789.3042      0.0000      3.4752      1.9762
  3686.5500     11.0520   6820.2808      0.0000      3.4546      1.9997
  3686.5000     11.0520   6823.1123      0.0000      3.4950      1.9832
  3686.4500     11.0520   6823.1123      0.0000      3.4950      1.9933
  3686.4000     11.1069   6817.0957      0.0000      3.4546      1.9945
  3686.3500     11.1069   6826.8833      0.0000      3.4851      2.0229
  3686.3000     11.1069   6826.8833      0.0000      3.4851      1.9924
  3686.2500     11.1069   6839.9263      0.0000      3.5255      1.9890
  3686.2000     11.0368   6844.0005      0.0000      3.4851      2.0085
  3686.1500     11.0368   6844.0005      0.0000      3.4851      1.9905
  3686.1000     11.0368   6850.3384      0.0000      3.5156      1.9899
  3686.0500     11.0368   6868.2437      0.0000      3.4851      1.9936
  3686.0000     11.0368   6868.2437      0.0000      3.4851      1.9817
  3685.9500     11.0368   6901.5273      0.0000      3.4950      2.0058
  3685.9000     11.0368   6949.7891      0.0000      3.4447      1.9896
  3685.8500     11.0368   6949.7891      0.0000      3.4447      1.9982
  3685.8000     11.0368   6994.0073      0.0000      3.4950      1.9805
  3685.7500     11.0368   7020.6743      0.0000      3.4950      1.9844
  3685.7000     11.0368   7020.6743      0.0000      3.4950      2.0113
  3685.6500     11.0703   7044.0449      0.0000      3.4851      1.9829
  3685.6000     11.0703   7068.9771      0.0000      3.4851      1.9973
  3685.5500     11.0703   7068.9771      0.0000      3.4851      1.9756
  3685.5000     11.0703   7081.6328      0.0000      3.5156      1.9979
  3685.4500     11.0703   7085.9165      0.0000      3.5156      1.9866
  3685.4000     11.0703   7085.9165      0.0000      3.5156      1.9835
  3685.3500     11.0703   7092.9512      0.0000      3.4851      2.0006
  3685.3000     11.0886   7092.9512      0.0000      3.4851      1.9792
  3685.2500     11.0886   7098.2632      0.0000      3.4851      1.9820
  3685.2000     11.0886   7100.8857      0.0000      3.4546      2.0024
  3685.1500     11.0886   7100.8857      0.0000      3.4546      1.9738
  3685.1000     11.1252   7104.0728      0.0000      3.4851      1.9673
  3685.0500     11.1252   7099.3555      0.0000      3.5355      1.9863
  3685.0000     11.1252   7099.3555      0.0000      3.5355      1.9921
  3684.9500     11.1252   7087.9551      0.0000      3.4447      1.9774
  3684.9000     11.0520   7082.8794      0.0000      3.4447      1.9786
  3684.8500     11.0520   7082.8794      0.0000      3.4447      1.9719
  3684.8000     11.0520   7074.0796      0.0000      3.4950     -1.0124
  3684.7500     11.0520   7051.2617      0.0000      3.4645      2.6769
  3684.7000     11.0520   7051.2617      0.0000      3.4645      1.1769
  3684.6500     11.0520   7040.6660      0.0000      3.5355      2.8636
  3684.6000     11.0520   7060.4302      0.0000      3.4851      1.0732
  3684.5500     11.0886   7060.4302      0.0000      3.4851      1.9631
  3684.5000     11.0886   7085.8218      0.0000      3.4950      1.9808
  3684.4500     11.0886   7092.6270      0.0000      3.4546      2.0543
  3684.4000     11.0886   7092.6270      0.0000      3.4546      2.0443
  3684.3500     11.0886   7082.6670      0.0000      3.4554      0.9752
  3684.3000     11.0886   7064.6440      0.0000      3.4752      2.0769
  3684.2500     11.0886   7064.6440      0.0000      3.4752      2.2975
