~Version Information
VERS.                      2.0: CWLS Log ASCII Standard - VERSION 2.0
WRAP.                       NO: One line per depth step
~Well Information Block
STRT.M               3779.9000: START DEPTH
STOP.M               3659.5000: STOP DEPTH
STEP.M                 -0.0500: STEP
NULL.                -999.2500: NULL VALUE
COMP.                  STATOIL: COMPANY
WELL.               15/9-F-1-C: WELL
FLD.                     VOLVE: FIELD
LOC.                          : LOCATION
SRVC.          Halliburton Logging Services: SERVICE COMPANY
DATE.          Wed Dec 03 07-18-31 2014: LOG DATE
UWI.                          : UNIQUE WELL ID
CTRY.                   NORWAY: COUNTRY
SECT.                         : SECTION
TOWN.                         : TOWNSHIP
RANG.                         : RANGE
API.                          : API#
OS.                   --NONE--: OTHER SERVICES
PDAT.FT                  M.S.L: PERMANENT DATUM
EEL.FT                   54.9M: ELEVATION
LMF.FT                   R.K.B: LOG MEASURED FROM
DMF.FT                   R.K.B: DRILLING MEASURED FROM
EKB.FT                   54.9M: KB
EDF.FT                   54.9M: DF
EGL.FT                    -91M: GL
DATE1.         03-DEC-14 @ 05:47: DATE1
RUN1.                    1 & 2: RUN NUMBER
TDD1.FT                  4094M: DEPTH DRILLER
TDL1.FT                  3782M: DEPTH LOGGER
BLI1.FT                  3772M: BOTTOM LOGGED INTERVAL
TLI1.FT                  3572M: TOP LOG INTERVAL
CDD1.IN_FT                    : CASING DRILLER
CDL1.FT                       : CASING LOGGER
BS1.IN                    8.5": BIT SIZE
DFT1.                SEA WATER: TYPE FLUID IN HOLE
DFDV1.GM/C3_CP          1.03SG: DENSITY/VISCOSITY
DFPL1.C3                      : PH/FLUID LOSS
MSS1.                         : SOURCE OF SAMPLE
RMT1.OHHM_DEGF                : RM@MEASURED TEMP
RMFT1.OHMM_DEGF                : RMF@MEASURED TEMP
RMCT1.OHMM_DEGF                : RMC@MEASURED TEMP
RMFS1.                        : SOURCE OF RMF/RMC
RMBT1.OHMM_DEGF                : RM@BHT
TCS1.                         : TIME CIRCULATION STOPPED
TLOB1.                36 HOURS: TIME LOGGER ON BOTTOM
BHT1.DEGF                 FULL: MAXIMUM RECORDED TEMPERATURE
LUN1.                 12030699: EQUIPMENT NUMBER
LUL1.                   NORWAY: LOCATION
ENGI1.              C.JAMIESON: RECORDED BY
WITN1.                A.ALBAWI: WITNESSED BY
~Curve Information Block
DEPT.M             0 000 00 00: Depth
LSPD.M/MIN                   0: Line Speed
LTEN.LB                      0: Surface Line Tension
MINMK.                       0: Minute Mark Ticks
HVOLTA.V                     0: Head Voltage Apparent
CCL.                         0: Casing Collar Locator
~Parameter Information Block
SRFTEMP.DEGC           12.0000: Surface Temperature
MudWgt.LB/GAL           8.5600: Mud Weight
CASETHCK.IN             0.4530: Casing Thickness
BITSIZE.IN             12.2500: Borehole I.D.
~Other Information
TOOL STRING DEPLOYED BY ALTUS INTERVENTION WIRELINE UNIT ON 7/16" CABLE
CABLE HEAD BUILT BY ALTUS
LOG CORRELATED TO SHLUMBERGER 4.5" HSD OX POWER JET PULS DATED 09.APRIL.2014
CORRELATION LOG IS SHALLOWER BY 1.4M, DEPTH SHIFTED 1.4M DOWN AS PER
CLIENTS REQUEST.
4.655" HSC GUN 10 AND 350 DEGREE PHASING, 39 GR MILLENIUM, 4 SHOTS PER FOOT.
ATTEMPT WAS MADE TO RUN 4 GUNS IN ONE STRING BUT AT 3600M PICK UP WEIGHT 
WAS TOO HIGH TO CONTINUE.  CLIENT D4ECIDED TO SPLIT UP ONTO TWO RUNS.
RUN #1 CCL TO TOP SHOT 3.25 M, CCL STOP DEPT: 3729.75 M
PERFORATION INTERVAL 3733M - 3742.6M
RUN #2 CCL TO TOP SHOT 3.25 M, CCL STOP DEPT: 3711.75 M
PERFORATION INTERVAL 3715M - 3724.6M

~A  Depth       LSPD        LTEN       MINMK       HVOLTA       CCL     
# ...
  3774.3000      9.8024   6019.7466      0.0000      3.4859     -0.0192
  3774.2500      9.8024   6019.7466      0.0000      3.4859     -0.0098
  3774.2000      9.7688   6041.2642      0.0000      3.4859     -0.0095
  3774.1500      9.7688   6041.2642      0.0000      3.4859     -0.0113
  3774.1000      9.7688   6060.1094      0.0000      3.4653     -0.0128
  3774.0500      9.7506   6085.5483      1.0000      3.5263     -0.0064
  3774.0000      9.7506   6085.5483      1.0000      3.5263     -0.0043
  3773.9500      9.7506   6111.9150      0.0000      3.4859     -0.0113
  3773.9000      9.7506   6135.6890      0.0000      3.4554     -0.0089
  3773.8500      9.7506   6135.6890      0.0000      3.4554     -0.0058
  3773.8000      9.7506   6167.9170      0.0000      3.4859     -0.0082
  3773.7500      9.7506   6205.9917      0.0000      3.4859     -0.0079
  3773.7000      9.7140   6205.9917      0.0000      3.4859     -0.0058
  3773.6500      9.7140   6238.9136      0.0000      3.4859     -0.0107
  3773.6000      9.7140   6273.8091      0.0000      3.4958     -0.0101
  3773.5500      9.7688   6273.8091      0.0000      3.4958     -0.0137
  3773.5000      9.7688   6309.9868      0.0000      3.4859     -0.0113
  3773.4500      9.7688   6330.7075      0.0000      3.4859     -0.0064
  3773.4000      9.7688   6330.7075      0.0000      3.4859     -0.0110
  3773.3500      9.7688   6342.8564      0.0000      3.4958     -0.0064
  3773.3000      9.7688   6364.2988      0.0000      3.4859     -0.0119
  3773.2500      9.7688   6364.2988      0.0000      3.4859     -0.0110
  3773.2000      9.7688   6389.4561      0.0000      3.4958      0.0082
  3773.1500      9.7688   6412.8848      0.0000      3.4859      0.0049
  3773.1000      9.7688   6412.8848      0.0000      3.4859     -0.0153
  3773.0500      9.7688   6442.0029      0.0000      3.5164     -0.0061
  3773.0000      9.7688   6472.3965      0.0000      3.4554     -0.0119
  3772.9500      9.7688   6472.3965      0.0000      3.4554     -0.0201
  3772.9000      9.7506   6500.3721      0.0000      3.4554     -0.0140
  3772.8500      9.7506   6536.8032      0.0000      3.4958     -0.0113
  3772.8000      9.7506   6536.8032      0.0000      3.4958     -0.0134
  3772.7500      9.6957   6574.8970      0.0000      3.4859      0.0391
  3772.7000      9.6957   6574.8970      0.0000      3.4859     -0.0018
  3772.6500      9.6957   6595.6646      0.0000      3.4958     -0.0107
  3772.6000      9.6957   6605.1499      0.0000      3.4859     -0.0049
  3772.5500      9.6957   6605.1499      0.0000      3.4859     -0.0122
  3772.5000      9.6957   6616.2646      0.0000      3.4958     -0.0101
  3772.4500      9.6957   6626.4512      0.0000      3.5263     -0.0125
  3772.4000      9.7140   6626.4512      0.0000      3.5263     -0.0107
  3772.3500      9.7140   6640.5933      0.0000      3.4958     -0.0143
  3772.3000      9.7140   6666.7871      0.0000      3.4958      0.0137
  3772.2500      9.6774   6666.7871      0.0000      3.4958     -0.0433
  3772.2000      9.6774   6692.6665      0.0000      3.4859      0.0546
  3772.1500      9.6774   6713.4292      0.0000      3.4958     -0.0626
  3772.1000      9.7323   6713.4292      0.0000      3.4958     -0.0031
  3772.0500      9.7323   6742.9692      0.0000      3.4554     -0.0113
  3772.0000      9.7323   6776.2285      0.0000      3.4859     -0.0143
  3771.9500      9.7323   6776.2285      0.0000      3.4859     -0.0095
  3771.9000      9.7323   6801.2280      0.0000      3.4859     -0.0122
  3771.8500      9.7323   6827.5474      0.0000      3.4958     -0.0092
  3771.8000      9.7323   6827.5474      0.0000      3.4958     -0.0128
  3771.7500      9.7140   6857.8140      0.0000      3.4554      0.0043
  3771.7000      9.7140   6880.4585      0.0000      3.4859     -0.0217
  3771.6500      9.7140   6880.4585      0.0000      3.4859     -0.0626
  3771.6000      9.7323   6902.9136      0.0000      3.4859     -0.0143
  3771.5500      9.7323   6937.4761      0.0000      3.5263     -0.0046
  3771.5000      9.7323   6937.4761      0.0000      3.5263     -0.0098
  3771.4500      9.6774   6973.2729      0.0000      3.4653     -0.0113
  3771.4000      9.6774   7004.3340      0.0000      3.4554     -0.0067
  3771.3500      9.6774   7004.3340      0.0000      3.4554     -0.0027
  3771.3000      9.6774   7038.2153      0.0000      3.4859     -0.0186
  3771.2500      9.6774   7065.3301      0.0000      3.5263     -0.0037
  3771.2000      9.6774   7065.3301      0.0000      3.5263     -0.0177
  3771.1500      9.6774   7074.8755      0.0000      3.4958      0.0470
  3771.1000      9.6957   7074.8755      0.0000      3.4958     -0.0266
  3771.0500      9.6957   7073.2300      0.0000      3.4958      0.2054
  3771.0000      9.6957   7058.0708      0.0000      3.4760     -0.2841
  3770.9500      9.6591   7058.0708      0.0000      3.4760     -0.2283
  3770.9000      9.6591   7027.7959      0.0000      3.4859      0.0986
  3770.8500      9.6591   7005.2988      0.0000      3.4958      0.0174
  3770.8000      9.7140   7005.2988      0.0000      3.4958      0.0092
  3770.7500      9.7140   7001.7256      0.0000      3.4859      0.0946
  3770.7000      9.7140   7001.7715      0.0000      3.5263     -0.0528
  3770.6500      9.7323   7001.7715      0.0000      3.5263     -0.0449
  3770.6000      9.7323   7008.6743      0.0000      3.4958     -0.0351
  3770.5500      9.7323   7036.0508      0.0000      3.4859     -0.0250
  3770.5000      9.7323   7036.0508      0.0000      3.4859     -0.0214
  3770.4500      9.7140   7069.6714      0.0000      3.4958      0.0031
  3770.4000      9.7140   7096.3203      0.0000      3.4859      0.0092
  3770.3500      9.7140   7096.3203      0.0000      3.4859     -0.0122
  3770.3000      9.7140   7120.9731      0.0000      3.4554      0.0034
  3770.2500      9.7140   7136.2329      0.0000      3.4554     -0.0070
  3770.2000      9.7140   7136.2329      0.0000      3.4554     -0.0275
  3770.1500      9.6957   7135.3501      0.0000      3.4958     -0.0082
  3770.1000      9.6957   7134.8413      0.0000      3.5164      0.0104
  3770.0500      9.6957   7134.8413      0.0000      3.5164     -0.1022
  3770.0000      9.6591   7140.4380      0.0000      3.4958      0.0858
  3769.9500      9.6591   7137.4688      0.0000      3.4859     -0.0037
  3769.9000      9.6591   7137.4688      0.0000      3.4859     -0.0571
  3769.8500      9.6957   7130.0757      0.0000      3.4859     -0.1019
  3769.8000      9.6957   7128.5601      0.0000      3.4859     -0.0620
  3769.7500      9.6957   7128.5601      0.0000      3.4859     -0.0024
  3769.7000      9.6957   7118.1597      0.0000      3.4958      0.1514
  3769.6500      9.6591   7091.4917      0.0000      3.4653     -0.0369
  3769.6000      9.6591   7091.4917      0.0000      3.4653      0.0351
  3769.5500      9.6591   7060.6699      0.0000      3.5263      0.1132
  3769.5000      9.6957   7060.6699      0.0000      3.5263     -0.0513
  3769.4500      9.6957   7024.7603      0.0000      3.4958     -0.0302
  3769.4000      9.6957   6982.3643      0.0000      3.4958     -0.2017
  3769.3500      9.7506   6982.3643      0.0000      3.4958     -0.0629
  3769.3000      9.7506   6948.8320      0.0000      3.4760     -0.3162
  3769.2500      9.7506   6926.3159      0.0000      3.4859      0.0531
  3769.2000      9.7506   6926.3159      0.0000      3.4859     -0.1105
  3769.1500      9.7323   6905.3696      0.0000      3.4859     -0.0650
  3769.1000      9.7323   6893.6602      0.0000      3.4653     -0.1660
  3769.0500      9.7323   6893.6602      0.0000      3.4653      0.1849
  3769.0000      9.7688   6893.8740      0.0000      3.4554     -0.2649
  3768.9500      9.7688   6891.5605      0.0000      3.4554      0.0058
  3768.9000      9.7688   6891.5605      0.0000      3.4554     -0.0357
  3768.8500      9.7841   6890.3262      0.0000      3.4653      0.0400
  3768.8000      9.7841   6903.6318      0.0000      3.4554     -0.0049
  3768.7500      9.7841   6903.6318      0.0000      3.4554     -0.0220
