~Version Information
VERS.                      2.0: CWLS Log ASCII Standard - VERSION 2.0
WRAP.                       NO: One line per depth step
~Well Information Block
STRT.M               3169.9500: START DEPTH
STOP.M               3076.7000: STOP DEPTH
STEP.M                 -0.0500: STEP
NULL.                -999.2500: NULL VALUE
COMP.                  Statoil: COMPANY
WELL.                15/9-F-12: WELL
FLD.                     Volve: FIELD
LOC.                          : LOCATION
SRVC.          Halliburton Logging Services: SERVICE COMPANY
DATE.          Wed Nov 26 07-57-02 2014: LOG DATE
UWI.                          : UNIQUE WELL ID
SECT.                         : SECTION
TOWN.                         : TOWNSHIP
RANG.                         : RANGE
API.                          : API#
OS.                           : OTHER SERVICES
PDAT.FT                       : PERMANENT DATUM
EEL.FT                        : ELEVATION
LMF.FT                        : LOG MEASURED FROM
DMF.FT                        : DRILLING MEASURED FROM
EKB.FT                        : KB
EDF.FT                        : DF
EGL.FT                        : GL
DATE1.                        : DATE1
RUN1.                         : RUN NUMBER
TDD1.FT                       : DEPTH DRILLER
TDL1.FT                       : DEPTH LOGGER
BLI1.FT                       : BOTTOM LOGGED INTERVAL
TLI1.FT                       : TOP LOG INTERVAL
CDD1.IN_FT                    : CASING DRILLER
CDL1.FT                       : CASING LOGGER
BS1.IN                        : BIT SIZE
DFT1.                         : TYPE FLUID IN HOLE
DFDV1.GM/C3_CP                : DENSITY/VISCOSITY
DFPL1.C3                      : PH/FLUID LOSS
MSS1.                         : SOURCE OF SAMPLE
RMT1.OHHM_DEGF                : RM@MEASURED TEMP
RMFT1.OHMM_DEGF                : RMF@MEASURED TEMP
RMCT1.OHMM_DEGF                : RMC@MEASURED TEMP
RMFS1.                        : SOURCE OF RMF/RMC
RMBT1.OHMM_DEGF                : RM@BHT
TCS1.                         : TIME CIRCULATION STOPPED
TLOB1.                        : TIME LOGGER ON BOTTOM
BHT1.DEGF                     : MAXIMUM RECORDED TEMPERATURE
LUN1.                         : EQUIPMENT NUMBER
LUL1.                         : LOCATION
ENGI1.                        : RECORDED BY
WITN1.                        : WITNESSED BY
~Curve Information Block
DEPT.M             0 000 00 00: Depth
LSPD.M/MIN                   0: Line Speed
LTEN.LB                      0: Surface Line Tension
MINMK.                       0: Minute Mark Ticks
GR.GAPI                      0: Gamma Ray
CCL.                         0: Casing Collar Locator
ACCX.                        0: X Axis Accelerometer
ACCY.                        0: Y Axis Accelerometer
ACCZ.                        0: Z Axis Accelerometer
RB.DEG                       0: Relative Bearing
DEVI.DEG                     0: Deviation
TOTG.GEE                     0: Total G
RBRef.DEG                    0: RB Reference
IntTemp.DEGF                 0: Internal Electronics Temperature
~Parameter Information Block
~A  Depth       LSPD        LTEN       MINMK         GR         CCL         ACCX        ACCY        ACCZ         RB         DEVI        TOTG       RBRef      IntTemp   
# ...
  3109.9500      9.3391   4340.0571      0.0000     31.1405    525.0000   2486.3999   1519.4000   2180.0000     31.4284      0.0247   3639.1155    -31.4284    225.9809
  3109.9000      9.3391   4344.2422      0.0000     31.4538    512.0000   2488.6001   1515.6000   2203.7000     31.3421      0.0246   3653.2817    -31.3421    225.9964
  3109.8500      9.3391   4303.6406      0.0000     32.8949    532.0000   2516.0000   1549.1000   2212.7000     31.6206      0.0244   3691.3423    -31.6206    226.0231
  3109.8000      9.4092   4304.4492      0.0000     34.5240    544.0000   2518.1001   1548.1000   2185.7000     31.5827      0.0245   3676.2380    -31.5827    226.0442
  3109.7500      9.4092   4335.1499      0.0000     35.3385    514.0000   2527.6001   1540.7000   2160.1001     31.3644      0.0246   3664.4988    -31.3644    226.0653
  3109.7000      9.4092   4353.8618      0.0000     37.0303    520.0000   2523.0000   1534.2000   2172.8000     31.3032      0.0245   3666.1094    -31.3032    226.0822
  3109.6500      9.4092   4330.2661      0.0000     36.3410    525.0000   2535.8999   1544.6000   2158.8999     31.3453      0.0245   3671.1614    -31.3453    226.1033
  3109.6000      9.4092   4299.9932      0.0000     36.4663    536.0000   2546.2000   1548.5000   2151.3000     31.3063      0.0245   3675.4697    -31.3063    226.1202
  3109.5500      9.4092   4277.0757      0.0000     35.8398    535.0000   2535.3999   1540.8000   2128.5000     31.2877      0.0246   3651.4148    -31.2877    226.1279
  3109.5000      9.3756   4264.7710      0.0000     37.3435    509.0000   2530.8999   1505.9000   2147.8999     30.7529      0.0247   3645.0876    -30.7529    226.1377
  3109.4500      9.3756   4261.8643      0.0000     38.7220    526.0000   2530.0000   1510.0000   2175.8999     30.8304      0.0246   3662.7231    -30.8304    226.1363
  3109.4000      9.3756   4247.1758      0.0000     40.2884    523.0000   2530.6001   1516.5000   2179.7000     30.9328      0.0245   3668.0786    -30.9328    226.1398
  3109.3500      9.3756   4224.5967      0.0000     41.4162    538.0000   2529.3999   1502.5000   2166.5000     30.7109      0.0246   3653.6409    -30.7109    226.1413
  3109.3000      9.3939   4167.9863      0.0000     44.6118    508.0000   2524.3000   1503.8000   2163.0000     30.7835      0.0247   3648.5715    -30.7835    226.1462
  3109.2500      9.3939   4155.3657      0.0000     44.4864    522.0000   2514.5000   1497.4000   2179.8000     30.7741      0.0247   3649.1704    -30.7741    226.1455
  3109.2000      9.3939   4173.8198      0.0000     43.9225    532.0000   2507.6001   1517.7000   2187.3999     31.1840      0.0246   3657.3474    -31.1840    226.1455
  3109.1500      9.3391   4178.5430      0.0000     42.9200    515.0000   2495.0000   1507.5000   2149.3999     31.1407      0.0248   3621.8091    -31.1407    226.1251
  3109.1000      9.3391   4144.3281      0.0000     41.6042    520.0000   2484.1001   1508.8000   2142.1001     31.2738      0.0249   3610.5156    -31.2738    226.1040
  3109.0500      9.3391   4126.0127      0.0000     40.0378    512.0000   2499.1001   1518.9000   2156.8000     31.2903      0.0248   3633.7783    -31.2903    226.0780
  3109.0000      9.2842   4166.2231      0.0000     39.7872    536.0000   2500.0000   1510.8000   2167.3999     31.1454      0.0247   3637.3259    -31.1454    226.0555
  3108.9500      9.2842   4252.2974      0.0000     39.4112    541.0000   2500.7000   1502.8000   2162.1001     31.0038      0.0248   3631.3337    -31.0038    226.0372
  3108.9000      9.2842   4271.5156      0.0000     39.3486    531.0000   2488.5000   1510.8000   2180.3000     31.2625      0.0247   3637.1497    -31.2625    226.0358
  3108.8500      9.3025   4248.0010      0.0000     38.4087    519.0000   2494.3999   1527.0000   2187.3999     31.4738      0.0246   3652.1882    -31.4738    226.0421
  3108.8000      9.3025   4219.3525      0.0000     37.5942    499.0000   2495.3999   1523.6000   2181.1001     31.4067      0.0247   3647.6809    -31.4067    226.0576
  3108.7500      9.3025   4228.7144      0.0000     35.5891    606.0000   2515.3000   1568.9000   2210.8999     31.9536      0.0243   3698.1428    -31.9536    226.0850
  3108.7000      9.2690   4256.8755      0.0000     33.4588    185.0000   2499.8999   1557.9000   2197.7000     31.9305      0.0245   3675.1106    -31.9305    226.1061
  3108.6500      9.2690   4258.6265      0.0000     31.3911    731.0000   2498.8000   1555.4000   2181.3000     31.9006      0.0246   3663.5149    -31.9006    226.1258
  3108.6000      9.2690   4201.6733      0.0000     30.0753    531.0000   2499.3000   1551.0000   2164.0000     31.8227      0.0246   3651.7117    -31.8227    226.1272
  3108.5500      9.3391   4173.7119      0.0000     29.1981    500.0000   2498.1001   1547.7000   2150.3999     31.7803      0.0247   3641.4419    -31.7803    226.1216
  3108.5000      9.3391   4201.8818      0.0000     30.2007    510.0000   2503.8999   1568.9000   2146.3999     32.0705      0.0246   3652.1218    -32.0705    226.1075
  3108.4500      9.3391   4249.3521      0.0000     31.7671    436.0000   2476.5000   1537.7000   2132.8999     31.8368      0.0249   3612.0403    -31.8368    226.0864
  3108.4000      9.3391   4258.4136      0.0000     33.3335    504.0000   2490.5000   1551.4000   2137.3999     31.9199      0.0248   3630.1392    -31.9199    226.0660
  3108.3500      9.3391   4223.5083      0.0000     34.7746    563.0000   2501.3999   1579.5000   2135.8999     32.2702      0.0247   3648.8203    -32.2702    226.0534
  3108.3000      9.3391   4190.8003      0.0000     36.9049    531.0000   2481.6001   1572.0000   2155.8999     32.3527      0.0247   3643.8206    -32.3527    226.0428
  3108.2500      9.3574   4209.3643      0.0000     38.4714    552.0000   2501.5000   1571.3000   2170.3999     32.1347      0.0246   3665.6680    -32.1347    226.0344
  3108.2000      9.3574   4237.5693      0.0000     40.1631    501.0000   2510.8000   1572.5000   2193.0000     32.0587      0.0244   3685.9358    -32.0587    226.0323
  3108.1500      9.3574   4232.3784      0.0000     41.9175    532.0000   2529.5000   1606.6000   2179.2000     32.4215      0.0243   3705.1919    -32.4215    226.0309
  3108.1000      9.3756   4198.2290      0.0000     43.8599    530.0000   2554.8999   1591.0000   2149.8000     31.9116      0.0243   3698.7073    -31.9116    226.0344
  3108.0500      9.3756   4175.2734      0.0000     46.0529    549.0000   2556.8000   1569.8000   2142.2000     31.5487      0.0244   3686.5322    -31.5487    226.0506
  3108.0000      9.3756   4203.7124      0.0000     47.1180    520.0000   2574.7000   1557.8000   2129.7000     31.1757      0.0244   3686.6575    -31.1757    226.0632
  3107.9500      9.3756   4249.7368      0.0000     46.7421    525.0000   2579.2000   1549.3000   2124.3000     30.9928      0.0244   3683.1038    -30.9928    226.0759
  3107.9000      9.3025   4270.7197      0.0000     46.8674    533.0000   2568.5000   1513.4000   2090.8999     30.5073      0.0247   3641.3506    -30.5073    226.0998
  3107.8500      9.3025   4239.6089      0.0000     45.8022    536.0000   2563.6001   1455.2000   2104.7000     29.5809      0.0248   3622.0732    -29.5809    226.1131
  3107.8000      9.3025   4205.9443      0.0000     43.6719    538.0000   2557.0000   1436.5000   2132.6001     29.3269      0.0248   3626.2605    -29.3269    226.1159
  3107.7500      9.3208   4209.4824      0.0000     42.7947    520.0000   2569.6001   1423.2000   2147.5000     28.9803      0.0247   3638.6946    -28.9803    226.1202
  3107.7000      9.3208   4247.2612      0.0000     43.2960    533.0000   2558.7000   1409.0000   2161.1001     28.8403      0.0248   3633.5354    -28.8403    226.1251
  3107.6500      9.3208   4241.3008      0.0000     42.4814    518.0000   2563.8999   1405.4000   2163.8000     28.7293      0.0247   3637.4116    -28.7293    226.1230
  3107.6000      9.3025   4215.9570      0.0000     42.6694    515.0000   2565.8999   1409.9000   2181.3000     28.7877      0.0247   3650.9902    -28.7877    226.1096
