~Version Information
VERS.                      2.0: CWLS Log ASCII Standard - VERSION 2.0
WRAP.                       NO: One line per depth step
~Well Information Block
STRT.M               3779.4000: START DEPTH
STOP.M               3680.8000: STOP DEPTH
STEP.M                 -0.0500: STEP
NULL.                -999.2500: NULL VALUE
COMP.                  STATOIL: COMPANY
WELL.               15/9-F-1-C: WELL
FLD.                     VOLVE: FIELD
LOC.                          : LOCATION
SRVC.          Halliburton Logging Services: SERVICE COMPANY
DATE.          Thu Dec 04 05-18-20 2014: LOG DATE
UWI.                          : UNIQUE WELL ID
CTRY.                   NORWAY: COUNTRY
SECT.                         : SECTION
TOWN.                         : TOWNSHIP
RANG.                         : RANGE
API.                          : API#
OS.                   --NONE--: OTHER SERVICES
PDAT.FT                  M.S.L: PERMANENT DATUM
EEL.FT                   54.9M: ELEVATION
LMF.FT                   R.K.B: LOG MEASURED FROM
DMF.FT                   R.K.B: DRILLING MEASURED FROM
EKB.FT                   54.9M: KB
EDF.FT                   54.9M: DF
EGL.FT                    -91M: GL
DATE1.         03-DEC-14 @ 05:47: DATE1
RUN1.                    1 & 2: RUN NUMBER
TDD1.FT                  4094M: DEPTH DRILLER
TDL1.FT                  3782M: DEPTH LOGGER
BLI1.FT                  3772M: BOTTOM LOGGED INTERVAL
TLI1.FT                  3572M: TOP LOG INTERVAL
CDD1.IN_FT                    : CASING DRILLER
CDL1.FT                       : CASING LOGGER
BS1.IN                    8.5": BIT SIZE
DFT1.                SEA WATER: TYPE FLUID IN HOLE
DFDV1.GM/C3_CP          1.03SG: DENSITY/VISCOSITY
DFPL1.C3                      : PH/FLUID LOSS
MSS1.                         : SOURCE OF SAMPLE
RMT1.OHHM_DEGF                : RM@MEASURED TEMP
RMFT1.OHMM_DEGF                : RMF@MEASURED TEMP
RMCT1.OHMM_DEGF                : RMC@MEASURED TEMP
RMFS1.                        : SOURCE OF RMF/RMC
RMBT1.OHMM_DEGF                : RM@BHT
TCS1.                         : TIME CIRCULATION STOPPED
TLOB1.                36 HOURS: TIME LOGGER ON BOTTOM
BHT1.DEGF                 FULL: MAXIMUM RECORDED TEMPERATURE
LUN1.                 12030699: EQUIPMENT NUMBER
LUL1.                   NORWAY: LOCATION
ENGI1.              C.JAMIESON: RECORDED BY
WITN1.                A.ALBAWI: WITNESSED BY
~Curve Information Block
DEPT.M             0 000 00 00: Depth
LSPD.M/MIN                   0: Line Speed
LTEN.LB                      0: Surface Line Tension
MINMK.                       0: Minute Mark Ticks
HVOLTA.V                     0: Head Voltage Apparent
CCL.                         0: Casing Collar Locator
~Parameter Information Block
SRFTEMP.DEGC           10.0000: Surface Temperature
MudWgt.LB/GAL           8.5000: Mud Weight
CASETHCK.IN             0.4530: Casing Thickness
BITSIZE.IN              8.5000: Borehole I.D.
~Other Information
TOOL STRING DEPLOYED BY ALTUS INTERVENTION WIRELINE UNIT ON 7/16" CABLE
CABLE HEAD BUILT BY ALTUS
LOG CORRELATED TO SHLUMBERGER 4.5" HSD OX POWER JET PULS DATED 09.APRIL.2014
CORRELATION LOG IS SHALLOWER BY 1.4M, DEPTH SHIFTED 1.4M DOWN AS PER
CLIENTS REQUEST.
4.655" HSC GUN 10 AND 350 DEGREE PHASING, 39 GR MILLENIUM, 4 SHOTS PER FOOT.
ATTEMPT WAS MADE TO RUN 4 GUNS IN ONE STRING BUT AT 3600M PICK UP WEIGHT 
WAS TOO HIGH TO CONTINUE.  CLIENT D4ECIDED TO SPLIT UP ONTO TWO RUNS.
RUN #1 CCL TO TOP SHOT 3.25 M, CCL STOP DEPT: 3729.75 M
PERFORATION INTERVAL 3733M - 3742.6M
RUN #2 CCL TO TOP SHOT 3.25 M, CCL STOP DEPT: 3711.75 M
PERFORATION INTERVAL 3715M - 3724.6M

~A  Depth       LSPD        LTEN       MINMK       HVOLTA       CCL     
# ...
  3773.8000      5.8552   7856.5190      0.0000      3.4851     -0.0192
  3773.7500      5.8552   7878.2788      0.0000      3.4950      0.0232
  3773.7000      5.8552   7878.2788      0.0000      3.4950     -0.0125
  3773.6500      5.8552   7910.2466      0.0000      3.4851     -0.0024
  3773.6000      5.9802   7951.2964      0.0000      3.4851     -0.0146
  3773.5500      5.9802   7951.2964      0.0000      3.4851     -0.0116
  3773.5000      6.2667   7984.8735      0.0000      3.4851     -0.0055
  3773.4500      6.2667   8004.9355      0.0000      3.4851     -0.0186
  3773.4000      6.5349   8004.9355      0.0000      3.4851     -0.0101
  3773.3500      6.5349   8016.0845      0.0000      3.4851     -0.0070
  3773.3000      6.5349   8020.8662      0.0000      3.4546     -0.1334
  3773.2500      6.7666   8020.8662      0.0000      3.4546     -0.0681
  3773.2000      6.7666   8031.4775      0.0000      3.5156     -0.0159
  3773.1500      6.7483   8058.1323      0.0000      3.4645     -0.0110
  3773.1000      6.7483   8058.1323      0.0000      3.4645     -0.0134
  3773.0500      6.5166   8082.5283      0.0000      3.5156     -0.0116
  3773.0000      6.5166   8089.7959      0.0000      3.4546     -0.0116
  3772.9500      6.3551   8089.7959      0.0000      3.4546     -0.0146
  3772.9000      6.3551   8094.2500      0.0000      3.4851     -0.0156
  3772.8500      6.1783   8103.1577      0.0000      3.4851     -0.0073
  3772.8000      6.1783   8103.1577      0.0000      3.4851     -0.0092
  3772.7500      6.1417   8109.8193      0.0000      3.4851     -0.0031
  3772.7000      6.1417   8109.8193      0.0000      3.4851     -0.0146
  3772.6500      6.1966   8122.3774      0.0000      3.4950     -0.0122
  3772.6000      6.1966   8148.4072      0.0000      3.4851     -0.0168
  3772.5500      6.1417   8148.4072      0.0000      3.4851     -0.0095
  3772.5000      6.1417   8177.8789      0.0000      3.4546     -0.0156
  3772.4500      6.1783   8212.3789      0.0000      3.4950     -0.0128
  3772.4000      6.1783   8212.3789      0.0000      3.4950     -0.0055
  3772.3500      6.1783   8257.8643      0.0000      3.4950     -0.0043
  3772.3000      6.1783   8279.7666      0.0000      3.4851     -0.0043
  3772.2500      6.0899   8279.7666      0.0000      3.4851     -0.0143
  3772.2000      6.0899   8216.5859      0.0000      3.4851     -0.0131
  3772.1500      5.7485   8021.2031      0.0000      3.4851      2.7042
  3772.1000      5.0871   8021.2031      0.0000      3.4851      1.4008
  3772.0500      4.5690   7690.0098      0.0000      3.4752     -3.6417
  3772.0000      4.5690   7298.1899      0.0000      3.4546     -0.3864
  3771.9500      4.1057   7298.1899      0.0000      3.4546     -0.5038
  3771.9000      3.9441   6972.3345      0.0000      3.4950     -0.4724
  3771.8500      3.9441   6787.4985      0.0000      3.4851      0.0558
  3771.8000      4.1788   6787.4985      0.0000      3.4851     -0.0122
  3771.7500      4.3190   6724.9790      0.0000      3.4950     -0.0140
  3771.7000      4.3190   6733.6812      0.0000      3.4546     -0.0061
  3771.6500      4.5354   6733.6812      0.0000      3.4546     -0.0052
  3771.6000      4.7854   6774.3223      0.0000      3.4950     -0.0137
  3771.5500      4.7854   6817.5996      0.0000      3.4851     -0.0049
  3771.5000      5.0170   6817.5996      0.0000      3.4851     -0.0043
  3771.4500      5.0170   6859.2173      0.0000      3.4546     -0.0146
  3771.4000      5.2852   6910.6602      0.0000      3.4241     -0.0089
  3771.3500      5.2852   6910.6602      0.0000      3.4241     -0.0018
  3771.3000      5.4986   6962.7676      0.0000      3.5156     -0.0134
  3771.2500      5.4986   7002.5166      0.0000      3.4447     -0.0085
  3771.2000      5.6601   7002.5166      0.0000      3.4447     -0.0162
  3771.1500      5.6601   7038.9980      0.0000      3.4851     -0.0003
  3771.1000      5.7668   7038.9980      0.0000      3.4851     -0.0079
  3771.0500      5.7668   7076.0659      0.0000      3.4851     -0.0055
  3771.0000      5.8400   7101.8687      0.0000      3.4447     -0.0153
  3770.9500      5.8400   7101.8687      0.0000      3.4447     -0.0125
  3770.9000      5.9649   7118.9346      0.0000      3.4950     -0.0119
  3770.8500      5.9649   7138.7788      0.0000      3.4950     -0.0082
  3770.8000      6.1234   7138.7788      0.0000      3.4950     -0.0061
  3770.7500      6.1234   7158.9902      0.0000      3.4851     -0.0049
  3770.7000      6.2484   7180.6265      0.0000      3.4546     -0.0058
  3770.6500      6.2484   7180.6265      0.0000      3.4546     -0.0156
  3770.6000      6.2484   7212.3198      0.0000      3.4546     -0.0143
  3770.5500      6.5166   7249.2534      0.0000      3.4752     -0.0107
  3770.5000      6.5166   7249.2534      0.0000      3.4752     -0.0034
  3770.4500      6.8214   7284.3457      0.0000      3.4546     -0.0180
  3770.4000      6.8214   7317.3706      0.0000      3.4851     -0.0171
  3770.3500      6.8214   7317.3706      0.0000      3.4851     -0.0604
  3770.3000      7.0531   7335.9482      0.0000      3.4851     -0.0513
  3770.2500      7.0531   7323.8315      0.0000      3.4950      0.1575
  3770.2000      7.3731   7323.8315      0.0000      3.4950     -0.3583
  3770.1500      7.3731   7288.1284      0.0000      3.4851     -0.2600
  3770.1000      7.3731   7245.0869      0.0000      3.4851     -0.2100
  3770.0500      7.5712   7245.0869      0.0000      3.4851      0.0500
  3770.0000      7.5712   7200.2153      0.0000      3.4950     -0.0458
  3769.9500      7.5712   7166.1733      0.0000      3.4851      0.1990
  3769.9000      7.7846   7166.1733      0.0000      3.4851      0.2798
  3769.8500      7.7846   7158.7832      0.0000      3.4851      0.0946
  3769.8000      8.0894   7173.4277      0.0000      3.4645      0.0885
  3769.7500      8.0894   7173.4277      0.0000      3.4645     -0.1114
  3769.7000      8.0894   7200.0210      0.0000      3.4546     -0.0024
  3769.6500      8.3028   7235.8872      0.0000      3.4851     -0.0232
  3769.6000      8.3028   7235.8872      0.0000      3.4851     -0.0070
  3769.5500      8.3028   7273.6646      0.0000      3.4851     -0.0217
  3769.5000      8.6258   7273.6646      0.0000      3.4851      0.0159
  3769.4500      8.6258   7309.0737      0.0000      3.4950     -0.0192
  3769.4000      8.6258   7346.8638      0.0000      3.4851     -0.0159
  3769.3500      8.8209   7346.8638      0.0000      3.4851      0.0085
  3769.3000      8.8209   7379.6992      0.0000      3.4851     -0.0433
  3769.2500      8.8209   7395.7900      0.0000      3.4950     -0.0070
  3769.2000      8.8209   7395.7900      0.0000      3.4950     -0.0699
  3769.1500      9.0708   7403.1426      0.0000      3.4950      0.0638
  3769.1000      9.0708   7408.1738      0.0000      3.4851     -0.0104
  3769.0500      9.0708   7408.1738      0.0000      3.4851      0.0079
  3769.0000      9.2690   7406.9292      0.0000      3.4851     -0.0330
  3768.9500      9.2690   7409.0322      0.0000      3.4645     -0.2563
  3768.9000      9.2690   7409.0322      0.0000      3.4645     -0.2097
  3768.8500      9.3208   7416.7739      0.0000      3.4950      0.0931
  3768.8000      9.3208   7411.6294      0.0000      3.4851     -0.0180
  3768.7500      9.3208   7411.6294      0.0000      3.4851      0.0146
  3768.7000      9.4092   7398.4346      1.0000      3.4851     -0.0018
  3768.6500      9.4092   7400.5732      0.0000      3.4546     -0.1764
  3768.6000      9.4092   7400.5732      0.0000      3.4546      0.1785
  3768.5500      9.3574   7407.2930      0.0000      3.4851      0.0183
  3768.5000      9.3574   7397.9736      0.0000      3.4851     -0.0070
  3768.4500      9.3574   7397.9736      0.0000      3.4851      0.2026
  3768.4000      9.3391   7385.8604      0.0000      3.4851     -0.2731
  3768.3500      9.3391   7377.2925      0.0000      3.4546      0.0485
  3768.3000      9.3391   7377.2925      0.0000      3.4546     -0.1508
  3768.2500      9.3391   7352.7241      0.0000      3.5156     -0.4471
