~Version Information
VERS.                      2.0: CWLS Log ASCII Standard - VERSION 2.0
WRAP.                       NO: One line per depth step
~Well Information Block
STRT.M               3779.9000: START DEPTH
STOP.M               3659.5000: STOP DEPTH
STEP.M                 -0.0500: STEP
NULL.                -999.2500: NULL VALUE
COMP.                  STATOIL: COMPANY
WELL.               15/9-F-1-C: WELL
FLD.                     VOLVE: FIELD
LOC.                          : LOCATION
SRVC.          Halliburton Logging Services: SERVICE COMPANY
DATE.          Wed Dec 03 07-18-31 2014: LOG DATE
UWI.                          : UNIQUE WELL ID
CTRY.                   NORWAY: COUNTRY
SECT.                         : SECTION
TOWN.                         : TOWNSHIP
RANG.                         : RANGE
API.                          : API#
OS.                   --NONE--: OTHER SERVICES
PDAT.FT                  M.S.L: PERMANENT DATUM
EEL.FT                   54.9M: ELEVATION
LMF.FT                   R.K.B: LOG MEASURED FROM
DMF.FT                   R.K.B: DRILLING MEASURED FROM
EKB.FT                   54.9M: KB
EDF.FT                   54.9M: DF
EGL.FT                    -91M: GL
DATE1.         03-DEC-14 @ 05:47: DATE1
RUN1.                    1 & 2: RUN NUMBER
TDD1.FT                  4094M: DEPTH DRILLER
TDL1.FT                  3782M: DEPTH LOGGER
BLI1.FT                  3772M: BOTTOM LOGGED INTERVAL
TLI1.FT                  3572M: TOP LOG INTERVAL
CDD1.IN_FT                    : CASING DRILLER
CDL1.FT                       : CASING LOGGER
BS1.IN                    8.5": BIT SIZE
DFT1.                SEA WATER: TYPE FLUID IN HOLE
DFDV1.GM/C3_CP          1.03SG: DENSITY/VISCOSITY
DFPL1.C3                      : PH/FLUID LOSS
MSS1.                         : SOURCE OF SAMPLE
RMT1.OHHM_DEGF                : RM@MEASURED TEMP
RMFT1.OHMM_DEGF                : RMF@MEASURED TEMP
RMCT1.OHMM_DEGF                : RMC@MEASURED TEMP
RMFS1.                        : SOURCE OF RMF/RMC
RMBT1.OHMM_DEGF                : RM@BHT
TCS1.                         : TIME CIRCULATION STOPPED
TLOB1.                36 HOURS: TIME LOGGER ON BOTTOM
BHT1.DEGF                 FULL: MAXIMUM RECORDED TEMPERATURE
LUN1.                 12030699: EQUIPMENT NUMBER
LUL1.                   NORWAY: LOCATION
ENGI1.              C.JAMIESON: RECORDED BY
WITN1.                A.ALBAWI: WITNESSED BY
~Curve Information Block
DEPT.M             0 000 00 00: Depth
LSPD.M/MIN                   0: Line Speed
LTEN.LB                      0: Surface Line Tension
MINMK.                       0: Minute Mark Ticks
HVOLTA.V                     0: Head Voltage Apparent
CCL.                         0: Casing Collar Locator
~Parameter Information Block
SRFTEMP.DEGC           12.0000: Surface Temperature
MudWgt.LB/GAL           8.5600: Mud Weight
CASETHCK.IN             0.4530: Casing Thickness
BITSIZE.IN             12.2500: Borehole I.D.
~Other Information
TOOL STRING DEPLOYED BY ALTUS INTERVENTION WIRELINE UNIT ON 7/16" CABLE
CABLE HEAD BUILT BY ALTUS
LOG CORRELATED TO SHLUMBERGER 4.5" HSD OX POWER JET PULS DATED 09.APRIL.2014
CORRELATION LOG IS SHALLOWER BY 1.4M, DEPTH SHIFTED 1.4M DOWN AS PER
CLIENTS REQUEST.
4.655" HSC GUN 10 AND 350 DEGREE PHASING, 39 GR MILLENIUM, 4 SHOTS PER FOOT.
ATTEMPT WAS MADE TO RUN 4 GUNS IN ONE STRING BUT AT 3600M PICK UP WEIGHT 
WAS TOO HIGH TO CONTINUE.  CLIENT D4ECIDED TO SPLIT UP ONTO TWO RUNS.
RUN #1 CCL TO TOP SHOT 3.25 M, CCL STOP DEPT: 3729.75 M
PERFORATION INTERVAL 3733M - 3742.6M
RUN #2 CCL TO TOP SHOT 3.25 M, CCL STOP DEPT: 3711.75 M
PERFORATION INTERVAL 3715M - 3724.6M

~A  Depth       LSPD        LTEN       MINMK       HVOLTA       CCL     
# ...
  3667.9000      9.3939   6473.1685      0.0000      3.4653     -2.0153
  3667.8500      9.3939   6473.1685      0.0000      3.4653     -2.0610
  3667.8000      9.3939   6483.8760      0.0000      3.4653     -2.0052
  3667.7500      9.3574   6514.4819      0.0000      3.4554     -1.9997
  3667.7000      9.3574   6514.4819      0.0000      3.4554     -1.9750
  3667.6500      9.3574   6547.2461      0.0000      3.5561     -2.0153
  3667.6000      9.4275   6585.4873      0.0000      3.4447     -2.0165
  3667.5500      9.4275   6585.4873      0.0000      3.4447     -1.9973
  3667.5000      9.4275   6634.9375      0.0000      3.5263     -2.0000
  3667.4500      9.3391   6677.8296      0.0000      3.5370     -2.0116
  3667.4000      9.3391   6677.8296      0.0000      3.5370     -2.0104
  3667.3500      9.3391   6704.6182      0.0000      3.5461     -2.0064
  3667.3000      9.3574   6720.0957      0.0000      3.4958     -1.9957
  3667.2500      9.3574   6720.0957      0.0000      3.4958     -2.0284
  3667.2000      9.3574   6722.6489      0.0000      3.5561     -1.9692
  3667.1500      9.3756   6715.3398      0.0000      3.4950     -2.0156
  3667.1000      9.3756   6715.3398      0.0000      3.4950     -2.0314
  3667.0500      9.3756   6705.4185      0.0000      3.5263     -2.0742
  3667.0000      9.3391   6683.1396      0.0000      3.4554     -2.1907
  3666.9500      9.3391   6683.1396      0.0000      3.4554     -1.8062
  3666.9000      9.3391   6643.9116      0.0000      3.5561     -1.8080
  3666.8500      9.3391   6607.5918      0.0000      3.4851     -2.4169
  3666.8000      9.4275   6607.5918      0.0000      3.4851     -1.9838
  3666.7500      9.4275   6584.1064      0.0000      3.4958     -2.0311
  3666.7000      9.4275   6571.0732      0.0000      3.5263     -2.0204
  3666.6500      9.4275   6571.0732      0.0000      3.5263     -1.9692
  3666.6000      9.4275   6581.5244      0.0000      3.4958     -1.9036
  3666.5500      9.4275   6619.7769      0.0000      3.5156     -1.9738
  3666.5000      9.4275   6619.7769      0.0000      3.5156     -2.0497
  3666.4500      9.4275   6667.0132      0.0000      3.5561     -2.0159
  3666.4000      9.4275   6716.6558      0.0000      3.5255     -2.0143
  3666.3500      9.4092   6716.6558      0.0000      3.5255     -2.0021
  3666.3000      9.4092   6771.6240      0.0000      3.4859     -1.9924
  3666.2500      9.4092   6771.6240      0.0000      3.4859     -2.0092
  3666.2000      9.3391   6816.8735      0.0000      3.5057     -2.0293
  3666.1500      9.3391   6846.3911      0.0000      3.4447     -1.9872
  3666.1000      9.3391   6846.3911      0.0000      3.4447     -2.0067
  3666.0500      9.3391   6874.9854      0.0000      3.5660     -2.0021
  3666.0000      9.3391   6896.1318      0.0000      3.5164     -2.0430
  3665.9500      9.3391   6896.1318      0.0000      3.5164     -2.0772
  3665.9000      9.3025   6892.1631      0.0000      3.4859     -2.0525
  3665.8500      9.3025   6869.4321      0.0000      3.5057     -1.9857
  3665.8000      9.3025   6869.4321      0.0000      3.5057     -2.1117
  3665.7500      9.3208   6828.6392      0.0000      3.5156     -1.7699
  3665.7000      9.3208   6757.8174      0.0000      3.4859     -2.0085
  3665.6500      9.3208   6757.8174      0.0000      3.4859     -1.6558
  3665.6000      9.3208   6678.3374      0.0000      3.5065     -1.9619
  3665.5500      9.3939   6625.8584      0.0000      3.5065     -1.9902
  3665.5000      9.3939   6625.8584      0.0000      3.5065     -2.0446
  3665.4500      9.3939   6599.4443      0.0000      3.5263     -2.1300
  3665.4000      9.3939   6590.6851      0.0000      3.4546     -2.0220
  3665.3500      9.3939   6590.6851      0.0000      3.4546     -1.9979
  3665.3000      9.3939   6610.6929      0.0000      3.5057     -1.9512
  3665.2500      9.4275   6653.8809      0.0000      3.4554     -2.0238
  3665.2000      9.4275   6653.8809      0.0000      3.4554     -2.0192
  3665.1500      9.4275   6701.7656      0.0000      3.5469     -1.9905
  3665.1000      9.4640   6753.5615      0.0000      3.5057     -2.0085
  3665.0500      9.4640   6753.5615      0.0000      3.5057     -1.9786
  3665.0000      9.4640   6807.7622      0.0000      3.4142     -2.0177
  3664.9500      9.3756   6854.3779      0.0000      3.4653     -2.0290
  3664.9000      9.3756   6854.3779      0.0000      3.4653     -2.0162
  3664.8500      9.3756   6897.8999      0.0000      3.4859     -2.0006
  3664.8000      9.3574   6945.9507      0.0000      3.4958     -2.0037
  3664.7500      9.3574   6945.9507      0.0000      3.4958     -2.0204
  3664.7000      9.3574   6992.3462      0.0000      3.4851     -2.0024
  3664.6500      9.3574   6992.3462      0.0000      3.4851     -2.0186
  3664.6000      9.3574   7037.2046      0.0000      3.5156     -2.0168
  3664.5500      9.3574   7085.3599      0.0000      3.5362     -2.0040
  3664.5000      9.2690   7085.3599      0.0000      3.5362     -2.0168
  3664.4500      9.2690   7125.7563      0.0000      3.5049     -2.0171
  3664.4000      9.2690   7150.2153      0.0000      3.4752     -2.0800
  3664.3500      9.2690   7150.2153      0.0000      3.4752     -1.9887
  3664.3000      9.3025   7159.2754      0.0000      3.5255     -2.0818
  3664.2500      9.3025   7135.7700      0.0000      3.5156     -1.9396
  3664.2000      9.3025   7135.7700      0.0000      3.5156     -2.0391
  3664.1500      9.3025   7067.0278      0.0000      3.4454     -2.0684
  3664.1000      9.3025   6975.4478      0.0000      3.4958     -1.9796
  3664.0500      9.3025   6975.4478      0.0000      3.4958     -2.3308
  3664.0000      9.3208   6882.4614      0.0000      3.5370     -2.2325
  3663.9500      9.3208   6789.3057      0.0000      3.5057     -1.8657
  3663.9000      9.3208   6789.3057      0.0000      3.5057     -1.9490
  3663.8500      9.4458   6710.1108      0.0000      3.5255     -2.2255
  3663.8000      9.4458   6662.3218      0.0000      3.4859     -1.7336
  3663.7500      9.4458   6662.3218      0.0000      3.4859     -1.9557
  3663.7000      9.4275   6642.1274      0.0000      3.4760     -1.9982
  3663.6500      9.4275   6650.7588      0.0000      3.5263     -1.9893
  3663.6000      9.4275   6650.7588      0.0000      3.5263     -1.9918
  3663.5500      9.4458   6690.4707      0.0000      3.5461     -2.0110
  3663.5000      9.4458   6732.2705      0.0000      3.5255     -2.0082
  3663.4500      9.4458   6732.2705      0.0000      3.5255     -2.0143
  3663.4000      9.4092   6749.7744      0.0000      3.4752     -2.0095
  3663.3500      9.4092   6756.6470      0.0000      3.4958     -2.0082
  3663.3000      9.4092   6756.6470      0.0000      3.4958     -2.0223
  3663.2500      9.3391   6770.7222      0.0000      3.4859     -2.0058
  3663.2000      9.3391   6786.3721      0.0000      3.5057     -2.0034
  3663.1500      9.3391   6786.3721      0.0000      3.5057     -2.0079
  3663.1000      9.3391   6800.0596      0.0000      3.5156     -2.0168
  3663.0500      9.3756   6800.0596      0.0000      3.5156     -2.0085
  3663.0000      9.3756   6815.8428      0.0000      3.4752     -1.8535
  3662.9500      9.3756   6831.1367      0.0000      3.5568     -2.0565
  3662.9000      9.3574   6831.1367      0.0000      3.5568     -1.9460
  3662.8500      9.3574   6845.3813      0.0000      3.4653     -2.0525
  3662.8000      9.3574   6855.5640      0.0000      3.5156     -2.0085
  3662.7500      9.3391   6855.5640      0.0000      3.5156     -1.7775
  3662.7000      9.3391   6847.9170      0.0000      3.5461     -1.6973
  3662.6500      9.3391   6820.7437      0.0000      3.4859     -1.2337
  3662.6000      9.4092   6820.7437      0.0000      3.4859     -1.0085
  3662.5500      9.4092   6788.2119      0.0000      3.4859     -1.2844
  3662.5000      9.4092   6758.2627      0.0000      3.5156     -2.2798
  3662.4500      9.3574   6758.2627      0.0000      3.5156     -2.1920
  3662.4000      9.3574   6741.3149      0.0000      3.4851     -2.3598
  3662.3500      9.3574   6755.8032      0.0000      3.4958     -1.6796
