~Version Information
VERS.                      2.0: CWLS Log ASCII Standard - VERSION 2.0
WRAP.                       NO: One line per depth step
~Well Information Block
STRT.M               3169.9500: START DEPTH
STOP.M               3076.7000: STOP DEPTH
STEP.M                 -0.0500: STEP
NULL.                -999.2500: NULL VALUE
COMP.                  Statoil: COMPANY
WELL.                15/9-F-12: WELL
FLD.                     Volve: FIELD
LOC.                          : LOCATION
SRVC.          Halliburton Logging Services: SERVICE COMPANY
DATE.          Wed Nov 26 07-57-02 2014: LOG DATE
UWI.                          : UNIQUE WELL ID
SECT.                         : SECTION
TOWN.                         : TOWNSHIP
RANG.                         : RANGE
API.                          : API#
OS.                           : OTHER SERVICES
PDAT.FT                       : PERMANENT DATUM
EEL.FT                        : ELEVATION
LMF.FT                        : LOG MEASURED FROM
DMF.FT                        : DRILLING MEASURED FROM
EKB.FT                        : KB
EDF.FT                        : DF
EGL.FT                        : GL
DATE1.                        : DATE1
RUN1.                         : RUN NUMBER
TDD1.FT                       : DEPTH DRILLER
TDL1.FT                       : DEPTH LOGGER
BLI1.FT                       : BOTTOM LOGGED INTERVAL
TLI1.FT                       : TOP LOG INTERVAL
CDD1.IN_FT                    : CASING DRILLER
CDL1.FT                       : CASING LOGGER
BS1.IN                        : BIT SIZE
DFT1.                         : TYPE FLUID IN HOLE
DFDV1.GM/C3_CP                : DENSITY/VISCOSITY
DFPL1.C3                      : PH/FLUID LOSS
MSS1.                         : SOURCE OF SAMPLE
RMT1.OHHM_DEGF                : RM@MEASURED TEMP
RMFT1.OHMM_DEGF                : RMF@MEASURED TEMP
RMCT1.OHMM_DEGF                : RMC@MEASURED TEMP
RMFS1.                        : SOURCE OF RMF/RMC
RMBT1.OHMM_DEGF                : RM@BHT
TCS1.                         : TIME CIRCULATION STOPPED
TLOB1.                        : TIME LOGGER ON BOTTOM
BHT1.DEGF                     : MAXIMUM RECORDED TEMPERATURE
LUN1.                         : EQUIPMENT NUMBER
LUL1.                         : LOCATION
ENGI1.                        : RECORDED BY
WITN1.                        : WITNESSED BY
~Curve Information Block
DEPT.M             0 000 00 00: Depth
LSPD.M/MIN                   0: Line Speed
LTEN.LB                      0: Surface Line Tension
MINMK.                       0: Minute Mark Ticks
GR.GAPI                      0: Gamma Ray
CCL.                         0: Casing Collar Locator
ACCX.                        0: X Axis Accelerometer
ACCY.                        0: Y Axis Accelerometer
ACCZ.                        0: Z Axis Accelerometer
RB.DEG                       0: Relative Bearing
DEVI.DEG                     0: Deviation
TOTG.GEE                     0: Total G
RBRef.DEG                    0: RB Reference
IntTemp.DEGF                 0: Internal Electronics Temperature
~Parameter Information Block
~A  Depth       LSPD        LTEN       MINMK         GR         CCL         ACCX        ACCY        ACCZ         RB         DEVI        TOTG       RBRef      IntTemp   
  3169.9500   -999.2500   -999.2500   -999.2500   -999.2500   -999.2500  -2512.8000  -1605.8000   2163.2000    212.5805      0.0244   3684.0457    147.4195    225.1470
  3169.9000      0.1067   3551.2097      0.0000     51.3787   -999.2500  -2497.5000  -1616.1000   2179.2000    212.9064      0.0244   3687.5735    147.0936    225.1470
  3169.8500      0.9083   3657.3567      0.0000     47.3060   -999.2500  -2476.7000  -1642.3000   2139.8999    213.5484      0.0246   3662.0164    146.4516    225.1449
  3169.8000      1.7496   3666.2866      0.0000     42.7947   -999.2500  -2458.5000  -1625.3000   2120.3999    213.4685      0.0248   3630.6912    146.5315    225.1428
  3169.7500      2.8926   3668.0166      0.0000     40.0378   -999.2500  -2446.6001  -1624.3000   2146.2000    213.5802      0.0247   3637.3584    146.4198    225.1407
  3169.7000      2.8926   3720.5205      0.0000     42.1681   -999.2500  -2438.1001  -1630.3000   2172.1001    213.7697      0.0247   3649.6890    146.2303    225.1400
  3169.6500      3.9289   3911.9036      0.0000     47.2433   -999.2500  -2451.0000  -1636.9000   2210.8999    213.7370      0.0244   3684.4160    146.2630    225.1400
  3169.6000      3.9289   3982.2373      0.0000     47.7446   -999.2500  -2447.2000  -1624.6000   2185.1001    213.5786      0.0246   3660.9800    146.4214    225.1379
  3169.5500      4.5690   3949.6904      0.0000     48.3085   -999.2500  -2442.7000  -1639.1000   2175.1001    213.8624      0.0246   3658.4822    146.1376    225.1302
  3169.5000      4.5690   3929.9343      0.0000     46.8674   -999.2500  -2434.8000  -1645.2000   2200.7000    214.0470      0.0245   3671.2415    145.9530    225.1154
  3169.4500      5.3218   4008.8364      0.0000     48.4338    367.0000  -2438.1001  -1638.5000   2191.8000    213.9027      0.0246   3665.1060    146.0973    225.1048
  3169.4000      5.3218   4090.7080      0.0000     51.6920    363.0000  -2436.3000  -1632.4000   2200.1001    213.8234      0.0245   3666.1599    146.1766    225.0943
  3169.3500      5.9284   4112.0693      0.0000     55.0128    365.0000  -2432.2000  -1619.8000   2161.0000    213.6629      0.0248   3634.4558    146.3371    225.0943
  3169.3000      5.9284   4089.1050      0.0000     59.3988    361.0000  -2441.6001  -1609.1000   2178.3999    213.3863      0.0247   3646.3735    146.6137    225.1133
  3169.2500      5.9284   4096.1724      0.0000     59.2735    364.0000  -2441.7000  -1604.2000   2209.7000    213.3050      0.0246   3663.0767    146.6950    225.1316
  3169.2000      6.5898   4149.2065      0.0000     55.0128    365.0000  -2433.7000  -1615.6000   2200.1001    213.5780      0.0246   3656.9795    146.4220    225.1526
  3169.1500      6.5898   4234.0615      0.0000     48.6845    365.0000  -2438.0000  -1615.1000   2197.3999    213.5233      0.0246   3657.9993    146.4767    225.1801
  3169.1000      6.9830   4266.2881      0.0000     45.4263    366.0000  -2447.2000  -1627.3000   2205.2000    213.6225      0.0245   3674.2073    146.3775    225.1829
  3169.0500      6.9830   4251.8105      0.0000     43.9225    365.0000  -2455.2000  -1625.7000   2221.5000    213.5104      0.0244   3688.6270    146.4896    225.1752
  3169.0000      6.9830   4234.9180      0.0000     44.2985    362.0000  -2452.0000  -1596.0000   2210.2000    213.0600      0.0245   3666.6748    146.9400    225.1590
  3168.9500      7.1963   4301.0176      0.0000     46.5541    366.0000  -2456.6001  -1575.3000   2186.0000    212.6701      0.0247   3646.2378    147.3299    225.1337
  3168.9000      7.1963   4384.4189      0.0000     47.1807    364.0000  -2470.2000  -1582.2000   2199.7000    212.6402      0.0245   3666.5957    147.3598    225.1154
  3168.8500      7.1963   4411.2778      0.0000     46.4288    369.0000  -2466.0000  -1576.5000   2206.3000    212.5906      0.0246   3665.2788    147.4094    225.1069
  3168.8000      7.1963   4384.4707      0.0000     46.9927    370.0000  -2467.8000  -1580.5000   2184.6001    212.6375      0.0246   3655.2012    147.3625    225.1013
  3168.7500      7.3030   4371.0996      0.0000     45.8649    367.0000  -2459.5000  -1578.4000   2122.2000    212.6906      0.0249   3611.6782    147.3094    225.1112
  3168.7000      7.3030   4424.7671      0.0000     45.7396    367.0000  -2461.1001  -1601.3000   2128.7000    213.0498      0.0248   3626.6428    146.9502    225.1196
  3168.6500      7.3030   4515.2261      0.0000     49.1857    375.0000  -2458.8999  -1601.5000   2130.8000    213.0765      0.0248   3626.4722    146.9235    225.1273
  3168.6000      7.2847   4554.7817      0.0000     53.1331    366.0000  -2455.5000  -1595.3000   2120.6001    213.0112      0.0249   3615.4402    146.9888    225.1358
  3168.5500      7.2847   4549.8242      0.0000     54.9501    366.0000  -2456.8999  -1589.7000   2129.8000    212.9043      0.0249   3619.3303    147.0957    225.1393
  3168.5000      7.2847   4559.5796      0.0000     56.3286    366.0000  -2443.8999  -1577.5000   2143.8999    212.8416      0.0249   3613.5107    147.1584    225.1337
  3168.4500      7.6413   4597.4619      0.0000     55.9527    367.0000  -2449.2000  -1590.1000   2187.7000    212.9929      0.0247   3648.7024    147.0071    225.1273
  3168.4000      7.6413   4673.9443      0.0000     52.5065    365.0000  -2453.7000  -1587.2000   2208.2000    212.8972      0.0246   3662.7849    147.1028    225.1161
  3168.3500      8.0162   4688.1821      0.0000     49.9376    369.0000  -2458.7000  -1577.2000   2200.2000    212.6792      0.0246   3656.9995    147.3208    225.1105
  3168.3000      8.0162   4677.0781      0.0000     48.1205    363.0000  -2454.2000  -1590.6000   2225.8999    212.9478      0.0245   3675.2871    147.0522    225.1034
  3168.2500      8.0162   4677.6079      0.0000     45.8022    366.0000  -2458.6001  -1576.0000   2221.8999    212.6605      0.0245   3669.5134    147.3395    225.1091
  3168.2000      8.2845   4723.6006      0.0000     44.6744    368.0000  -2468.6001  -1585.0000   2250.2000    212.7031      0.0243   3697.2437    147.2969    225.1126
  3168.1500      8.2845   4813.0415      0.0000     43.7346    365.0000  -2460.3999  -1569.6000   2226.7000    212.5356      0.0245   3670.8860    147.4644    225.1119
  3168.1000      8.2845   4842.2876      0.0000     43.4213    366.0000  -2467.2000  -1598.5000   2221.2000    212.9392      0.0244   3684.5632    147.0608    225.1077
  3168.0500      8.6076   4811.1899      0.0000     42.6067    367.0000  -2463.5000  -1594.1000   2184.6001    212.9064      0.0246   3658.2051    147.0936    225.0880
  3168.0000      8.6076   4792.7983      0.0000     42.8574    369.0000  -2481.2000  -1573.0000   2141.7000    212.3734      0.0248   3635.5964    147.6266    225.0669
  3167.9500      8.6076   4820.6392      0.0000     43.6719    367.0000  -2476.7000  -1591.9000   2104.6001    212.7309      0.0249   3619.0510    147.2691    225.0395
  3167.9000      8.6076   4899.2793      0.0000     44.3611    367.0000  -2466.5000  -1590.4000   2070.1001    212.8139      0.0251   3591.4216    147.1861    225.0289
  3167.8500      8.6076   4891.8408      0.0000     44.9250    373.0000  -2459.1001  -1596.5000   2078.6001    212.9925      0.0250   3593.9622    147.0075    225.0352
  3167.8000      8.6076   4840.9854      0.0000     45.4889    366.0000  -2467.5000  -1583.7000   2090.2000    212.6933      0.0250   3600.7773    147.3067    225.0528
  3167.7500      8.6411   4800.6924      0.0000     45.1757    367.0000  -2468.8999  -1588.2000   2119.1001    212.7525      0.0249   3620.5566    147.2475    225.0718
  3167.7000      8.6411   4822.8091      0.0000     46.1782    365.0000  -2457.2000  -1591.8000   2172.3000    212.9356      0.0247   3645.6201    147.0644    225.1027
  3167.6500      8.6411   4865.7671      0.0000     47.1180    378.0000  -2457.3999  -1586.9000   2198.7000    212.8529      0.0246   3659.4189    147.1471    225.1175
  3167.6000      8.6411   4857.8960      0.0000     48.5591    411.0000  -2457.1001  -1590.7000   2206.8000    212.9186      0.0246   3665.7378    147.0814    225.1217
