~Version Information
VERS.                      2.0: CWLS Log ASCII Standard - VERSION 2.0
WRAP.                       NO: One line per depth step
~Well Information Block
STRT.M               3169.8000: START DEPTH
STOP.M               3077.9500: STOP DEPTH
STEP.M                 -0.0500: STEP
NULL.                -999.2500: NULL VALUE
COMP.                  Statoil: COMPANY
WELL.                15/9-F-12: WELL
FLD.                     Volve: FIELD
LOC.                          : LOCATION
SRVC.          Halliburton Logging Services: SERVICE COMPANY
DATE.          Wed Nov 26 07-41-16 2014: LOG DATE
UWI.                          : UNIQUE WELL ID
SECT.                         : SECTION
TOWN.                         : TOWNSHIP
RANG.                         : RANGE
API.                          : API#
OS.                           : OTHER SERVICES
PDAT.FT                       : PERMANENT DATUM
EEL.FT                        : ELEVATION
LMF.FT                        : LOG MEASURED FROM
DMF.FT                        : DRILLING MEASURED FROM
EKB.FT                        : KB
EDF.FT                        : DF
EGL.FT                        : GL
DATE1.                        : DATE1
RUN1.                         : RUN NUMBER
TDD1.FT                       : DEPTH DRILLER
TDL1.FT                       : DEPTH LOGGER
BLI1.FT                       : BOTTOM LOGGED INTERVAL
TLI1.FT                       : TOP LOG INTERVAL
CDD1.IN_FT                    : CASING DRILLER
CDL1.FT                       : CASING LOGGER
BS1.IN                        : BIT SIZE
DFT1.                         : TYPE FLUID IN HOLE
DFDV1.GM/C3_CP                : DENSITY/VISCOSITY
DFPL1.C3                      : PH/FLUID LOSS
MSS1.                         : SOURCE OF SAMPLE
RMT1.OHHM_DEGF                : RM@MEASURED TEMP
RMFT1.OHMM_DEGF                : RMF@MEASURED TEMP
RMCT1.OHMM_DEGF                : RMC@MEASURED TEMP
RMFS1.                        : SOURCE OF RMF/RMC
RMBT1.OHMM_DEGF                : RM@BHT
TCS1.                         : TIME CIRCULATION STOPPED
TLOB1.                        : TIME LOGGER ON BOTTOM
BHT1.DEGF                     : MAXIMUM RECORDED TEMPERATURE
LUN1.                         : EQUIPMENT NUMBER
LUL1.                         : LOCATION
ENGI1.                        : RECORDED BY
WITN1.                        : WITNESSED BY
~Curve Information Block
DEPT.M             0 000 00 00: Depth
LSPD.M/MIN                   0: Line Speed
LTEN.LB                      0: Surface Line Tension
MINMK.                       0: Minute Mark Ticks
GR.GAPI                      0: Gamma Ray
CCL.                         0: Casing Collar Locator
ACCX.                        0: X Axis Accelerometer
ACCY.                        0: Y Axis Accelerometer
ACCZ.                        0: Z Axis Accelerometer
RB.DEG                       0: Relative Bearing
DEVI.DEG                     0: Deviation
TOTG.GEE                     0: Total G
RBRef.DEG                    0: RB Reference
IntTemp.DEGF                 0: Internal Electronics Temperature
~Parameter Information Block
~A  Depth       LSPD        LTEN       MINMK         GR         CCL         ACCX        ACCY        ACCZ         RB         DEVI        TOTG       RBRef      IntTemp   
# ...
  3112.2000      9.6774   4590.6450      0.0000     30.5139    361.0000   2469.5000   1643.1000   2222.3000     33.6381      0.0243   3706.3223    -33.6381    224.9009
  3112.1500      9.6774   4590.9209      0.0000     31.5164    366.0000   2436.6001   1634.7000   2162.7000     33.8574      0.0247   3645.0701    -33.8574    224.9136
  3112.1000      9.6591   4546.7368      0.0000     30.7646    363.0000   2416.8999   1634.5000   2148.3999     34.0697      0.0248   3623.3435    -34.0697    224.9199
  3112.0500      9.6591   4527.5928      0.0000     28.3836    384.0000   2396.7000   1636.9000   2118.8000     34.3323      0.0250   3593.4561    -34.3323    224.9199
  3112.0000      9.6591   4592.6807      0.0000     27.0051    366.0000   2387.5000   1646.9000   2051.8000     34.5980      0.0253   3552.7903    -34.5980    224.9073
  3111.9500      9.6256   4635.7148      0.0000     26.1906    371.0000   2391.7000   1698.8000   2069.8000     35.3858      0.0251   3590.2957    -35.3858    224.8967
  3111.9000      9.6256   4666.0601      0.0000     25.5014    369.0000   2368.8000   1685.7000   2077.6001     35.4366      0.0252   3573.4045    -35.4366    224.8946
  3111.8500      9.6256   4649.7007      0.0000     25.1254    350.0000   2382.6001   1711.7000   2109.3999     35.6941      0.0249   3613.3457    -35.6941    224.8974
  3111.8000      9.6439   4616.4727      0.0000     25.5014    358.0000   2373.3000   1719.1000   2110.1001     35.9177      0.0249   3611.1467    -35.9177    224.9016
  3111.7500      9.6439   4628.1938      0.0000     24.9375    366.0000   2379.3000   1705.8000   2125.3000     35.6380      0.0249   3617.6958    -35.6380    224.9150
  3111.7000      9.6439   4648.2114      0.0000     24.7495    365.0000   2357.0000   1727.3000   2144.8000     36.2354      0.0248   3624.8010    -36.2354    224.9298
  3111.6500      9.6439   4660.4453      0.0000     25.0628    373.0000   2356.3000   1714.7000   2182.6001     36.0437      0.0247   3640.8914    -36.0437    224.9403
  3111.6000      9.6439   4612.8374      0.0000     27.5315    360.0000   2361.8999   1699.9000   2187.6001     35.7432      0.0247   3640.5803    -35.7432    224.9509
  3111.5500      9.6439   4579.5845      0.0000     29.8247    363.0000   2364.6001   1710.0000   2190.8000     35.8732      0.0247   3648.9778    -35.8732    224.9530
  3111.5000      9.6439   4598.1294      0.0000     32.7696    367.0000   2348.8000   1712.3000   2199.3999     36.0924      0.0247   3645.0229    -36.0924    224.9438
  3111.4500      9.6957   4633.5615      0.0000     36.5917    365.0000   2340.6001   1716.0000   2195.5000     36.2468      0.0247   3639.1326    -36.2468    224.9333
  3111.4000      9.6957   4609.5356      0.0000     37.9701    358.0000   2330.3000   1756.9000   2239.7000     37.0140      0.0245   3678.7568    -37.0140    224.9227
  3111.3500      9.6957   4502.7090      0.0000     36.4663    371.0000   2355.0000   1784.6000   2214.3999     37.1546      0.0244   3692.4773    -37.1546    224.9122
  3111.3000      9.7841   4495.4980      0.0000     35.9651    362.0000   2357.2000   1819.6000   2158.7000     37.6657      0.0245   3677.9507    -37.6657    224.9178
  3111.2500      9.7841   4512.5645      0.0000     35.6518    384.0000   2375.3000   1794.4000   2131.3000     37.0689      0.0246   3661.1968    -37.0689    224.9375
  3111.2000      9.7841   4547.4351      0.0000     34.5240    371.0000   2392.8999   1791.4000   2129.7000     36.8197      0.0245   3670.2461    -36.8197    224.9523
  3111.1500      9.7841   4544.5469      0.0000     32.8322    360.0000   2412.6001   1778.8000   2140.8000     36.4012      0.0244   3683.4487    -36.4012    224.9663
  3111.1000      9.8389   4487.1973      0.0000     32.7195    359.0000   2427.0000   1734.4000   2126.1001     35.5506      0.0246   3663.1646    -35.5506    224.9713
  3111.0500      9.8389   4475.3921      0.0000     33.4588    382.0000   2400.8999   1660.3000   2146.2000     34.6651      0.0248   3623.1328    -34.6651    224.9501
  3111.0000      9.8389   4512.4487      0.0000     32.2683    371.0000   2397.7000   1634.7000   2169.1001     34.2853      0.0248   3623.0105    -34.2853    224.9256
  3110.9500      9.8755   4586.7632      0.0000     29.8874    373.0000   2361.6001   1630.3000   2182.3000     34.6188      0.0250   3605.2000    -34.6188    224.9023
  3110.9000      9.8755   4643.1030      0.0000     27.9450    357.0000   2363.5000   1661.5000   2217.6001     35.1066      0.0247   3642.0413    -35.1066    224.8798
  3110.8500      9.8755   4633.8120      0.0000     26.1906    357.0000   2364.2000   1659.3000   2219.5000     35.0629      0.0247   3642.6499    -35.0629    224.8777
  3110.8000      9.8207   4627.8330      0.0000     24.7495    379.0000   2344.2000   1667.8000   2169.7000     35.4303      0.0250   3603.3911    -35.4303    224.8918
  3110.7500      9.8207   4678.9570      0.0000     24.3736    356.0000   2335.8000   1686.6000   2154.0000     35.8317      0.0250   3597.2625    -35.8317    224.9185
  3110.7000      9.8207   4739.6206      0.0000     26.0653    371.0000   2318.3999   1710.9000   2170.2000     36.4261      0.0250   3607.2046    -36.4261    224.9424
  3110.6500      9.8024   4731.7344      0.0000     27.8823    384.0000   2314.8000   1744.0000   2164.3000     36.9948      0.0249   3617.1853    -36.9948    224.9593
  3110.6000      9.8024   4644.6030      0.0000     29.6367    361.0000   2320.1001   1747.9000   2138.5000     36.9934      0.0250   3607.1042    -36.9934    224.9727
  3110.5500      9.8024   4569.0313      0.0000     31.4538    368.0000   2292.1001   1786.5000   2103.1001     37.9334      0.0251   3587.2461    -37.9334    224.9860
  3110.5000      9.8024   4563.0386      0.0000     32.7696    364.0000   2306.3000   1804.6000   2099.8999     38.0420      0.0250   3603.4956    -38.0420    224.9895
  3110.4500      9.8024   4573.7280      0.0000     33.3335    365.0000   2308.3000   1821.7000   2110.3000     38.2803      0.0249   3619.4207    -38.2803    224.9818
  3110.4000      9.8024   4521.3896      0.0000     33.6468    367.0000   2316.7000   1828.4000   2111.1001     38.2814      0.0248   3628.6208    -38.2814    224.9642
  3110.3500      9.8024   4484.3638      0.0000     34.2107    366.0000   2330.3000   1816.1000   2123.0000     37.9308      0.0247   3638.0828    -37.9308    224.9523
  3110.3000      9.8024   4467.0347      0.0000     34.6493    371.0000   2323.8999   1806.4000   2125.5000     37.8584      0.0248   3630.6118    -37.8584    224.9354
  3110.2500      9.8024   4515.1489      0.0000     34.5240    367.0000   2318.8999   1801.3000   2148.8999     37.8397      0.0247   3638.6467    -37.8397    224.9249
  3110.2000      9.8024   4615.4458      0.0000     33.7094    364.0000   2317.8000   1804.4000   2196.8000     37.9006      0.0245   3667.9678    -37.9006    224.9389
  3110.1500      9.8207   4648.2910      0.0000     32.8322    371.0000   2331.0000   1818.9000   2196.2000     37.9652      0.0244   3683.1038    -37.9652    224.9537
  3110.1000      9.8207   4643.0537      0.0000     32.2057    365.0000   2312.5000   1831.7000   2192.0000     38.3823      0.0245   3675.2749    -38.3823    224.9670
  3110.0500      9.8207   4630.0425      0.0000     31.0152    371.0000   2321.0000   1819.9000   2192.0000     38.1001      0.0245   3674.7710    -38.1001    224.9825
  3110.0000      9.8207   4684.2754      0.0000     29.6994    379.0000   2300.8000   1764.5000   2180.3000     37.4849      0.0248   3627.7886    -37.4849    224.9895
  3109.9500      9.8207   4758.1240      0.0000     28.4463    343.0000   2289.0000   1750.1000   2153.6001     37.4004      0.0250   3597.2717    -37.4004    224.9811
  3109.9000      9.8207   4788.3975      0.0000     27.5064    366.0000   2266.8000   1722.2000   2153.0000     37.2257      0.0252   3569.2805    -37.2257    224.9727
  3109.8500      9.8207   4768.5254      0.0000     26.2533    364.0000   2255.3000   1675.8000   2142.6001     36.6142      0.0255   3533.4712    -36.6142    224.9593
