~Version Information
VERS.                      2.0: CWLS Log ASCII Standard - VERSION 2.0
WRAP.                       NO: One line per depth step
~Well Information Block
STRT.M               3779.4000: START DEPTH
STOP.M               3680.8000: STOP DEPTH
STEP.M                 -0.0500: STEP
NULL.                -999.2500: NULL VALUE
COMP.                  STATOIL: COMPANY
WELL.               15/9-F-1-C: WELL
FLD.                     VOLVE: FIELD
LOC.                          : LOCATION
SRVC.          Halliburton Logging Services: SERVICE COMPANY
DATE.          Thu Dec 04 05-18-20 2014: LOG DATE
UWI.                          : UNIQUE WELL ID
CTRY.                   NORWAY: COUNTRY
SECT.                         : SECTION
TOWN.                         : TOWNSHIP
RANG.                         : RANGE
API.                          : API#
OS.                   --NONE--: OTHER SERVICES
PDAT.FT                  M.S.L: PERMANENT DATUM
EEL.FT                   54.9M: ELEVATION
LMF.FT                   R.K.B: LOG MEASURED FROM
DMF.FT                   R.K.B: DRILLING MEASURED FROM
EKB.FT                   54.9M: KB
EDF.FT                   54.9M: DF
EGL.FT                    -91M: GL
DATE1.         03-DEC-14 @ 05:47: DATE1
RUN1.                    1 & 2: RUN NUMBER
TDD1.FT                  4094M: DEPTH DRILLER
TDL1.FT                  3782M: DEPTH LOGGER
BLI1.FT                  3772M: BOTTOM LOGGED INTERVAL
TLI1.FT                  3572M: TOP LOG INTERVAL
CDD1.IN_FT                    : CASING DRILLER
CDL1.FT                       : CASING LOGGER
BS1.IN                    8.5": BIT SIZE
DFT1.                SEA WATER: TYPE FLUID IN HOLE
DFDV1.GM/C3_CP          1.03SG: DENSITY/VISCOSITY
DFPL1.C3                      : PH/FLUID LOSS
MSS1.                         : SOURCE OF SAMPLE
RMT1.OHHM_DEGF                : RM@MEASURED TEMP
RMFT1.OHMM_DEGF                : RMF@MEASURED TEMP
RMCT1.OHMM_DEGF                : RMC@MEASURED TEMP
RMFS1.                        : SOURCE OF RMF/RMC
RMBT1.OHMM_DEGF                : RM@BHT
TCS1.                         : TIME CIRCULATION STOPPED
TLOB1.                36 HOURS: TIME LOGGER ON BOTTOM
BHT1.DEGF                 FULL: MAXIMUM RECORDED TEMPERATURE
LUN1.                 12030699: EQUIPMENT NUMBER
LUL1.                   NORWAY: LOCATION
ENGI1.              C.JAMIESON: RECORDED BY
WITN1.                A.ALBAWI: WITNESSED BY
~Curve Information Block
DEPT.M             0 000 00 00: Depth
LSPD.M/MIN                   0: Line Speed
LTEN.LB                      0: Surface Line Tension
MINMK.                       0: Minute Mark Ticks
HVOLTA.V                     0: Head Voltage Apparent
CCL.                         0: Casing Collar Locator
~Parameter Information Block
SRFTEMP.DEGC           10.0000: Surface Temperature
MudWgt.LB/GAL           8.5000: Mud Weight
CASETHCK.IN             0.4530: Casing Thickness
BITSIZE.IN              8.5000: Borehole I.D.
~Other Information
TOOL STRING DEPLOYED BY ALTUS INTERVENTION WIRELINE UNIT ON 7/16" CABLE
CABLE HEAD BUILT BY ALTUS
LOG CORRELATED TO SHLUMBERGER 4.5" HSD OX POWER JET PULS DATED 09.APRIL.2014
CORRELATION LOG IS SHALLOWER BY 1.4M, DEPTH SHIFTED 1.4M DOWN AS PER
CLIENTS REQUEST.
4.655" HSC GUN 10 AND 350 DEGREE PHASING, 39 GR MILLENIUM, 4 SHOTS PER FOOT.
ATTEMPT WAS MADE TO RUN 4 GUNS IN ONE STRING BUT AT 3600M PICK UP WEIGHT 
WAS TOO HIGH TO CONTINUE.  CLIENT D4ECIDED TO SPLIT UP ONTO TWO RUNS.
RUN #1 CCL TO TOP SHOT 3.25 M, CCL STOP DEPT: 3729.75 M
PERFORATION INTERVAL 3733M - 3742.6M
RUN #2 CCL TO TOP SHOT 3.25 M, CCL STOP DEPT: 3711.75 M
PERFORATION INTERVAL 3715M - 3724.6M

~A  Depth       LSPD        LTEN       MINMK       HVOLTA       CCL     
# ...
  3740.2000      9.4640   6723.6182      0.0000      3.4851     -0.0122
  3740.1500      9.4092   6765.0957      0.0000      3.4851     -0.0122
  3740.1000      9.4092   6765.0957      0.0000      3.4851     -0.0122
  3740.0500      9.4092   6796.4927      0.0000      3.4851     -0.0070
  3740.0000      9.4092   6799.2656      0.0000      3.4546     -0.0104
  3739.9500      9.4092   6799.2656      0.0000      3.4546      0.0302
  3739.9000      9.4092   6781.0518      0.0000      3.4447     -0.0934
  3739.8500      9.3574   6748.7993      0.0000      3.5156     -0.1874
  3739.8000      9.3574   6748.7993      0.0000      3.5156      0.0281
  3739.7500      9.3574   6701.4888      0.0000      3.4950     -0.3793
  3739.7000      9.3939   6658.4077      0.0000      3.4851     -0.0525
  3739.6500      9.3939   6658.4077      0.0000      3.4851      0.1868
  3739.6000      9.3939   6642.3164      0.0000      3.5660      0.1688
  3739.5500      9.4458   6651.8218      0.0000      3.4851     -0.0299
  3739.5000      9.4458   6651.8218      0.0000      3.4851      0.0430
  3739.4500      9.4458   6680.4194      0.0000      3.4851     -0.0037
  3739.4000      9.4458   6722.4277      0.0000      3.4546      0.0027
  3739.3500      9.4640   6722.4277      0.0000      3.4546     -0.0089
  3739.3000      9.4640   6760.7954      0.0000      3.4447     -0.0052
  3739.2500      9.4640   6760.7954      0.0000      3.4447     -0.0153
  3739.2000      9.4823   6790.4028      0.0000      3.4950     -0.0140
  3739.1500      9.4823   6825.6465      0.0000      3.5255     -0.0076
  3739.1000      9.4823   6825.6465      0.0000      3.5255     -0.0073
  3739.0500      9.4458   6865.5688      0.0000      3.4851     -0.0128
  3739.0000      9.4458   6900.3120      0.0000      3.4447     -0.0046
  3738.9500      9.4458   6900.3120      0.0000      3.4447     -0.0189
  3738.9000      9.4092   6938.3477      0.0000      3.4546      0.0012
  3738.8500      9.4092   6980.1143      0.0000      3.4851     -0.0089
  3738.8000      9.4092   6980.1143      0.0000      3.4851      0.0180
  3738.7500      9.3939   7006.6924      0.0000      3.4851      0.0198
  3738.7000      9.3939   7012.4829      0.0000      3.4752     -0.0204
  3738.6500      9.3939   7012.4829      0.0000      3.4752     -0.3214
  3738.6000      9.3574   7001.5483      0.0000      3.4950      0.2814
  3738.5500      9.3574   6968.1201      0.0000      3.4950      0.5093
  3738.5000      9.3574   6968.1201      0.0000      3.4950     -0.6473
  3738.4500      9.3939   6914.7397      0.0000      3.5156      0.1410
  3738.4000      9.3939   6856.0503      0.0000      3.4851     -0.6766
  3738.3500      9.3939   6856.0503      0.0000      3.4851     -0.0458
  3738.3000      9.3939   6795.1602      0.0000      3.4950     -0.3119
  3738.2500      9.4458   6739.7285      0.0000      3.5255      0.1242
  3738.2000      9.4458   6739.7285      0.0000      3.5255      0.2182
  3738.1500      9.4458   6717.0146      0.0000      3.4851      0.0043
  3738.1000      9.4823   6732.7139      0.0000      3.4851      0.0131
  3738.0500      9.4823   6732.7139      0.0000      3.4851     -0.0278
  3738.0000      9.4823   6766.4619      0.0000      3.4950     -0.0079
  3737.9500      9.5006   6810.6187      0.0000      3.4851     -0.0049
  3737.9000      9.5006   6810.6187      0.0000      3.4851     -0.0143
  3737.8500      9.5006   6860.0752      0.0000      3.5156     -0.0137
  3737.8000      9.4823   6898.7900      0.0000      3.4546     -0.0046
  3737.7500      9.4823   6898.7900      0.0000      3.4546     -0.0031
  3737.7000      9.4823   6925.1240      0.0000      3.4851     -0.0156
  3737.6500      9.4458   6925.1240      0.0000      3.4851     -0.0107
  3737.6000      9.4458   6946.5278      0.0000      3.4851     -0.0024
  3737.5500      9.4458   6958.8296      0.0000      3.4546      0.0031
  3737.5000      9.4458   6958.8296      0.0000      3.4546     -0.0089
  3737.4500      9.3939   6967.1426      0.0000      3.4546      0.0021
  3737.4000      9.3939   6981.7681      0.0000      3.4950     -0.0281
  3737.3500      9.3939   6981.7681      0.0000      3.4950     -0.0024
  3737.3000      9.3756   6982.4438      0.0000      3.4851     -0.0507
  3737.2500      9.3756   6950.8198      0.0000      3.4851      0.0226
  3737.2000      9.3756   6950.8198      0.0000      3.4851      0.0797
  3737.1500      9.3939   6910.8481      0.0000      3.5049     -0.4465
  3737.1000      9.3939   6881.0142      0.0000      3.4447     -0.9772
  3737.0500      9.3939   6881.0142      0.0000      3.4447     -0.5695
  3737.0000      9.4092   6842.8599      0.0000      3.4851      0.2026
  3736.9500      9.4092   6788.3521      0.0000      3.4851     -0.2490
  3736.9000      9.4092   6788.3521      0.0000      3.4851     -0.3311
  3736.8500      9.4458   6731.9595      0.0000      3.4645      0.0204
  3736.8000      9.4458   6675.6948      0.0000      3.4950     -0.1947
  3736.7500      9.4458   6675.6948      0.0000      3.4950     -0.0473
  3736.7000      9.4823   6622.2856      0.0000      3.4851      0.1685
  3736.6500      9.4823   6589.5415      0.0000      3.4950     -0.1526
  3736.6000      9.4823   6589.5415      0.0000      3.4950     -0.6195
  3736.5500      9.4823   6579.2231      0.0000      3.4950     -0.1614
  3736.5000      9.4823   6577.4692      0.0000      3.4950     -0.0262
  3736.4500      9.4823   6577.4692      0.0000      3.4950     -0.2316
  3736.4000      9.4823   6581.2310      0.0000      3.4752      0.1172
  3736.3500      9.4640   6594.8916      0.0000      3.4950     -0.0229
  3736.3000      9.4640   6594.8916      0.0000      3.4950      0.0201
  3736.2500      9.4640   6623.5620      0.0000      3.5255     -0.0125
  3736.2000      9.4275   6673.1533      0.0000      3.4851     -0.0089
  3736.1500      9.4275   6673.1533      0.0000      3.4851     -0.0165
  3736.1000      9.4275   6735.8247      0.0000      3.4546     -0.0134
  3736.0500      9.3939   6735.8247      0.0000      3.4546     -0.0049
  3736.0000      9.3939   6793.1631      0.0000      3.4950     -0.0061
  3735.9500      9.3939   6843.2012      0.0000      3.4851     -0.0143
  3735.9000      9.3756   6843.2012      0.0000      3.4851     -0.0070
  3735.8500      9.3756   6890.7227      0.0000      3.5156     -0.0131
  3735.8000      9.3756   6928.3281      0.0000      3.4950     -0.0095
  3735.7500      9.4092   6928.3281      0.0000      3.4950     -0.0082
  3735.7000      9.4092   6958.8628      0.0000      3.4546     -0.0140
  3735.6500      9.4092   6992.9751      0.0000      3.5156     -0.0052
  3735.6000      9.4092   6992.9751      0.0000      3.5156     -0.0134
  3735.5500      9.4092   7021.3687      0.0000      3.4851     -0.0073
  3735.5000      9.4092   7037.0859      0.0000      3.4851     -0.0055
  3735.4500      9.4640   7037.0859      0.0000      3.4851     -0.0089
  3735.4000      9.4640   7053.9663      0.0000      3.4950     -0.0101
  3735.3500      9.4640   7070.9819      0.0000      3.4546     -0.0046
  3735.3000      9.4092   7070.9819      0.0000      3.4546     -0.0073
  3735.2500      9.4092   7067.7393      0.0000      3.4546      0.0058
  3735.2000      9.4092   7038.5874      0.0000      3.5255     -0.0012
  3735.1500      9.4092   7038.5874      0.0000      3.5255     -0.6284
  3735.1000      9.4092   6980.7837      0.0000      3.4950     -0.4443
  3735.0500      9.4092   6883.5190      0.0000      3.5255      0.2753
  3735.0000      9.4092   6883.5190      0.0000      3.5255     -1.0022
  3734.9500      9.4092   6761.6050      0.0000      3.4546      0.3250
  3734.9000      9.4092   6646.0781      0.0000      3.4950     -1.2646
  3734.8500      9.4092   6646.0781      0.0000      3.4950     -0.5145
  3734.8000      9.4275   6545.5806      0.0000      3.4752     -0.8829
  3734.7500      9.4275   6464.0547      0.0000      3.4851      0.5463
  3734.7000      9.4275   6464.0547      0.0000      3.4851     -0.3299
  3734.6500      9.4823   6422.6221      0.0000      3.4851     -0.2518
