~Version Information
VERS.                      2.0: CWLS Log ASCII Standard - VERSION 2.0
WRAP.                       NO: One line per depth step
~Well Information Block
STRT.M               3135.0500: START DEPTH
STOP.M               3039.9000: STOP DEPTH
STEP.M                 -0.0500: STEP
NULL.                -999.2500: NULL VALUE
COMP.                  Statoil: COMPANY
WELL.                15/9-F-12: WELL
FLD.                     Volve: FIELD
LOC.                          : LOCATION
SRVC.          Halliburton Logging Services: SERVICE COMPANY
DATE.          Wed Nov 26 21-01-09 2014: LOG DATE
UWI.                          : UNIQUE WELL ID
SECT.                         : SECTION
TOWN.                         : TOWNSHIP
RANG.                         : RANGE
API.                          : API#
OS.                           : OTHER SERVICES
PDAT.FT                       : PERMANENT DATUM
EEL.FT                        : ELEVATION
LMF.FT                        : LOG MEASURED FROM
DMF.FT                        : DRILLING MEASURED FROM
EKB.FT                        : KB
EDF.FT                        : DF
EGL.FT                        : GL
DATE1.                        : DATE1
RUN1.                         : RUN NUMBER
TDD1.FT                       : DEPTH DRILLER
TDL1.FT                       : DEPTH LOGGER
BLI1.FT                       : BOTTOM LOGGED INTERVAL
TLI1.FT                       : TOP LOG INTERVAL
CDD1.IN_FT                    : CASING DRILLER
CDL1.FT                       : CASING LOGGER
BS1.IN                        : BIT SIZE
DFT1.                         : TYPE FLUID IN HOLE
DFDV1.GM/C3_CP                : DENSITY/VISCOSITY
DFPL1.C3                      : PH/FLUID LOSS
MSS1.                         : SOURCE OF SAMPLE
RMT1.OHHM_DEGF                : RM@MEASURED TEMP
RMFT1.OHMM_DEGF                : RMF@MEASURED TEMP
RMCT1.OHMM_DEGF                : RMC@MEASURED TEMP
RMFS1.                        : SOURCE OF RMF/RMC
RMBT1.OHMM_DEGF                : RM@BHT
TCS1.                         : TIME CIRCULATION STOPPED
TLOB1.                        : TIME LOGGER ON BOTTOM
BHT1.DEGF                     : MAXIMUM RECORDED TEMPERATURE
LUN1.                         : EQUIPMENT NUMBER
LUL1.                         : LOCATION
ENGI1.                        : RECORDED BY
WITN1.                        : WITNESSED BY
~Curve Information Block
DEPT.M             0 000 00 00: Depth
LSPD.M/MIN                   0: Line Speed
LTEN.LB                      0: Surface Line Tension
MINMK.                       0: Minute Mark Ticks
HVOLTA.V                     0: Head Voltage Apparent
CCL.                         0: Casing Collar Locator
~Parameter Information Block
SRFTEMP.DEGC           10.0000: Surface Temperature
MudWgt.LB/GAL           8.5000: Mud Weight
CASETHCK.IN             6.1840: Casing Thickness
BITSIZE.IN              8.5000: Borehole I.D.
~A  Depth       LSPD        LTEN       MINMK       HVOLTA       CCL     
# ...
  3067.8500      9.3025   4183.1519      0.0000      3.6079     -2.0140
  3067.8000      9.3025   4183.1519      0.0000      3.6079     -2.0037
  3067.7500      9.3574   4168.8799      0.0000      3.5568     -2.0076
  3067.7000      9.3574   4168.8799      0.0000      3.5568     -2.0183
  3067.6500      9.3574   4170.4971      0.0000      3.5980     -2.0204
  3067.6000      9.3574   4179.6841      0.0000      3.5873     -1.9951
  3067.5500      9.3574   4179.6841      0.0000      3.5873     -2.0125
  3067.5000      9.3574   4188.2324      0.0000      3.5675     -2.0000
  3067.4500      9.4092   4199.9937      0.0000      3.5469     -2.0137
  3067.4000      9.4092   4199.9937      0.0000      3.5469     -2.0153
  3067.3500      9.4092   4205.8789      0.0000      3.5774     -2.0031
  3067.3000      9.4275   4197.3345      0.0000      3.5065     -2.0128
  3067.2500      9.4275   4197.3345      0.0000      3.5065     -2.0140
  3067.2000      9.4275   4186.2744      0.0000      3.5469     -2.0116
  3067.1500      9.3391   4177.3496      0.0000      3.5370     -2.0064
  3067.1000      9.3391   4177.3496      0.0000      3.5370     -2.0110
  3067.0500      9.3391   4165.4556      0.0000      3.5675     -2.0058
  3067.0000      9.3939   4160.1128      0.0000      3.5774     -2.0137
  3066.9500      9.3939   4160.1128      0.0000      3.5774     -2.0006
  3066.9000      9.3939   4167.8921      0.0000      3.5774     -2.0153
  3066.8500      9.3208   4180.6748      0.0000      3.5774     -2.0098
  3066.8000      9.3208   4180.6748      0.0000      3.5774     -2.0226
  3066.7500      9.3208   4197.0029      0.0000      3.5370     -1.9994
  3066.7000      9.3208   4214.8096      0.0000      3.5873     -2.0024
  3066.6500      9.3208   4214.8096      0.0000      3.5873     -2.0253
  3066.6000      9.3208   4218.2964      0.0000      3.5469     -2.0125
  3066.5500      9.3208   4204.0610      0.0000      3.5576     -2.0067
  3066.5000      9.3756   4204.0610      0.0000      3.5576     -2.0183
  3066.4500      9.3756   4187.4946      0.0000      3.5774     -1.9988
  3066.4000      9.3756   4175.7393      0.0000      3.5774     -2.0076
  3066.3500      9.3208   4175.7393      0.0000      3.5774     -2.0018
  3066.3000      9.3208   4167.9053      0.0000      3.5576     -2.0070
  3066.2500      9.3208   4167.9053      0.0000      3.5576     -2.0122
  3066.2000      9.3939   4165.2520      0.0000      3.5774     -2.0165
  3066.1500      9.3939   4165.5718      0.0000      3.5774     -1.9960
  3066.1000      9.3939   4165.5718      0.0000      3.5774     -2.0244
  3066.0500      9.4092   4167.5356      0.0000      3.5370     -2.0043
  3066.0000      9.4092   4174.7251      0.0000      3.5774     -2.0095
  3065.9500      9.4092   4174.7251      0.0000      3.5774     -1.9933
  3065.9000      9.3756   4184.9717      0.0000      3.5370     -2.0241
  3065.8500      9.3756   4189.7847      0.0000      3.5370     -2.0159
  3065.8000      9.3756   4189.7847      0.0000      3.5370     -2.0153
  3065.7500      9.3939   4188.1406      0.0000      3.5675     -2.0012
  3065.7000      9.3939   4183.8247      0.0000      3.5675     -2.0171
  3065.6500      9.3939   4183.8247      0.0000      3.5675     -2.0015
  3065.6000      9.3756   4172.6270      0.0000      3.5980     -2.0159
  3065.5500      9.3756   4153.4355      0.0000      3.5469     -2.0116
  3065.5000      9.3756   4153.4355      0.0000      3.5469     -2.0119
  3065.4500      9.3756   4138.3008      0.0000      3.5873     -1.9939
  3065.4000      9.3025   4135.5273      0.0000      3.5675     -2.0104
  3065.3500      9.3025   4135.5273      0.0000      3.5675     -2.0134
  3065.3000      9.3025   4142.9912      0.0000      3.5881     -2.0153
  3065.2500      9.3939   4160.3184      0.0000      3.5774     -2.0027
  3065.2000      9.3939   4160.3184      0.0000      3.5774     -2.0092
  3065.1500      9.3939   4183.8242      0.0000      3.5873     -2.0180
  3065.1000      9.2842   4199.5776      0.0000      3.5774     -2.0082
  3065.0500      9.2842   4199.5776      0.0000      3.5774     -2.0098
  3065.0000      9.2842   4201.2734      0.0000      3.5370     -2.0235
  3064.9500      9.3208   4193.4131      0.0000      3.5675     -1.9948
  3064.9000      9.3208   4193.4131      0.0000      3.5675     -2.0241
  3064.8500      9.3208   4177.2441      0.0000      3.5774     -2.0272
  3064.8000      9.3391   4160.1997      0.0000      3.5980     -2.0162
  3064.7500      9.3391   4160.1997      0.0000      3.5980     -2.0095
  3064.7000      9.3391   4156.2495      0.0000      3.5675     -2.0089
  3064.6500      9.2842   4156.2495      0.0000      3.5675     -2.0113
  3064.6000      9.2842   4164.7588      0.0000      3.5675     -2.0018
  3064.5500      9.2842   4179.6157      0.0000      3.5675     -2.0082
  3064.5000      9.4092   4179.6157      0.0000      3.5675     -2.0082
  3064.4500      9.4092   4202.3848      0.0000      3.5675     -2.0110
  3064.4000      9.4092   4222.6572      0.0000      3.5675     -2.0079
  3064.3500      9.3391   4222.6572      0.0000      3.5675     -2.0089
  3064.3000      9.3391   4224.1401      0.0000      3.5774     -1.9933
  3064.2500      9.3391   4212.9819      0.0000      3.5370     -2.0076
  3064.2000      9.3574   4212.9819      0.0000      3.5370     -2.0034
  3064.1500      9.3574   4201.3389      0.0000      3.6079     -2.0031
  3064.1000      9.3574   4190.0850      0.0000      3.5675     -2.0052
  3064.0500      9.3574   4190.0850      0.0000      3.5675     -2.0153
  3064.0000      9.4092   4185.8232      0.0000      3.5271     -2.0012
  3063.9500      9.4092   4193.6123      0.0000      3.5469     -2.0134
  3063.9000      9.4092   4193.6123      0.0000      3.5469     -2.0146
  3063.8500      9.3391   4203.4624      0.0000      3.5675     -2.0125
  3063.8000      9.3391   4212.3896      0.0000      3.5774     -2.0134
  3063.7500      9.3391   4212.3896      0.0000      3.5774     -2.0220
  3063.7000      9.3574   4228.1450      0.0000      3.5469     -2.0082
  3063.6500      9.3574   4246.6162      0.0000      3.5774     -2.0143
  3063.6000      9.3574   4246.6162      0.0000      3.5774     -2.0027
  3063.5500      9.3574   4256.8906      0.0000      3.5469     -1.9991
  3063.5000      9.3574   4255.1201      0.0000      3.5675     -2.0052
  3063.4500      9.3574   4255.1201      0.0000      3.5675     -2.0180
  3063.4000      9.2842   4239.1733      0.0000      3.6079     -2.0217
  3063.3500      9.2842   4212.7021      0.0000      3.5370     -2.0046
  3063.3000      9.2842   4212.7021      0.0000      3.5370     -2.0229
  3063.2500      9.3756   4192.3218      0.0000      3.5675     -2.0037
  3063.2000      9.3756   4189.8809      0.0000      3.5774     -2.0064
  3063.1500      9.3756   4189.8809      0.0000      3.5774     -2.0162
  3063.1000      9.3939   4199.3853      0.0000      3.5675     -2.0031
  3063.0500      9.3939   4199.3853      0.0000      3.5675     -2.0070
  3063.0000      9.3939   4210.7554      0.0000      3.5873     -2.0204
  3062.9500      9.3756   4219.3892      0.0000      3.5370     -2.0101
  3062.9000      9.3756   4219.3892      0.0000      3.5370     -2.0140
  3062.8500      9.3756   4221.8955      0.0000      3.6079     -2.0015
  3062.8000      9.3756   4219.1494      0.0000      3.5774     -2.0082
  3062.7500      9.4458   4219.1494      0.0000      3.5774     -2.0089
  3062.7000      9.4458   4217.7549      0.0000      3.5774     -2.0153
  3062.6500      9.4458   4216.3311      0.0000      3.5774     -2.0058
  3062.6000      9.3756   4216.3311      0.0000      3.5774     -2.0168
  3062.5500      9.3756   4206.5635      0.0000      3.5774     -2.0021
  3062.5000      9.3756   4192.5132      0.0000      3.5675     -1.9979
  3062.4500      9.3574   4192.5132      0.0000      3.5675     -2.0089
  3062.4000      9.3574   4183.9438      0.0000      3.5370     -2.0153
  3062.3500      9.3574   4178.9863      0.0000      3.5774     -2.0177
  3062.3000      9.3391   4178.9863      0.0000      3.5774     -2.0122
