~Version Information
VERS.                      2.0: CWLS Log ASCII Standard - VERSION 2.0
WRAP.                       NO: One line per depth step
~Well Information Block
STRT.M               3782.3500: START DEPTH
STOP.M               3681.1500: STOP DEPTH
STEP.M                 -0.0500: STEP
NULL.                -999.2500: NULL VALUE
COMP.                  STATOIL: COMPANY
WELL.               15/9-F-1-C: WELL
FLD.                     VOLVE: FIELD
LOC.                          : LOCATION
SRVC.          Halliburton Logging Services: SERVICE COMPANY
DATE.          Thu Dec 04 04-49-02 2014: LOG DATE
UWI.                          : UNIQUE WELL ID
CTRY.                   NORWAY: COUNTRY
SECT.                         : SECTION
TOWN.                         : TOWNSHIP
RANG.                         : RANGE
API.                          : API#
OS.                   --NONE--: OTHER SERVICES
PDAT.FT                  M.S.L: PERMANENT DATUM
EEL.FT                   54.9M: ELEVATION
LMF.FT                   R.K.B: LOG MEASURED FROM
DMF.FT                   R.K.B: DRILLING MEASURED FROM
EKB.FT                   54.9M: KB
EDF.FT                   54.9M: DF
EGL.FT                    -91M: GL
DATE1.         03-DEC-14 @ 05:47: DATE1
RUN1.                    1 & 2: RUN NUMBER
TDD1.FT                  4094M: DEPTH DRILLER
TDL1.FT                  3782M: DEPTH LOGGER
BLI1.FT                  3772M: BOTTOM LOGGED INTERVAL
TLI1.FT                  3572M: TOP LOG INTERVAL
CDD1.IN_FT                    : CASING DRILLER
CDL1.FT                       : CASING LOGGER
BS1.IN                    8.5": BIT SIZE
DFT1.                SEA WATER: TYPE FLUID IN HOLE
DFDV1.GM/C3_CP          1.03SG: DENSITY/VISCOSITY
DFPL1.C3                      : PH/FLUID LOSS
MSS1.                         : SOURCE OF SAMPLE
RMT1.OHHM_DEGF                : RM@MEASURED TEMP
RMFT1.OHMM_DEGF                : RMF@MEASURED TEMP
RMCT1.OHMM_DEGF                : RMC@MEASURED TEMP
RMFS1.                        : SOURCE OF RMF/RMC
RMBT1.OHMM_DEGF                : RM@BHT
TCS1.                         : TIME CIRCULATION STOPPED
TLOB1.                36 HOURS: TIME LOGGER ON BOTTOM
BHT1.DEGF                 FULL: MAXIMUM RECORDED TEMPERATURE
LUN1.                 12030699: EQUIPMENT NUMBER
LUL1.                   NORWAY: LOCATION
ENGI1.              C.JAMIESON: RECORDED BY
WITN1.                A.ALBAWI: WITNESSED BY
~Curve Information Block
DEPT.M             0 000 00 00: Depth
LSPD.M/MIN                   0: Line Speed
LTEN.LB                      0: Surface Line Tension
MINMK.                       0: Minute Mark Ticks
HVOLTA.V                     0: Head Voltage Apparent
CCL.                         0: Casing Collar Locator
~Parameter Information Block
SRFTEMP.DEGC           12.0000: Surface Temperature
MudWgt.LB/GAL           8.5600: Mud Weight
CASETHCK.IN             0.4530: Casing Thickness
BITSIZE.IN             12.2500: Borehole I.D.
~Other Information
TOOL STRING DEPLOYED BY ALTUS INTERVENTION WIRELINE UNIT ON 7/16" CABLE
CABLE HEAD BUILT BY ALTUS
LOG CORRELATED TO SHLUMBERGER 4.5" HSD OX POWER JET PULS DATED 09.APRIL.2014
CORRELATION LOG IS SHALLOWER BY 1.4M, DEPTH SHIFTED 1.4M DOWN AS PER
CLIENTS REQUEST.
4.655" HSC GUN 10 AND 350 DEGREE PHASING, 39 GR MILLENIUM, 4 SHOTS PER FOOT.
ATTEMPT WAS MADE TO RUN 4 GUNS IN ONE STRING BUT AT 3600M PICK UP WEIGHT 
WAS TOO HIGH TO CONTINUE.  CLIENT D4ECIDED TO SPLIT UP ONTO TWO RUNS.
RUN #1 CCL TO TOP SHOT 3.25 M, CCL STOP DEPT: 3729.75 M
PERFORATION INTERVAL 3733M - 3742.6M
RUN #2 CCL TO TOP SHOT 3.25 M, CCL STOP DEPT: 3711.75 M
PERFORATION INTERVAL 3715M - 3724.6M

~A  Depth       LSPD        LTEN       MINMK       HVOLTA       CCL     
# ...
  3726.3500      9.3574   7142.6074      0.0000      3.4851     -0.0153
  3726.3000      9.3391   7142.6074      0.0000      3.4851     -0.0134
  3726.2500      9.3391   7165.8149      0.0000      3.4851     -0.0104
  3726.2000      9.3391   7189.4907      0.0000      3.4851     -0.0211
  3726.1500      9.3208   7189.4907      0.0000      3.4851     -0.0168
  3726.1000      9.3208   7198.8130      0.0000      3.4546      0.0601
  3726.0500      9.3208   7174.0244      0.0000      3.4645      0.0024
  3726.0000      9.3391   7174.0244      0.0000      3.4645      0.1398
  3725.9500      9.3391   7129.7310      0.0000      3.4950     -0.6631
  3725.9000      9.3391   7080.3862      0.0000      3.4546     -0.8221
  3725.8500      9.3574   7080.3862      0.0000      3.4546     -1.0242
  3725.8000      9.3574   7012.4482      0.0000      3.4851     -0.0674
  3725.7500      9.3574   6925.8115      0.0000      3.4851      0.0735
  3725.7000      9.3574   6925.8115      0.0000      3.4851      1.4975
  3725.6500      9.4092   6835.5234      0.0000      3.5156     -0.7648
  3725.6000      9.4092   6741.9736      0.0000      3.4851      0.5487
  3725.5500      9.4092   6741.9736      0.0000      3.4851      0.0842
  3725.5000      9.4458   6656.6157      0.0000      3.4752      0.5231
  3725.4500      9.4458   6611.5342      0.0000      3.4950     -0.1370
  3725.4000      9.4458   6611.5342      0.0000      3.4950      0.0757
  3725.3500      9.4640   6613.9170      0.0000      3.5156      0.0183
  3725.3000      9.4640   6643.3828      0.0000      3.4241      0.0665
  3725.2500      9.4640   6643.3828      0.0000      3.4241     -0.0055
  3725.2000      9.4275   6687.8721      0.0000      3.4744     -0.0110
  3725.1500      9.4275   6737.8809      0.0000      3.5057     -0.0003
  3725.1000      9.4275   6737.8809      0.0000      3.5057     -0.0055
  3725.0500      9.4275   6783.5630      0.0000      3.4645     -0.0128
  3725.0000      9.4275   6783.5630      0.0000      3.4645     -0.0049
  3724.9500      9.4275   6833.1182      0.0000      3.4546     -0.0146
  3724.9000      9.3574   6887.1973      0.0000      3.4851     -0.0031
  3724.8500      9.3574   6887.1973      0.0000      3.4851     -0.0040
  3724.8000      9.3574   6927.4634      0.0000      3.4950     -0.0024
  3724.7500      9.3574   6956.7056      0.0000      3.4851     -0.0195
  3724.7000      9.3574   6956.7056      0.0000      3.4851     -0.0073
  3724.6500      9.3574   6989.7793      0.0000      3.5156     -0.0281
  3724.6000      9.3574   7012.7119      0.0000      3.5156     -0.0223
  3724.5500      9.3574   7012.7119      0.0000      3.5156      0.0842
  3724.5000      9.3574   7011.6313      0.0000      3.5561     -0.0256
  3724.4500      9.4092   7003.1885      0.0000      3.4851     -0.0299
  3724.4000      9.4092   7003.1885      0.0000      3.4851      0.1843
  3724.3500      9.4092   6989.9214      0.0000      3.4950     -0.1163
  3724.3000      9.4092   6951.5015      0.0000      3.5156     -0.2048
  3724.2500      9.4275   6951.5015      0.0000      3.5156      0.0235
  3724.2000      9.4275   6896.3003      0.0000      3.5255     -0.0467
  3724.1500      9.4275   6850.2715      0.0000      3.5255      0.1031
  3724.1000      9.4458   6850.2715      0.0000      3.5255     -0.1160
  3724.0500      9.4458   6815.5244      0.0000      3.4851     -0.1563
  3724.0000      9.4458   6785.4697      0.0000      3.4950     -0.2289
  3723.9500      9.4275   6785.4697      0.0000      3.4950      0.0613
  3723.9000      9.4275   6761.7632      0.0000      3.4950      0.0491
  3723.8500      9.4275   6748.2500      0.0000      3.4546     -0.0217
  3723.8000      9.3756   6748.2500      0.0000      3.4546     -0.0366
  3723.7500      9.3756   6757.0674      0.0000      3.4851      0.0616
  3723.7000      9.3756   6797.6206      0.0000      3.4851     -0.0131
  3723.6500      9.3756   6797.6206      0.0000      3.4851     -0.0021
  3723.6000      9.3756   6851.3447      0.0000      3.4645     -0.0250
  3723.5500      9.3756   6897.0444      0.0000      3.5156     -0.0174
  3723.5000      9.3574   6897.0444      0.0000      3.5156     -0.0055
  3723.4500      9.3574   6939.6069      0.0000      3.4752     -0.0134
  3723.4000      9.3574   6939.6069      0.0000      3.4752     -0.0061
  3723.3500      9.3391   6980.8955      0.0000      3.4851     -0.0092
  3723.3000      9.3391   7012.7046      0.0000      3.4950     -0.0131
  3723.2500      9.3391   7012.7046      0.0000      3.4950     -0.0082
  3723.2000      9.3574   7042.0850      0.0000      3.5156     -0.0113
  3723.1500      9.3574   7075.6841      0.0000      3.4851     -0.0159
  3723.1000      9.3574   7075.6841      0.0000      3.4851     -0.0085
  3723.0500      9.3574   7107.3076      0.0000      3.4645     -0.0082
  3723.0000      9.3939   7141.8540      0.0000      3.4752     -0.0092
  3722.9500      9.3939   7141.8540      0.0000      3.4752     -0.0146
  3722.9000      9.3939   7186.4644      0.0000      3.5156     -0.0134
  3722.8500      9.3574   7221.8667      0.0000      3.4851     -0.0104
  3722.8000      9.3574   7221.8667      0.0000      3.4851     -0.0162
  3722.7500      9.3574   7224.2280      0.0000      3.4645     -0.1871
  3722.7000      9.3756   7186.1958      0.0000      3.4950      0.0452
  3722.6500      9.3756   7186.1958      0.0000      3.4950      0.4160
  3722.6000      9.3756   7102.4077      0.0000      3.4447      0.8859
  3722.5500      9.3756   6983.2334      0.0000      3.4950      0.6110
  3722.5000      9.3756   6983.2334      0.0000      3.4950     -0.3790
  3722.4500      9.3756   6858.9795      0.0000      3.4851      0.0439
  3722.4000      9.3756   6741.7529      0.0000      3.4348     -1.2845
  3722.3500      9.3756   6741.7529      0.0000      3.4348     -0.2008
  3722.3000      9.3756   6633.5386      0.0000      3.5255      0.2316
  3722.2500      9.4092   6560.6270      0.0000      3.4546      0.0204
  3722.2000      9.4092   6560.6270      0.0000      3.4546     -0.1501
  3722.1500      9.4092   6541.3340      0.0000      3.4851     -0.0565
  3722.1000      9.4092   6556.4004      0.0000      3.4851     -0.0073
  3722.0500      9.4092   6556.4004      0.0000      3.4851     -0.0073
  3722.0000      9.4092   6590.4160      0.0000      3.4851     -0.0092
  3721.9500      9.4275   6643.1450      0.0000      3.5057     -0.0131
  3721.9000      9.4275   6643.1450      0.0000      3.5057     -0.0159
  3721.8500      9.4275   6694.3530      0.0000      3.4950     -0.0031
  3721.8000      9.4275   6694.3530      0.0000      3.4950     -0.0104
  3721.7500      9.4458   6724.3638      0.0000      3.4645     -0.0143
  3721.7000      9.4458   6746.8120      0.0000      3.4645     -0.0082
  3721.6500      9.4458   6746.8120      0.0000      3.4645      0.0024
  3721.6000      9.4275   6776.3716      0.0000      3.4752     -0.0140
  3721.5500      9.4275   6807.8184      0.0000      3.4950     -0.0049
  3721.5000      9.4275   6807.8184      0.0000      3.4950     -0.0095
  3721.4500      9.4458   6842.0845      0.0000      3.4950     -0.0122
  3721.4000      9.4458   6883.1890      0.0000      3.4851     -0.0085
  3721.3500      9.4458   6883.1890      0.0000      3.4851     -0.0171
  3721.3000      9.3939   6923.7529      0.0000      3.5255     -0.0070
  3721.2500      9.3939   6966.7393      0.0000      3.4950     -0.0067
  3721.2000      9.3939   6966.7393      0.0000      3.4950     -0.0128
  3721.1500      9.3574   7015.4170      0.0000      3.4546     -0.0079
  3721.1000      9.3574   7046.8193      0.0000      3.5156     -0.0092
  3721.0500      9.3574   7046.8193      0.0000      3.5156     -0.0168
  3721.0000      9.3391   7046.5894      0.0000      3.5156      0.0958
  3720.9500      9.3391   7024.7305      0.0000      3.5156     -0.3314
  3720.9000      9.3391   7024.7305      0.0000      3.5156     -0.2457
  3720.8500      9.3391   6978.5078      0.0000      3.5057     -0.2960
  3720.8000      9.3391   6903.4565      0.0000      3.4546     -0.1819
