~Version Information
VERS.                      2.0: CWLS Log ASCII Standard - VERSION 2.0
WRAP.                       NO: One line per depth step
~Well Information Block
STRT.M               3779.9000: START DEPTH
STOP.M               3659.5000: STOP DEPTH
STEP.M                 -0.0500: STEP
NULL.                -999.2500: NULL VALUE
COMP.                  STATOIL: COMPANY
WELL.               15/9-F-1-C: WELL
FLD.                     VOLVE: FIELD
LOC.                          : LOCATION
SRVC.          Halliburton Logging Services: SERVICE COMPANY
DATE.          Wed Dec 03 07-18-31 2014: LOG DATE
UWI.                          : UNIQUE WELL ID
CTRY.                   NORWAY: COUNTRY
SECT.                         : SECTION
TOWN.                         : TOWNSHIP
RANG.                         : RANGE
API.                          : API#
OS.                   --NONE--: OTHER SERVICES
PDAT.FT                  M.S.L: PERMANENT DATUM
EEL.FT                   54.9M: ELEVATION
LMF.FT                   R.K.B: LOG MEASURED FROM
DMF.FT                   R.K.B: DRILLING MEASURED FROM
EKB.FT                   54.9M: KB
EDF.FT                   54.9M: DF
EGL.FT                    -91M: GL
DATE1.         03-DEC-14 @ 05:47: DATE1
RUN1.                    1 & 2: RUN NUMBER
TDD1.FT                  4094M: DEPTH DRILLER
TDL1.FT                  3782M: DEPTH LOGGER
BLI1.FT                  3772M: BOTTOM LOGGED INTERVAL
TLI1.FT                  3572M: TOP LOG INTERVAL
CDD1.IN_FT                    : CASING DRILLER
CDL1.FT                       : CASING LOGGER
BS1.IN                    8.5": BIT SIZE
DFT1.                SEA WATER: TYPE FLUID IN HOLE
DFDV1.GM/C3_CP          1.03SG: DENSITY/VISCOSITY
DFPL1.C3                      : PH/FLUID LOSS
MSS1.                         : SOURCE OF SAMPLE
RMT1.OHHM_DEGF                : RM@MEASURED TEMP
RMFT1.OHMM_DEGF                : RMF@MEASURED TEMP
RMCT1.OHMM_DEGF                : RMC@MEASURED TEMP
RMFS1.                        : SOURCE OF RMF/RMC
RMBT1.OHMM_DEGF                : RM@BHT
TCS1.                         : TIME CIRCULATION STOPPED
TLOB1.                36 HOURS: TIME LOGGER ON BOTTOM
BHT1.DEGF                 FULL: MAXIMUM RECORDED TEMPERATURE
LUN1.                 12030699: EQUIPMENT NUMBER
LUL1.                   NORWAY: LOCATION
ENGI1.              C.JAMIESON: RECORDED BY
WITN1.                A.ALBAWI: WITNESSED BY
~Curve Information Block
DEPT.M             0 000 00 00: Depth
LSPD.M/MIN                   0: Line Speed
LTEN.LB                      0: Surface Line Tension
MINMK.                       0: Minute Mark Ticks
HVOLTA.V                     0: Head Voltage Apparent
CCL.                         0: Casing Collar Locator
~Parameter Information Block
SRFTEMP.DEGC           12.0000: Surface Temperature
MudWgt.LB/GAL           8.5600: Mud Weight
CASETHCK.IN             0.4530: Casing Thickness
BITSIZE.IN             12.2500: Borehole I.D.
~Other Information
TOOL STRING DEPLOYED BY ALTUS INTERVENTION WIRELINE UNIT ON 7/16" CABLE
CABLE HEAD BUILT BY ALTUS
LOG CORRELATED TO SHLUMBERGER 4.5" HSD OX POWER JET PULS DATED 09.APRIL.2014
CORRELATION LOG IS SHALLOWER BY 1.4M, DEPTH SHIFTED 1.4M DOWN AS PER
CLIENTS REQUEST.
4.655" HSC GUN 10 AND 350 DEGREE PHASING, 39 GR MILLENIUM, 4 SHOTS PER FOOT.
ATTEMPT WAS MADE TO RUN 4 GUNS IN ONE STRING BUT AT 3600M PICK UP WEIGHT 
WAS TOO HIGH TO CONTINUE.  CLIENT D4ECIDED TO SPLIT UP ONTO TWO RUNS.
RUN #1 CCL TO TOP SHOT 3.25 M, CCL STOP DEPT: 3729.75 M
PERFORATION INTERVAL 3733M - 3742.6M
RUN #2 CCL TO TOP SHOT 3.25 M, CCL STOP DEPT: 3711.75 M
PERFORATION INTERVAL 3715M - 3724.6M

~A  Depth       LSPD        LTEN       MINMK       HVOLTA       CCL     
# ...
  3701.5000      9.2842   6750.0522      0.0000      3.5057     -2.0110
  3701.4500      9.2842   6764.2134      0.0000      3.5561     -2.0253
  3701.4000      9.3208   6764.2134      0.0000      3.5561     -2.0006
  3701.3500      9.3208   6761.0010      0.0000      3.5065     -1.9829
  3701.3000      9.3208   6746.9233      0.0000      3.4958     -2.0632
  3701.2500      9.3208   6746.9233      0.0000      3.4958     -1.8615
  3701.2000      9.3025   6714.6709      0.0000      3.4554     -2.1407
  3701.1500      9.3025   6714.6709      0.0000      3.4554     -1.7699
  3701.1000      9.3025   6661.7969      0.0000      3.5263     -2.1218
  3701.0500      9.3756   6600.9434      0.0000      3.4958     -2.0955
  3701.0000      9.3756   6600.9434      0.0000      3.4958     -1.4467
  3700.9500      9.3756   6542.7236      0.0000      3.5156     -1.8611
  3700.9000      9.4458   6499.8716      0.0000      3.5156     -2.2496
  3700.8500      9.4458   6499.8716      0.0000      3.5156     -2.1242
  3700.8000      9.4458   6485.0132      0.0000      3.5263     -1.9854
  3700.7500      9.4275   6493.5186      0.0000      3.4859     -2.1010
  3700.7000      9.4275   6493.5186      0.0000      3.4859     -1.9680
  3700.6500      9.4275   6518.7432      0.0000      3.4958     -2.0253
  3700.6000      9.4640   6560.0615      0.0000      3.4760     -2.0079
  3700.5500      9.4640   6560.0615      0.0000      3.4760     -2.0140
  3700.5000      9.4640   6601.1831      0.0000      3.4859     -2.0092
  3700.4500      9.3939   6625.3135      0.0000      3.5156     -2.0128
  3700.4000      9.3939   6625.3135      0.0000      3.5156     -2.0089
  3700.3500      9.3939   6646.8159      0.0000      3.5156     -2.0113
  3700.3000      9.3574   6683.3413      0.0000      3.4859     -2.0067
  3700.2500      9.3574   6683.3413      0.0000      3.4859     -2.0104
  3700.2000      9.3574   6722.1543      0.0000      3.5362     -2.0137
  3700.1500      9.3574   6748.6206      0.0000      3.5271     -2.0043
  3700.1000      9.3756   6748.6206      0.0000      3.5271     -2.0034
  3700.0500      9.3756   6764.7515      0.0000      3.4447     -1.9585
  3700.0000      9.3756   6767.7188      0.0000      3.4554     -1.9927
  3699.9500      9.2690   6767.7188      0.0000      3.4554     -2.0891
  3699.9000      9.2690   6756.6226      0.0000      3.4950     -1.9606
  3699.8500      9.2690   6744.8096      0.0000      3.5362     -2.0311
  3699.8000      9.3391   6744.8096      0.0000      3.5362     -2.1440
  3699.7500      9.3391   6736.8892      0.0000      3.4958     -1.9731
  3699.7000      9.3391   6725.1665      0.0000      3.4958     -2.0192
  3699.6500      9.3574   6725.1665      0.0000      3.4958     -1.9692
  3699.6000      9.3574   6712.1196      0.0000      3.4859     -1.9945
  3699.5500      9.3574   6712.1196      0.0000      3.4859     -2.0006
  3699.5000      9.3574   6705.5908      0.0000      3.4454     -1.9780
  3699.4500      9.3574   6710.6396      0.0000      3.4752     -2.0055
  3699.4000      9.3574   6710.6396      0.0000      3.4752     -1.9826
  3699.3500      9.4458   6735.1040      1.0000      3.5156     -2.0497
  3699.3000      9.4458   6769.7837      0.0000      3.4554     -2.0046
  3699.2500      9.4458   6769.7837      0.0000      3.4554     -2.0070
  3699.2000      9.3939   6789.7417      0.0000      3.5057     -1.9780
  3699.1500      9.3939   6798.5400      0.0000      3.4859     -2.0122
  3699.1000      9.3939   6798.5400      0.0000      3.4859     -1.9850
  3699.0500      9.3391   6812.8960      0.0000      3.5263     -1.9747
  3699.0000      9.3391   6815.7388      0.0000      3.4958     -2.0699
  3698.9500      9.3391   6815.7388      0.0000      3.4958     -2.0735
  3698.9000      9.3391   6791.4141      0.0000      3.5156     -1.8895
  3698.8500      9.3939   6763.2295      0.0000      3.5362     -2.1697
  3698.8000      9.3939   6763.2295      0.0000      3.5362     -1.9094
  3698.7500      9.3939   6746.8330      0.0000      3.4958     -2.2133
  3698.7000      9.3208   6728.6045      0.0000      3.4653     -1.9585
  3698.6500      9.3208   6728.6045      0.0000      3.4653     -2.2899
  3698.6000      9.3208   6710.4541      0.0000      3.4760     -2.0955
  3698.5500      9.3939   6706.4883      0.0000      3.5164     -1.9786
  3698.5000      9.3939   6706.4883      0.0000      3.5164     -2.0146
  3698.4500      9.3939   6710.6318      0.0000      3.5469     -2.1028
  3698.4000      9.4092   6719.5811      0.0000      3.5049     -2.0171
  3698.3500      9.4092   6719.5811      0.0000      3.5049     -1.9506
  3698.3000      9.4092   6741.4512      0.0000      3.4859     -2.0000
  3698.2500      9.3756   6768.3833      0.0000      3.4859     -2.0082
  3698.2000      9.3756   6768.3833      0.0000      3.4859     -2.0204
  3698.1500      9.3756   6789.2046      0.0000      3.4958     -2.0070
  3698.1000      9.4092   6804.8154      0.0000      3.5164     -1.9649
  3698.0500      9.4092   6804.8154      0.0000      3.5164     -2.0122
  3698.0000      9.4092   6809.1001      0.0000      3.4859     -2.0284
  3697.9500      9.3756   6809.1001      0.0000      3.4859     -2.0586
  3697.9000      9.3756   6800.0903      0.0000      3.5255     -2.0320
  3697.8500      9.3756   6795.6177      0.0000      3.5156     -2.0308
  3697.8000      9.3574   6795.6177      0.0000      3.5156     -1.9652
  3697.7500      9.3574   6799.6343      0.0000      3.4859     -2.0119
  3697.7000      9.3574   6802.4746      0.0000      3.4554     -2.0266
  3697.6500      9.3574   6802.4746      0.0000      3.4554     -2.0177
  3697.6000      9.3756   6816.3081      0.0000      3.4859     -2.0079
  3697.5500      9.3756   6846.9756      0.0000      3.4859     -1.9979
  3697.5000      9.3756   6846.9756      0.0000      3.4859     -2.0357
  3697.4500      9.3208   6871.5669      0.0000      3.4554     -1.9982
  3697.4000      9.3208   6886.1099      0.0000      3.4752     -2.0140
  3697.3500      9.3208   6886.1099      0.0000      3.4752     -2.0330
  3697.3000      9.3391   6911.7358      0.0000      3.5263     -2.0284
  3697.2500      9.3391   6944.5024      0.0000      3.4554     -2.0528
  3697.2000      9.3391   6944.5024      0.0000      3.4554     -2.0235
  3697.1500      9.2842   6965.4731      0.0000      3.3638     -2.0049
  3697.1000      9.2842   6976.8477      0.0000      3.4142     -2.0217
  3697.0500      9.2842   6976.8477      0.0000      3.4142     -2.0497
  3697.0000      9.2690   6975.1836      0.0000      3.4760     -1.9173
  3696.9500      9.2690   6941.1953      0.0000      3.4348     -2.0986
  3696.9000      9.2690   6941.1953      0.0000      3.4348     -2.4233
  3696.8500      9.3391   6876.2095      0.0000      3.5667     -1.6655
  3696.8000      9.3391   6792.2275      0.0000      3.5255     -2.4297
  3696.7500      9.3391   6792.2275      0.0000      3.5255     -2.3638
  3696.7000      9.3391   6690.2417      0.0000      3.5164     -1.9292
  3696.6500      9.3391   6585.1035      0.0000      3.4958     -2.0009
  3696.6000      9.3391   6585.1035      0.0000      3.4958     -2.3021
  3696.5500      9.4275   6505.6475      0.0000      3.5057     -1.8035
  3696.5000      9.4275   6505.6475      0.0000      3.5057     -1.9014
  3696.4500      9.4275   6463.9995      0.0000      3.4653     -2.0467
  3696.4000      9.4275   6460.4146      0.0000      3.4950     -1.9490
  3696.3500      9.4458   6460.4146      0.0000      3.4950     -2.0824
  3696.3000      9.4458   6489.4419      0.0000      3.5065     -2.1224
  3696.2500      9.4458   6523.7368      0.0000      3.5057     -1.9310
  3696.2000      9.4092   6523.7368      0.0000      3.5057     -1.9948
  3696.1500      9.4092   6541.4419      0.0000      3.5263     -2.0803
  3696.1000      9.4092   6558.2676      0.0000      3.4859     -1.9475
  3696.0500      9.3939   6558.2676      0.0000      3.4859     -1.9847
  3696.0000      9.3939   6589.6772      0.0000      3.5164     -2.0674
  3695.9500      9.3939   6623.3481      0.0000      3.5156     -2.0519
