~Version Information
VERS.                      2.0: CWLS Log ASCII Standard - VERSION 2.0
WRAP.                       NO: One line per depth step
~Well Information Block
STRT.M               3779.4000: START DEPTH
STOP.M               3680.8000: STOP DEPTH
STEP.M                 -0.0500: STEP
NULL.                -999.2500: NULL VALUE
COMP.                  STATOIL: COMPANY
WELL.               15/9-F-1-C: WELL
FLD.                     VOLVE: FIELD
LOC.                          : LOCATION
SRVC.          Halliburton Logging Services: SERVICE COMPANY
DATE.          Thu Dec 04 05-18-20 2014: LOG DATE
UWI.                          : UNIQUE WELL ID
CTRY.                   NORWAY: COUNTRY
SECT.                         : SECTION
TOWN.                         : TOWNSHIP
RANG.                         : RANGE
API.                          : API#
OS.                   --NONE--: OTHER SERVICES
PDAT.FT                  M.S.L: PERMANENT DATUM
EEL.FT                   54.9M: ELEVATION
LMF.FT                   R.K.B: LOG MEASURED FROM
DMF.FT                   R.K.B: DRILLING MEASURED FROM
EKB.FT                   54.9M: KB
EDF.FT                   54.9M: DF
EGL.FT                    -91M: GL
DATE1.         03-DEC-14 @ 05:47: DATE1
RUN1.                    1 & 2: RUN NUMBER
TDD1.FT                  4094M: DEPTH DRILLER
TDL1.FT                  3782M: DEPTH LOGGER
BLI1.FT                  3772M: BOTTOM LOGGED INTERVAL
TLI1.FT                  3572M: TOP LOG INTERVAL
CDD1.IN_FT                    : CASING DRILLER
CDL1.FT                       : CASING LOGGER
BS1.IN                    8.5": BIT SIZE
DFT1.                SEA WATER: TYPE FLUID IN HOLE
DFDV1.GM/C3_CP          1.03SG: DENSITY/VISCOSITY
DFPL1.C3                      : PH/FLUID LOSS
MSS1.                         : SOURCE OF SAMPLE
RMT1.OHHM_DEGF                : RM@MEASURED TEMP
RMFT1.OHMM_DEGF                : RMF@MEASURED TEMP
RMCT1.OHMM_DEGF                : RMC@MEASURED TEMP
RMFS1.                        : SOURCE OF RMF/RMC
RMBT1.OHMM_DEGF                : RM@BHT
TCS1.                         : TIME CIRCULATION STOPPED
TLOB1.                36 HOURS: TIME LOGGER ON BOTTOM
BHT1.DEGF                 FULL: MAXIMUM RECORDED TEMPERATURE
LUN1.                 12030699: EQUIPMENT NUMBER
LUL1.                   NORWAY: LOCATION
ENGI1.              C.JAMIESON: RECORDED BY
WITN1.                A.ALBAWI: WITNESSED BY
~Curve Information Block
DEPT.M             0 000 00 00: Depth
LSPD.M/MIN                   0: Line Speed
LTEN.LB                      0: Surface Line Tension
MINMK.                       0: Minute Mark Ticks
HVOLTA.V                     0: Head Voltage Apparent
CCL.                         0: Casing Collar Locator
~Parameter Information Block
SRFTEMP.DEGC           10.0000: Surface Temperature
MudWgt.LB/GAL           8.5000: Mud Weight
CASETHCK.IN             0.4530: Casing Thickness
BITSIZE.IN              8.5000: Borehole I.D.
~Other Information
TOOL STRING DEPLOYED BY ALTUS INTERVENTION WIRELINE UNIT ON 7/16" CABLE
CABLE HEAD BUILT BY ALTUS
LOG CORRELATED TO SHLUMBERGER 4.5" HSD OX POWER JET PULS DATED 09.APRIL.2014
CORRELATION LOG IS SHALLOWER BY 1.4M, DEPTH SHIFTED 1.4M DOWN AS PER
CLIENTS REQUEST.
4.655" HSC GUN 10 AND 350 DEGREE PHASING, 39 GR MILLENIUM, 4 SHOTS PER FOOT.
ATTEMPT WAS MADE TO RUN 4 GUNS IN ONE STRING BUT AT 3600M PICK UP WEIGHT 
WAS TOO HIGH TO CONTINUE.  CLIENT D4ECIDED TO SPLIT UP ONTO TWO RUNS.
RUN #1 CCL TO TOP SHOT 3.25 M, CCL STOP DEPT: 3729.75 M
PERFORATION INTERVAL 3733M - 3742.6M
RUN #2 CCL TO TOP SHOT 3.25 M, CCL STOP DEPT: 3711.75 M
PERFORATION INTERVAL 3715M - 3724.6M

~A  Depth       LSPD        LTEN       MINMK       HVOLTA       CCL     
# ...
  3684.2000     11.1435   7054.2490      0.0000      3.5255      2.2921
  3684.1500     11.1435   7061.7700      0.0000      3.4752      1.2468
  3684.1000     11.1435   7061.7700      0.0000      3.4752      2.5219
  3684.0500     11.1435   7066.2861      0.0000      3.4950      2.2621
  3684.0000     11.1435   7051.7266      0.0000      3.4546      2.0302
  3683.9500     11.1435   7051.7266      0.0000      3.4546      1.9905
  3683.9000     11.1435   7036.8984      0.0000      3.4447      1.9924
  3683.8500     11.1435   7030.6338      0.0000      3.4851      2.0397
  3683.8000     11.1252   7030.6338      0.0000      3.4851      1.9585
  3683.7500     11.1252   7014.8350      0.0000      3.4645      1.9829
  3683.7000     11.1252   7014.8350      0.0000      3.4645      1.9991
  3683.6500     11.0886   6986.8374      0.0000      3.4950      2.0073
  3683.6000     11.0886   6963.3467      0.0000      3.4241      1.9643
  3683.5500     11.0886   6963.3467      0.0000      3.4241      1.9789
  3683.5000     11.0886   6950.6182      0.0000      3.4851      2.0253
  3683.4500     11.0368   6944.9121      0.0000      3.4851      1.9875
  3683.4000     11.0368   6944.9121      0.0000      3.4851      1.9725
  3683.3500     11.0368   6938.1401      0.0000      3.4752      2.0000
  3683.3000     11.0368   6921.9653      0.0000      3.4546      1.9924
  3683.2500     11.0886   6921.9653      0.0000      3.4546      1.9908
  3683.2000     11.0886   6909.1616      0.0000      3.4950      1.9921
  3683.1500     11.0886   6917.9746      0.0000      3.4950      1.9860
  3683.1000     11.0520   6917.9746      0.0000      3.4950      1.9756
  3683.0500     11.0520   6935.4790      0.0000      3.4752      1.9969
  3683.0000     11.0520   6945.2471      0.0000      3.5156      1.9844
  3682.9500     11.0520   6945.2471      0.0000      3.5156      1.9734
  3682.9000     11.1069   6959.5869      0.0000      3.4546      1.9915
  3682.8500     11.1069   6980.8535      0.0000      3.4752      2.0214
  3682.8000     11.1069   6980.8535      0.0000      3.4752      1.9622
  3682.7500     11.1069   6989.0801      0.0000      3.5057      1.9811
  3682.7000     11.1252   6990.7583      0.0000      3.5156      1.9936
  3682.6500     11.1252   6990.7583      0.0000      3.5156      1.9710
  3682.6000     11.1252   7009.9634      0.0000      3.4950      1.9817
  3682.5500     11.1252   7042.0781      0.0000      3.4950      2.0034
  3682.5000     11.0703   7042.0781      0.0000      3.4950      2.0015
  3682.4500     11.0703   7071.6626      0.0000      3.4950      1.9792
  3682.4000     11.0703   7095.6963      0.0000      3.4950      1.9823
  3682.3500     11.0703   7095.6963      0.0000      3.4950      2.0009
  3682.3000     11.0703   7111.2295      0.0000      3.5156      1.9832
  3682.2500     11.0703   7121.3804      0.0000      3.4645      1.9844
  3682.2000     11.0703   7121.3804      0.0000      3.4645      1.9826
  3682.1500     11.0520   7133.9590      0.0000      3.4950      1.9896
  3682.1000     11.0520   7133.9590      0.0000      3.4950      1.9982
  3682.0500     11.0520   7135.1289      0.0000      3.4340      2.0089
  3682.0000     11.0520   7108.8247      0.0000      3.4851      1.9948
  3681.9500     11.0703   7108.8247      0.0000      3.4851      1.9985
  3681.9000     11.0703   7074.2671      0.0000      3.4439      1.9991
  3681.8500     11.0703   7052.3340      0.0000      3.4851      1.9585
  3681.8000     11.1252   7052.3340      0.0000      3.4851      1.9731
  3681.7500     11.1252   7030.3271      0.0000      3.4851      1.9945
  3681.7000     11.1252   6997.4141      0.0000      3.4546      1.9680
  3681.6500     11.1252   6997.4141      0.0000      3.4546      2.0116
  3681.6000     11.1435   6962.7090      0.0000      3.4546      1.9890
  3681.5500     11.1435   6934.4922      0.0000      3.4950      1.9738
  3681.5000     11.1435   6934.4922      0.0000      3.4950      2.0180
  3681.4500     11.1435   6922.5586      0.0000      3.5156      1.9911
  3681.4000     11.1770   6931.2559      0.0000      3.4851      2.0131
  3681.3500     11.1770   6931.2559      0.0000      3.4851      1.9750
  3681.3000     11.1770   6939.7344      0.0000      3.5049      2.0027
  3681.2500     11.1770   6933.3086      0.0000      3.4950      1.9869
  3681.2000     11.1252   6933.3086      0.0000      3.4950      1.9631
  3681.1500     11.1252   6931.5610      0.0000      3.4752      1.9796
  3681.1000     11.1252   6945.8604      0.0000      3.5156      1.9844
  3681.0500     11.0886   6945.8604      0.0000      3.5156      1.9872
  3681.0000     11.0886   6956.8276      0.0000      3.4744      1.9832
  3680.9500     11.0886   6955.8169      0.0000      3.5255      1.9854
  3680.9000     11.0886   6955.8169      0.0000      3.5255      1.9911
  3680.8500     11.1069   6955.4028      0.0000      3.4851      1.9957
  3680.8000     11.1069   6965.7197      0.0000      3.4851      1.9921
