~Version Information
VERS.                      2.0: CWLS Log ASCII Standard - VERSION 2.0
WRAP.                       NO: One line per depth step
~Well Information Block
STRT.M               3785.6000: START DEPTH
STOP.M               3572.2000: STOP DEPTH
STEP.M                 -0.0500: STEP
NULL.                -999.2500: NULL VALUE
COMP.                  STATOIL: COMPANY
WELL.               15/9-F-1-C: WELL
FLD.                     VOLVE: FIELD
LOC.                          : LOCATION
SRVC.          Halliburton Logging Services: SERVICE COMPANY
DATE.          Wed Dec 03 05-47-41 2014: LOG DATE
UWI.                          : UNIQUE WELL ID
CTRY.                   NORWAY: COUNTRY
SECT.                         : SECTION
TOWN.                         : TOWNSHIP
RANG.                         : RANGE
API.                          : API#
OS.                   --NONE--: OTHER SERVICES
PDAT.FT                  M.S.L: PERMANENT DATUM
EEL.FT                   54.9M: ELEVATION
LMF.FT                   R.K.B: LOG MEASURED FROM
DMF.FT                   R.K.B: DRILLING MEASURED FROM
EKB.FT                   54.9M: KB
EDF.FT                   54.9M: DF
EGL.FT                    -91M: GL
DATE1.         03-DEC-14 @ 05:47: DATE1
RUN1.                    1 & 2: RUN NUMBER
TDD1.FT                  4094M: DEPTH DRILLER
TDL1.FT                  3782M: DEPTH LOGGER
BLI1.FT                  3772M: BOTTOM LOGGED INTERVAL
TLI1.FT                  3572M: TOP LOG INTERVAL
CDD1.IN_FT                    : CASING DRILLER
CDL1.FT                       : CASING LOGGER
BS1.IN                    8.5": BIT SIZE
DFT1.                SEA WATER: TYPE FLUID IN HOLE
DFDV1.GM/C3_CP          1.03SG: DENSITY/VISCOSITY
DFPL1.C3                      : PH/FLUID LOSS
MSS1.                         : SOURCE OF SAMPLE
RMT1.OHHM_DEGF                : RM@MEASURED TEMP
RMFT1.OHMM_DEGF                : RMF@MEASURED TEMP
RMCT1.OHMM_DEGF                : RMC@MEASURED TEMP
RMFS1.                        : SOURCE OF RMF/RMC
RMBT1.OHMM_DEGF                : RM@BHT
TCS1.                         : TIME CIRCULATION STOPPED
TLOB1.                36 HOURS: TIME LOGGER ON BOTTOM
BHT1.DEGF                 FULL: MAXIMUM RECORDED TEMPERATURE
LUN1.                 12030699: EQUIPMENT NUMBER
LUL1.                   NORWAY: LOCATION
ENGI1.              C.JAMIESON: RECORDED BY
WITN1.                A.ALBAWI: WITNESSED BY
~Curve Information Block
DEPT.M             0 000 00 00: Depth
LSPD.M/MIN                   0: Line Speed
LTEN.LB                      0: Surface Line Tension
MINMK.                       0: Minute Mark Ticks
HVOLTA.V                     0: Head Voltage Apparent
CCL.                         0: Casing Collar Locator
~Parameter Information Block
SRFTEMP.DEGC           12.0000: Surface Temperature
MudWgt.LB/GAL           8.5600: Mud Weight
CASETHCK.IN             0.4530: Casing Thickness
BITSIZE.IN             12.2500: Borehole I.D.
~Other Information
TOOL STRING DEPLOYED BY ALTUS INTERVENTION WIRELINE UNIT ON 7/16" CABLE
CABLE HEAD BUILT BY ALTUS
LOG CORRELATED TO SHLUMBERGER 4.5" HSD OX POWER JET PULS DATED 09.APRIL.2014
CORRELATION LOG IS SHALLOWER BY 1.4M, DEPTH SHIFTED 1.4M DOWN AS PER
CLIENTS REQUEST.
4.655" HSC GUN 10 AND 350 DEGREE PHASING, 39 GR MILLENIUM, 4 SHOTS PER FOOT.
ATTEMPT WAS MADE TO RUN 4 GUNS IN ONE STRING BUT AT 3600M PICK UP WEIGHT 
WAS TOO HIGH TO CONTINUE.  CLIENT D4ECIDED TO SPLIT UP ONTO TWO RUNS.
RUN #1 CCL TO TOP SHOT 3.25 M, CCL STOP DEPT: 3729.75 M
PERFORATION INTERVAL 3733M - 3742.6M
RUN #2 CCL TO TOP SHOT 3.25 M, CCL STOP DEPT: 3711.75 M
PERFORATION INTERVAL 3715M - 3724.6M

~A  Depth       LSPD        LTEN       MINMK       HVOLTA       CCL     
# ...
  3645.6000      9.3391   6577.2495      0.0000      3.5263     -0.0467
  3645.5500      9.3391   6601.3828      0.0000      3.5461      0.0714
  3645.5000      9.3391   6623.4595      0.0000      3.5156      0.0751
  3645.4500      9.2842   6623.4595      0.0000      3.5156     -0.0009
  3645.4000      9.2842   6614.5386      0.0000      3.5164      0.1270
  3645.3500      9.2842   6571.5010      0.0000      3.4958     -0.1120
  3645.3000      9.3208   6571.5010      0.0000      3.4958     -0.0723
  3645.2500      9.3208   6504.4775      0.0000      3.4958     -0.1874
  3645.2000      9.3208   6413.3945      0.0000      3.4958      0.5499
  3645.1500      9.3208   6413.3945      0.0000      3.4958     -0.6528
  3645.1000      9.3208   6319.2681      0.0000      3.4447     -0.4990
  3645.0500      9.3208   6256.8477      0.0000      3.5362     -0.3256
  3645.0000      9.3756   6256.8477      0.0000      3.5362      0.1096
  3644.9500      9.3756   6227.5786      0.0000      3.4958     -0.1010
  3644.9000      9.3756   6216.5601      0.0000      3.4958      0.2448
  3644.8500      9.4092   6216.5601      0.0000      3.4958     -0.0146
  3644.8000      9.4092   6227.4155      0.0000      3.4958     -0.0668
  3644.7500      9.4092   6258.5190      0.0000      3.4851      0.0565
  3644.7000      9.4092   6258.5190      0.0000      3.4851      0.0436
  3644.6500      9.4092   6293.3218      0.0000      3.5156      0.0385
  3644.6000      9.4092   6331.0898      0.0000      3.4958     -0.0671
  3644.5500      9.4092   6331.0898      0.0000      3.4958     -0.0449
  3644.5000      9.4275   6377.8022      0.0000      3.5164     -0.0381
  3644.4500      9.4275   6427.0161      0.0000      3.5057      0.0037
  3644.4000      9.4275   6427.0161      0.0000      3.5057      0.0037
  3644.3500      9.3939   6475.3574      0.0000      3.4950     -0.0406
  3644.3000      9.3939   6517.2427      0.0000      3.5057     -0.0073
  3644.2500      9.3939   6517.2427      0.0000      3.5057     -0.0217
  3644.2000      9.3208   6540.6626      0.0000      3.5263     -0.0220
  3644.1500      9.3208   6553.4434      0.0000      3.4653     -0.0296
  3644.1000      9.3208   6553.4434      0.0000      3.4653     -0.0247
  3644.0500      9.3391   6569.1704      0.0000      3.5156      0.0272
  3644.0000      9.3391   6569.1704      0.0000      3.5156      0.0143
  3643.9500      9.3391   6577.0674      0.0000      3.5255     -0.0427
  3643.9000      9.3208   6571.1084      0.0000      3.5057      0.0330
  3643.8500      9.3208   6571.1084      0.0000      3.5057     -0.0644
  3643.8000      9.3208   6561.0322      0.0000      3.4958     -0.0989
  3643.7500      9.3025   6530.1294      0.0000      3.5263     -0.4050
  3643.7000      9.3025   6530.1294      0.0000      3.5263      0.3076
  3643.6500      9.3025   6458.3247      0.0000      3.4752     -0.2173
  3643.6000      9.3574   6375.8320      0.0000      3.5255      0.1923
  3643.5500      9.3574   6375.8320      0.0000      3.5255      0.0339
  3643.5000      9.3574   6317.7192      0.0000      3.5156      0.4504
  3643.4500      9.3574   6276.6826      0.0000      3.4958      0.0711
  3643.4000      9.3756   6276.6826      0.0000      3.4958     -0.1740
  3643.3500      9.3756   6248.7979      0.0000      3.4859      0.0494
  3643.3000      9.3756   6251.5010      0.0000      3.5057      0.0150
  3643.2500      9.4092   6251.5010      0.0000      3.5057     -0.0040
  3643.2000      9.4092   6281.5166      0.0000      3.5156     -0.0009
  3643.1500      9.4092   6322.4263      0.0000      3.5057      0.0058
  3643.1000      9.4275   6322.4263      0.0000      3.5057      0.0009
  3643.0500      9.4275   6370.4355      0.0000      3.4653     -0.0043
  3643.0000      9.4275   6415.1274      0.0000      3.4554      0.0003
  3642.9500      9.3756   6415.1274      0.0000      3.4554     -0.0201
  3642.9000      9.3756   6447.9287      0.0000      3.5057     -0.0006
  3642.8500      9.3756   6483.4243      0.0000      3.5461     -0.0134
  3642.8000      9.3574   6483.4243      0.0000      3.5461     -0.0214
  3642.7500      9.3574   6521.9136      0.0000      3.4752     -0.0339
  3642.7000      9.3574   6536.3535      0.0000      3.4958     -0.0089
  3642.6500      9.3208   6536.3535      0.0000      3.4958     -0.0024
  3642.6000      9.3208   6520.9316      0.0000      3.4859     -0.0143
  3642.5500      9.3208   6492.9009      0.0000      3.4851      0.0125
  3642.5000      9.2842   6492.9009      0.0000      3.4851      0.0992
  3642.4500      9.2842   6451.5059      0.0000      3.4950     -0.3622
  3642.4000      9.2842   6451.5059      0.0000      3.4950     -0.1822
  3642.3500      9.3574   6391.5581      0.0000      3.5263     -0.3635
  3642.3000      9.3574   6328.7251      0.0000      3.4859     -0.5920
  3642.2500      9.3574   6328.7251      0.0000      3.4859     -0.3168
  3642.2000      9.3574   6277.7158      0.0000      3.4248     -0.1843
  3642.1500      9.3208   6245.6836      0.0000      3.5255     -0.0128
  3642.1000      9.3208   6245.6836      0.0000      3.5255     -0.1889
  3642.0500      9.3208   6241.1362      0.0000      3.5461      0.0333
  3642.0000      9.3756   6259.9541      0.0000      3.4851     -0.0204
  3641.9500      9.3756   6259.9541      0.0000      3.4851      0.0131
  3641.9000      9.3756   6291.8975      0.0000      3.5164     -0.0137
  3641.8500      9.4092   6337.7031      0.0000      3.4859     -0.0073
  3641.8000      9.4092   6337.7031      0.0000      3.4859     -0.0024
  3641.7500      9.4092   6391.7095      0.0000      3.5057     -0.0113
  3641.7000      9.3391   6439.0088      0.0000      3.5156      0.0018
  3641.6500      9.3391   6439.0088      0.0000      3.5156     -0.0058
  3641.6000      9.3391   6481.6187      0.0000      3.4958     -0.0186
  3641.5500      9.3939   6524.6982      0.0000      3.4554     -0.0003
  3641.5000      9.3939   6524.6982      0.0000      3.4554     -0.0119
  3641.4500      9.3939   6555.9331      0.0000      3.4859     -0.0027
  3641.4000      9.3208   6576.5327      0.0000      3.5156     -0.0479
  3641.3500      9.3208   6576.5327      0.0000      3.5156     -0.0143
  3641.3000      9.3208   6596.8867      0.0000      3.4851     -0.0385
  3641.2500      9.2690   6596.6074      0.0000      3.5164      0.0635
  3641.2000      9.2690   6596.6074      0.0000      3.5164     -0.0314
  3641.1500      9.2690   6558.5088      0.0000      3.5263     -0.0961
  3641.1000      9.3391   6503.9893      0.0000      3.4554     -0.0006
  3641.0500      9.3391   6503.9893      0.0000      3.4554     -0.2606
  3641.0000      9.3391   6449.7197      0.0000      3.4950     -0.0854
  3640.9500      9.2842   6394.6035      0.0000      3.4851      0.2164
  3640.9000      9.2842   6394.6035      0.0000      3.4851      0.0574
  3640.8500      9.2842   6358.8066      0.0000      3.4554     -0.1498
  3640.8000      9.2842   6358.8066      0.0000      3.4554      0.0031
  3640.7500      9.3574   6364.2139      0.0000      3.4859      0.0012
  3640.7000      9.3574   6395.1357      0.0000      3.4958     -0.0061
  3640.6500      9.3574   6395.1357      0.0000      3.4958     -0.0113
  3640.6000      9.3939   6430.6553      0.0000      3.5156     -0.0046
  3640.5500      9.3939   6470.2944      0.0000      3.5156     -0.0110
  3640.5000      9.3939   6470.2944      0.0000      3.5156     -0.0003
  3640.4500      9.3574   6511.7173      0.0000      3.4653     -0.0110
  3640.4000      9.3574   6551.2998      0.0000      3.4859     -0.0156
  3640.3500      9.3574   6551.2998      0.0000      3.4859     -0.0162
  3640.3000      9.3756   6591.4058      0.0000      3.4958     -0.0140
  3640.2500      9.3756   6624.7666      0.0000      3.5255     -0.0128
  3640.2000      9.3756   6624.7666      0.0000      3.5255     -0.0055
  3640.1500      9.3391   6640.1670      0.0000      3.5057     -0.0034
  3640.1000      9.3391   6639.9746      0.0000      3.5263      0.0171
  3640.0500      9.3391   6639.9746      0.0000      3.5263     -0.0516
