~Version Information
VERS.                      2.0: CWLS Log ASCII Standard - VERSION 2.0
WRAP.                       NO: One line per depth step
~Well Information Block
STRT.M               3779.9000: START DEPTH
STOP.M               3659.5000: STOP DEPTH
STEP.M                 -0.0500: STEP
NULL.                -999.2500: NULL VALUE
COMP.                  STATOIL: COMPANY
WELL.               15/9-F-1-C: WELL
FLD.                     VOLVE: FIELD
LOC.                          : LOCATION
SRVC.          Halliburton Logging Services: SERVICE COMPANY
DATE.          Wed Dec 03 07-18-31 2014: LOG DATE
UWI.                          : UNIQUE WELL ID
CTRY.                   NORWAY: COUNTRY
SECT.                         : SECTION
TOWN.                         : TOWNSHIP
RANG.                         : RANGE
API.                          : API#
OS.                   --NONE--: OTHER SERVICES
PDAT.FT                  M.S.L: PERMANENT DATUM
EEL.FT                   54.9M: ELEVATION
LMF.FT                   R.K.B: LOG MEASURED FROM
DMF.FT                   R.K.B: DRILLING MEASURED FROM
EKB.FT                   54.9M: KB
EDF.FT                   54.9M: DF
EGL.FT                    -91M: GL
DATE1.         03-DEC-14 @ 05:47: DATE1
RUN1.                    1 & 2: RUN NUMBER
TDD1.FT                  4094M: DEPTH DRILLER
TDL1.FT                  3782M: DEPTH LOGGER
BLI1.FT                  3772M: BOTTOM LOGGED INTERVAL
TLI1.FT                  3572M: TOP LOG INTERVAL
CDD1.IN_FT                    : CASING DRILLER
CDL1.FT                       : CASING LOGGER
BS1.IN                    8.5": BIT SIZE
DFT1.                SEA WATER: TYPE FLUID IN HOLE
DFDV1.GM/C3_CP          1.03SG: DENSITY/VISCOSITY
DFPL1.C3                      : PH/FLUID LOSS
MSS1.                         : SOURCE OF SAMPLE
RMT1.OHHM_DEGF                : RM@MEASURED TEMP
RMFT1.OHMM_DEGF                : RMF@MEASURED TEMP
RMCT1.OHMM_DEGF                : RMC@MEASURED TEMP
RMFS1.                        : SOURCE OF RMF/RMC
RMBT1.OHMM_DEGF                : RM@BHT
TCS1.                         : TIME CIRCULATION STOPPED
TLOB1.                36 HOURS: TIME LOGGER ON BOTTOM
BHT1.DEGF                 FULL: MAXIMUM RECORDED TEMPERATURE
LUN1.                 12030699: EQUIPMENT NUMBER
LUL1.                   NORWAY: LOCATION
ENGI1.              C.JAMIESON: RECORDED BY
WITN1.                A.ALBAWI: WITNESSED BY
~Curve Information Block
DEPT.M             0 000 00 00: Depth
LSPD.M/MIN                   0: Line Speed
LTEN.LB                      0: Surface Line Tension
MINMK.                       0: Minute Mark Ticks
HVOLTA.V                     0: Head Voltage Apparent
CCL.                         0: Casing Collar Locator
~Parameter Information Block
SRFTEMP.DEGC           12.0000: Surface Temperature
MudWgt.LB/GAL           8.5600: Mud Weight
CASETHCK.IN             0.4530: Casing Thickness
BITSIZE.IN             12.2500: Borehole I.D.
~Other Information
TOOL STRING DEPLOYED BY ALTUS INTERVENTION WIRELINE UNIT ON 7/16" CABLE
CABLE HEAD BUILT BY ALTUS
LOG CORRELATED TO SHLUMBERGER 4.5" HSD OX POWER JET PULS DATED 09.APRIL.2014
CORRELATION LOG IS SHALLOWER BY 1.4M, DEPTH SHIFTED 1.4M DOWN AS PER
CLIENTS REQUEST.
4.655" HSC GUN 10 AND 350 DEGREE PHASING, 39 GR MILLENIUM, 4 SHOTS PER FOOT.
ATTEMPT WAS MADE TO RUN 4 GUNS IN ONE STRING BUT AT 3600M PICK UP WEIGHT 
WAS TOO HIGH TO CONTINUE.  CLIENT D4ECIDED TO SPLIT UP ONTO TWO RUNS.
RUN #1 CCL TO TOP SHOT 3.25 M, CCL STOP DEPT: 3729.75 M
PERFORATION INTERVAL 3733M - 3742.6M
RUN #2 CCL TO TOP SHOT 3.25 M, CCL STOP DEPT: 3711.75 M
PERFORATION INTERVAL 3715M - 3724.6M

~A  Depth       LSPD        LTEN       MINMK       HVOLTA       CCL     
# ...
  3746.3000      9.7841   6395.7754      0.0000      3.5164     -0.1239
  3746.2500      9.8207   6366.5825      0.0000      3.4958     -0.0812
  3746.2000      9.8207   6366.5825      0.0000      3.4958     -0.0641
  3746.1500      9.8207   6369.1699      0.0000      3.5164     -0.0687
  3746.1000      9.8207   6407.1885      0.0000      3.4958     -0.0137
  3746.0500      9.8207   6407.1885      0.0000      3.4958     -0.0037
  3746.0000      9.8207   6461.2876      0.0000      3.4958     -0.0159
  3745.9500      9.8207   6500.9141      0.0000      3.4859     -0.0165
  3745.9000      9.7688   6500.9141      0.0000      3.4859     -0.0079
  3745.8500      9.7688   6527.5605      0.0000      3.4859     -0.0104
  3745.8000      9.7688   6559.9907      0.0000      3.4958     -0.0043
  3745.7500      9.7506   6559.9907      0.0000      3.4958     -0.0095
  3745.7000      9.7506   6596.3604      0.0000      3.5057     -0.0098
  3745.6500      9.7506   6596.3604      0.0000      3.5057     -0.0024
  3745.6000      9.7323   6628.6890      0.0000      3.4859     -0.0052
  3745.5500      9.7323   6653.9878      0.0000      3.5263     -0.0052
  3745.5000      9.7323   6653.9878      0.0000      3.5263     -0.0162
  3745.4500      9.7140   6668.9707      0.0000      3.4859      0.0052
  3745.4000      9.7140   6684.0508      0.0000      3.4958      0.0046
  3745.3500      9.7140   6684.0508      0.0000      3.4958     -0.0015
  3745.3000      9.7140   6709.0522      0.0000      3.4859     -0.0235
  3745.2500      9.7140   6725.9897      0.0000      3.5263     -0.0397
  3745.2000      9.7140   6725.9897      0.0000      3.5263     -0.0558
  3745.1500      9.7140   6721.0991      0.0000      3.4149     -0.0330
  3745.1000      9.7506   6708.8530      0.0000      3.4958     -0.0949
  3745.0500      9.7506   6708.8530      0.0000      3.4958     -0.4016
  3745.0000      9.7506   6687.0796      0.0000      3.5263     -0.6659
  3744.9500      9.7506   6631.4731      0.0000      3.5263     -0.0677
  3744.9000      9.7506   6631.4731      0.0000      3.5263      0.0772
  3744.8500      9.7506   6548.8203      1.0000      3.4958     -0.8292
  3744.8000      9.7506   6463.0693      0.0000      3.4653      0.4788
  3744.7500      9.7688   6463.0693      0.0000      3.4653      0.2921
  3744.7000      9.7688   6370.8018      0.0000      3.4859     -1.0483
  3744.6500      9.7688   6269.4082      0.0000      3.4859      0.3265
  3744.6000      9.8024   6269.4082      0.0000      3.4859      0.1184
  3744.5500      9.8024   6183.7075      0.0000      3.5057     -0.2383
  3744.5000      9.8024   6135.9751      0.0000      3.5263     -0.4672
  3744.4500      9.7841   6135.9751      0.0000      3.5263      0.4453
  3744.4000      9.7841   6131.8540      0.0000      3.5362     -0.0568
  3744.3500      9.7841   6165.6489      0.0000      3.4454     -0.0656
  3744.3000      9.8207   6165.6489      0.0000      3.4454     -0.0061
  3744.2500      9.8207   6210.3560      0.0000      3.4653      0.0400
  3744.2000      9.8207   6240.3384      0.0000      3.4859     -0.0385
  3744.1500      9.8207   6240.3384      0.0000      3.4859     -0.0458
  3744.1000      9.7841   6263.7065      0.0000      3.5164     -0.0287
  3744.0500      9.7841   6263.7065      0.0000      3.5164     -0.0006
  3744.0000      9.7841   6292.8193      0.0000      3.4760      0.0058
  3743.9500      9.7841   6320.8770      0.0000      3.4958     -0.0195
  3743.9000      9.7841   6320.8770      0.0000      3.4958     -0.0266
  3743.8500      9.7841   6348.4902      0.0000      3.4859     -0.0250
  3743.8000      9.8024   6383.8618      0.0000      3.4958     -0.0064
  3743.7500      9.8024   6383.8618      0.0000      3.4958     -0.0064
  3743.7000      9.8024   6422.9272      0.0000      3.5164     -0.0058
  3743.6500      9.8207   6465.3423      0.0000      3.5164     -0.0076
  3743.6000      9.8207   6465.3423      0.0000      3.5164     -0.0174
  3743.5500      9.8207   6515.7319      0.0000      3.5263     -0.0143
  3743.5000      9.7841   6557.6738      0.0000      3.4859     -0.0098
  3743.4500      9.7841   6557.6738      0.0000      3.4859     -0.0156
  3743.4000      9.7841   6577.8862      0.0000      3.5263     -0.0232
  3743.3500      9.7841   6590.0273      0.0000      3.5362     -0.0098
  3743.3000      9.7841   6590.0273      0.0000      3.5362      0.0085
  3743.2500      9.7841   6592.7500      0.0000      3.4958      0.0522
  3743.2000      9.7841   6564.5093      0.0000      3.5164     -0.1218
  3743.1500      9.7688   6564.5093      0.0000      3.5164     -0.1340
  3743.1000      9.7688   6512.0923      0.0000      3.5164     -0.9039
  3743.0500      9.7688   6460.2461      0.0000      3.4859     -0.6049
  3743.0000      9.7688   6460.2461      0.0000      3.4859      0.2234
  3742.9500      9.7506   6413.8823      0.0000      3.5263     -0.2728
  3742.9000      9.7506   6374.4927      0.0000      3.4760     -0.4065
  3742.8500      9.7506   6374.4927      0.0000      3.4760     -0.1294
  3742.8000      9.7841   6351.4072      0.0000      3.5263      0.0528
  3742.7500      9.7841   6341.8662      0.0000      3.4859     -3.6346
  3742.7000      9.7841   6341.8662      0.0000      3.4859      0.6149
  3742.6500      9.7841   6344.2344      0.0000      3.4859     -1.1368
  3742.6000      9.7841   6368.0078      0.0000      3.4859      0.4959
  3742.5500      9.7841   6368.0078      0.0000      3.4859     -0.0803
  3742.5000      9.7841   6403.9048      0.0000      3.4859     -0.0177
  3742.4500      9.7841   6403.9048      0.0000      3.4859     -0.0024
  3742.4000      9.7841   6430.4497      0.0000      3.4653     -0.0067
  3742.3500      9.7841   6447.9395      0.0000      3.4859     -0.0067
  3742.3000      9.7841   6447.9395      0.0000      3.4859     -0.0043
  3742.2500      9.7841   6465.4419      0.0000      3.4355     -0.0171
  3742.2000      9.7841   6482.4771      0.0000      3.5263     -0.0079
  3742.1500      9.7841   6482.4771      0.0000      3.5263     -0.0040
  3742.1000      9.7841   6502.8018      0.0000      3.4859     -0.0211
  3742.0500      9.7841   6526.8394      0.0000      3.4859     -0.0266
  3742.0000      9.7323   6526.8394      0.0000      3.4859     -0.0082
  3741.9500      9.7323   6541.4565      0.0000      3.5461      0.0092
  3741.9000      9.7323   6546.4819      0.0000      3.4554     -0.0311
  3741.8500      9.7688   6546.4819      0.0000      3.4554     -0.0360
  3741.8000      9.7688   6549.6250      0.0000      3.4859      0.0931
  3741.7500      9.7688   6537.2319      0.0000      3.4859      0.0064
  3741.7000      9.7140   6537.2319      0.0000      3.4859      0.0363
  3741.6500      9.7140   6502.9541      0.0000      3.4958     -0.1431
  3741.6000      9.7140   6467.0107      0.0000      3.4248     -0.1471
  3741.5500      9.7140   6467.0107      0.0000      3.4248     -0.1868
  3741.5000      9.7323   6432.2803      0.0000      3.4554     -0.1099
  3741.4500      9.7323   6382.7334      0.0000      3.4859     -0.1456
  3741.4000      9.7323   6382.7334      0.0000      3.4859     -0.3186
  3741.3500      9.7841   6330.9126      0.0000      3.4859     -0.5496
  3741.3000      9.7841   6300.6577      0.0000      3.4248      0.0439
  3741.2500      9.7841   6300.6577      0.0000      3.4248      0.3711
  3741.2000      9.7688   6284.6138      0.0000      3.4859      0.1071
  3741.1500      9.7688   6272.2925      0.0000      3.4554     -0.0058
  3741.1000      9.7688   6272.2925      0.0000      3.4554     -0.0305
  3741.0500      9.7688   6273.5112      0.0000      3.4958     -0.0027
  3741.0000      9.8024   6291.7529      0.0000      3.4958      0.0052
  3740.9500      9.8024   6291.7529      0.0000      3.4958     -0.0476
  3740.9000      9.8024   6322.2471      0.0000      3.4859     -0.0116
  3740.8500      9.8389   6322.2471      0.0000      3.4859     -0.0729
  3740.8000      9.8389   6359.7388      0.0000      3.4958     -0.0095
  3740.7500      9.8389   6389.8271      0.0000      3.4859     -0.0137
