~Version Information
VERS.                      2.0: CWLS Log ASCII Standard - VERSION 2.0
WRAP.                       NO: One line per depth step
~Well Information Block
STRT.M               3779.4000: START DEPTH
STOP.M               3680.8000: STOP DEPTH
STEP.M                 -0.0500: STEP
NULL.                -999.2500: NULL VALUE
COMP.                  STATOIL: COMPANY
WELL.               15/9-F-1-C: WELL
FLD.                     VOLVE: FIELD
LOC.                          : LOCATION
SRVC.          Halliburton Logging Services: SERVICE COMPANY
DATE.          Thu Dec 04 05-18-20 2014: LOG DATE
UWI.                          : UNIQUE WELL ID
CTRY.                   NORWAY: COUNTRY
SECT.                         : SECTION
TOWN.                         : TOWNSHIP
RANG.                         : RANGE
API.                          : API#
OS.                   --NONE--: OTHER SERVICES
PDAT.FT                  M.S.L: PERMANENT DATUM
EEL.FT                   54.9M: ELEVATION
LMF.FT                   R.K.B: LOG MEASURED FROM
DMF.FT                   R.K.B: DRILLING MEASURED FROM
EKB.FT                   54.9M: KB
EDF.FT                   54.9M: DF
EGL.FT                    -91M: GL
DATE1.         03-DEC-14 @ 05:47: DATE1
RUN1.                    1 & 2: RUN NUMBER
TDD1.FT                  4094M: DEPTH DRILLER
TDL1.FT                  3782M: DEPTH LOGGER
BLI1.FT                  3772M: BOTTOM LOGGED INTERVAL
TLI1.FT                  3572M: TOP LOG INTERVAL
CDD1.IN_FT                    : CASING DRILLER
CDL1.FT                       : CASING LOGGER
BS1.IN                    8.5": BIT SIZE
DFT1.                SEA WATER: TYPE FLUID IN HOLE
DFDV1.GM/C3_CP          1.03SG: DENSITY/VISCOSITY
DFPL1.C3                      : PH/FLUID LOSS
MSS1.                         : SOURCE OF SAMPLE
RMT1.OHHM_DEGF                : RM@MEASURED TEMP
RMFT1.OHMM_DEGF                : RMF@MEASURED TEMP
RMCT1.OHMM_DEGF                : RMC@MEASURED TEMP
RMFS1.                        : SOURCE OF RMF/RMC
RMBT1.OHMM_DEGF                : RM@BHT
TCS1.                         : TIME CIRCULATION STOPPED
TLOB1.                36 HOURS: TIME LOGGER ON BOTTOM
BHT1.DEGF                 FULL: MAXIMUM RECORDED TEMPERATURE
LUN1.                 12030699: EQUIPMENT NUMBER
LUL1.                   NORWAY: LOCATION
ENGI1.              C.JAMIESON: RECORDED BY
WITN1.                A.ALBAWI: WITNESSED BY
~Curve Information Block
DEPT.M             0 000 00 00: Depth
LSPD.M/MIN                   0: Line Speed
LTEN.LB                      0: Surface Line Tension
MINMK.                       0: Minute Mark Ticks
HVOLTA.V                     0: Head Voltage Apparent
CCL.                         0: Casing Collar Locator
~Parameter Information Block
SRFTEMP.DEGC           10.0000: Surface Temperature
MudWgt.LB/GAL           8.5000: Mud Weight
CASETHCK.IN             0.4530: Casing Thickness
BITSIZE.IN              8.5000: Borehole I.D.
~Other Information
TOOL STRING DEPLOYED BY ALTUS INTERVENTION WIRELINE UNIT ON 7/16" CABLE
CABLE HEAD BUILT BY ALTUS
LOG CORRELATED TO SHLUMBERGER 4.5" HSD OX POWER JET PULS DATED 09.APRIL.2014
CORRELATION LOG IS SHALLOWER BY 1.4M, DEPTH SHIFTED 1.4M DOWN AS PER
CLIENTS REQUEST.
4.655" HSC GUN 10 AND 350 DEGREE PHASING, 39 GR MILLENIUM, 4 SHOTS PER FOOT.
ATTEMPT WAS MADE TO RUN 4 GUNS IN ONE STRING BUT AT 3600M PICK UP WEIGHT 
WAS TOO HIGH TO CONTINUE.  CLIENT D4ECIDED TO SPLIT UP ONTO TWO RUNS.
RUN #1 CCL TO TOP SHOT 3.25 M, CCL STOP DEPT: 3729.75 M
PERFORATION INTERVAL 3733M - 3742.6M
RUN #2 CCL TO TOP SHOT 3.25 M, CCL STOP DEPT: 3711.75 M
PERFORATION INTERVAL 3715M - 3724.6M

~A  Depth       LSPD        LTEN       MINMK       HVOLTA       CCL     
# ...
  3751.4000      9.3756   7240.2622      0.0000      3.4851      0.2353
  3751.3500      9.3756   7191.7749      0.0000      3.4851     -0.0058
  3751.3000      9.3939   7191.7749      0.0000      3.4851     -0.0677
  3751.2500      9.3939   7124.0210      0.0000      3.5255      0.2734
  3751.2000      9.3939   7049.7212      0.0000      3.5156     -0.2145
  3751.1500      9.4458   7049.7212      0.0000      3.5156      1.3028
  3751.1000      9.4458   6971.3149      0.0000      3.5156      0.5057
  3751.0500      9.4458   6882.4995      0.0000      3.4950     -0.6717
  3751.0000      9.5006   6882.4995      0.0000      3.4950     -0.3430
  3750.9500      9.5006   6805.3052      0.0000      3.4950     -0.1611
  3750.9000      9.5006   6769.6572      0.0000      3.4752     -0.0256
  3750.8500      9.5006   6769.6572      0.0000      3.4752     -0.0977
  3750.8000      9.5189   6771.2422      0.0000      3.5255      0.0266
  3750.7500      9.5189   6794.5947      0.0000      3.4950     -0.0235
  3750.7000      9.5189   6794.5947      0.0000      3.4950      0.0031
  3750.6500      9.5006   6837.1680      0.0000      3.5255     -0.0116
  3750.6000      9.5006   6885.3511      0.0000      3.4546     -0.0153
  3750.5500      9.5006   6885.3511      0.0000      3.4546     -0.0049
  3750.5000      9.4275   6913.6890      0.0000      3.4851     -0.0067
  3750.4500      9.4275   6913.6890      0.0000      3.4851     -0.0082
  3750.4000      9.4275   6909.5122      0.0000      3.4950     -0.0024
  3750.3500      9.3756   6871.5884      0.0000      3.4851     -0.0055
  3750.3000      9.3756   6871.5884      0.0000      3.4851     -0.0327
  3750.2500      9.3756   6812.5854      0.0000      3.4950      0.0101
  3750.2000      9.3574   6763.1523      0.0000      3.4851     -0.0003
  3750.1500      9.3574   6763.1523      0.0000      3.4851     -0.0430
  3750.1000      9.3574   6738.6479      0.0000      3.4851      0.0089
  3750.0500      9.3574   6729.0728      0.0000      3.4950     -0.0577
  3750.0000      9.3574   6729.0728      0.0000      3.4950     -0.0031
  3749.9500      9.3574   6736.5708      1.0000      3.4950     -0.0443
  3749.9000      9.3939   6767.0269      0.0000      3.5156      0.0089
  3749.8500      9.3939   6767.0269      0.0000      3.5156      0.0891
  3749.8000      9.3939   6796.7437      0.0000      3.4851     -0.0513
  3749.7500      9.3939   6810.7437      0.0000      3.4851     -0.0082
  3749.7000      9.4458   6810.7437      0.0000      3.4851     -0.1508
  3749.6500      9.4458   6829.2729      0.0000      3.4950     -0.0381
  3749.6000      9.4458   6857.8052      0.0000      3.4851      0.0256
  3749.5500      9.4275   6857.8052      0.0000      3.4851     -0.0931
  3749.5000      9.4275   6877.8447      0.0000      3.4851      0.0067
  3749.4500      9.4275   6889.7891      0.0000      3.4851     -0.1086
  3749.4000      9.4458   6889.7891      0.0000      3.4851     -0.0479
  3749.3500      9.4458   6903.0264      0.0000      3.4142      0.0156
  3749.3000      9.4458   6908.7603      0.0000      3.4851     -0.0302
  3749.2500      9.4275   6908.7603      0.0000      3.4851      0.0467
  3749.2000      9.4275   6903.2422      0.0000      3.5255      0.0388
  3749.1500      9.4275   6894.0283      0.0000      3.4950     -0.0571
  3749.1000      9.3756   6894.0283      0.0000      3.4950     -0.5206
  3749.0500      9.3756   6876.0620      0.0000      3.4851      0.2426
  3749.0000      9.3756   6847.5322      0.0000      3.4851      0.0256
  3748.9500      9.4092   6847.5322      0.0000      3.4851      0.2170
  3748.9000      9.4092   6821.0557      0.0000      3.4752     -0.1004
  3748.8500      9.4092   6821.0557      0.0000      3.4752     -0.0003
  3748.8000      9.3939   6799.0830      0.0000      3.4752     -0.0427
  3748.7500      9.3939   6781.9956      0.0000      3.5156     -0.0525
  3748.7000      9.3939   6781.9956      0.0000      3.5156      0.0110
  3748.6500      9.4275   6782.8076      0.0000      3.4447     -0.0076
  3748.6000      9.4275   6797.0332      0.0000      3.4645     -0.0131
  3748.5500      9.4275   6797.0332      0.0000      3.4645      0.0168
  3748.5000      9.4275   6799.2368      0.0000      3.4546      0.0781
  3748.4500      9.4640   6787.4863      0.0000      3.5255     -0.2618
  3748.4000      9.4640   6787.4863      0.0000      3.5255      0.0378
  3748.3500      9.4640   6782.6318      0.0000      3.4851     -0.2209
  3748.3000      9.4092   6786.1255      0.0000      3.4950      0.0446
  3748.2500      9.4092   6786.1255      0.0000      3.4950     -0.1782
  3748.2000      9.4092   6784.8657      0.0000      3.4851     -0.0577
  3748.1500      9.4640   6775.9688      0.0000      3.4447      0.0275
  3748.1000      9.4640   6775.9688      0.0000      3.4447     -0.1044
  3748.0500      9.4640   6760.8882      0.0000      3.5156     -0.1120
  3748.0000      9.4458   6744.0786      0.0000      3.4546      0.1254
  3747.9500      9.4458   6744.0786      0.0000      3.4546     -0.0754
  3747.9000      9.4458   6731.4482      0.0000      3.4851     -0.2585
  3747.8500      9.4092   6717.1787      0.0000      3.4447      0.0168
  3747.8000      9.4092   6717.1787      0.0000      3.4447     -0.0369
  3747.7500      9.4092   6701.4463      0.0000      3.4950      0.0046
  3747.7000      9.4640   6706.8755      0.0000      3.4851     -0.1041
  3747.6500      9.4640   6706.8755      0.0000      3.4851      0.0174
  3747.6000      9.4640   6739.5757      0.0000      3.4851     -0.0092
  3747.5500      9.4092   6775.9824      0.0000      3.5255     -0.0171
  3747.5000      9.4092   6775.9824      0.0000      3.5255     -0.0146
  3747.4500      9.4092   6812.2432      0.0000      3.4851     -0.0125
  3747.4000      9.4275   6863.8540      0.0000      3.4950     -0.0064
  3747.3500      9.4275   6863.8540      0.0000      3.4950     -0.0079
  3747.3000      9.4275   6921.8306      0.0000      3.5156     -0.0061
  3747.2500      9.4275   6921.8306      0.0000      3.5156     -0.0137
  3747.2000      9.4640   6968.1777      0.0000      3.4851     -0.0110
  3747.1500      9.4640   7001.3545      0.0000      3.4950     -0.0134
  3747.1000      9.4640   7001.3545      0.0000      3.4950     -0.0275
  3747.0500      9.4092   7017.8970      0.0000      3.4851     -0.0580
  3747.0000      9.4092   7013.0000      0.0000      3.5255      0.0034
  3746.9500      9.4092   7013.0000      0.0000      3.5255     -0.0922
  3746.9000      9.4458   6994.7686      0.0000      3.4950      0.0763
  3746.8500      9.4458   6963.9604      0.0000      3.4851     -0.0757
  3746.8000      9.4458   6963.9604      0.0000      3.4851     -0.1019
  3746.7500      9.4275   6912.4790      0.0000      3.4851      0.0174
  3746.7000      9.4275   6850.2266      0.0000      3.4851     -0.5789
  3746.6500      9.4275   6850.2266      0.0000      3.4851      2.5354
  3746.6000      9.3756   6788.9883      0.0000      3.4950     -0.1218
  3746.5500      9.3756   6729.9746      0.0000      3.4851      0.1694
  3746.5000      9.3756   6729.9746      0.0000      3.4851      0.1059
  3746.4500      9.4275   6693.2617      0.0000      3.4851     -0.0812
  3746.4000      9.4275   6697.9077      0.0000      3.4950     -0.0073
  3746.3500      9.4275   6697.9077      0.0000      3.4950     -0.0525
  3746.3000      9.3756   6718.7793      0.0000      3.4546     -0.0031
  3746.2500      9.3756   6726.5781      0.0000      3.4851     -0.0122
  3746.2000      9.3756   6726.5781      0.0000      3.4851     -0.0409
  3746.1500      9.3756   6737.0049      0.0000      3.4950     -0.0116
  3746.1000      9.3939   6770.5063      0.0000      3.4645     -0.0113
  3746.0500      9.3939   6770.5063      0.0000      3.4645     -0.0150
  3746.0000      9.3939   6816.1709      0.0000      3.4950     -0.0128
  3745.9500      9.4275   6860.7632      0.0000      3.4851     -0.0040
  3745.9000      9.4275   6860.7632      0.0000      3.4851     -0.0107
  3745.8500      9.4275   6898.1768      0.0000      3.4851     -0.0159
