~Version Information
VERS.                      2.0: CWLS Log ASCII Standard - VERSION 2.0
WRAP.                       NO: One line per depth step
~Well Information Block
STRT.M               3169.8000: START DEPTH
STOP.M               3077.9500: STOP DEPTH
STEP.M                 -0.0500: STEP
NULL.                -999.2500: NULL VALUE
COMP.                  Statoil: COMPANY
WELL.                15/9-F-12: WELL
FLD.                     Volve: FIELD
LOC.                          : LOCATION
SRVC.          Halliburton Logging Services: SERVICE COMPANY
DATE.          Wed Nov 26 07-41-16 2014: LOG DATE
UWI.                          : UNIQUE WELL ID
SECT.                         : SECTION
TOWN.                         : TOWNSHIP
RANG.                         : RANGE
API.                          : API#
OS.                           : OTHER SERVICES
PDAT.FT                       : PERMANENT DATUM
EEL.FT                        : ELEVATION
LMF.FT                        : LOG MEASURED FROM
DMF.FT                        : DRILLING MEASURED FROM
EKB.FT                        : KB
EDF.FT                        : DF
EGL.FT                        : GL
DATE1.                        : DATE1
RUN1.                         : RUN NUMBER
TDD1.FT                       : DEPTH DRILLER
TDL1.FT                       : DEPTH LOGGER
BLI1.FT                       : BOTTOM LOGGED INTERVAL
TLI1.FT                       : TOP LOG INTERVAL
CDD1.IN_FT                    : CASING DRILLER
CDL1.FT                       : CASING LOGGER
BS1.IN                        : BIT SIZE
DFT1.                         : TYPE FLUID IN HOLE
DFDV1.GM/C3_CP                : DENSITY/VISCOSITY
DFPL1.C3                      : PH/FLUID LOSS
MSS1.                         : SOURCE OF SAMPLE
RMT1.OHHM_DEGF                : RM@MEASURED TEMP
RMFT1.OHMM_DEGF                : RMF@MEASURED TEMP
RMCT1.OHMM_DEGF                : RMC@MEASURED TEMP
RMFS1.                        : SOURCE OF RMF/RMC
RMBT1.OHMM_DEGF                : RM@BHT
TCS1.                         : TIME CIRCULATION STOPPED
TLOB1.                        : TIME LOGGER ON BOTTOM
BHT1.DEGF                     : MAXIMUM RECORDED TEMPERATURE
LUN1.                         : EQUIPMENT NUMBER
LUL1.                         : LOCATION
ENGI1.                        : RECORDED BY
WITN1.                        : WITNESSED BY
~Curve Information Block
DEPT.M             0 000 00 00: Depth
LSPD.M/MIN                   0: Line Speed
LTEN.LB                      0: Surface Line Tension
MINMK.                       0: Minute Mark Ticks
GR.GAPI                      0: Gamma Ray
CCL.                         0: Casing Collar Locator
ACCX.                        0: X Axis Accelerometer
ACCY.                        0: Y Axis Accelerometer
ACCZ.                        0: Z Axis Accelerometer
RB.DEG                       0: Relative Bearing
DEVI.DEG                     0: Deviation
TOTG.GEE                     0: Total G
RBRef.DEG                    0: RB Reference
IntTemp.DEGF                 0: Internal Electronics Temperature
~Parameter Information Block
~A  Depth       LSPD        LTEN       MINMK         GR         CCL         ACCX        ACCY        ACCZ         RB         DEVI        TOTG       RBRef      IntTemp   
# ...
  3165.0000      9.9456   4738.7461      0.0000     13.4712    380.0000    737.9000  -2837.0000   2145.8999    284.5795      0.0248   3632.8984     75.4205    224.5009
  3164.9500      9.9456   4784.7183      0.0000     11.7169    318.0000    735.2000  -2854.5000   2136.1001    284.4431      0.0247   3640.2766     75.5569    224.5023
  3164.9000      9.9822   4832.1055      0.0000     10.9023    389.0000    755.1000  -2836.0000   2131.8000    284.9094      0.0248   3627.3467     75.0906    224.5086
  3164.8500      9.9822   4881.4814      0.0000     10.7143    337.0000    787.4000  -2847.8000   2169.5000    285.4558      0.0246   3665.6096     74.5442    224.5262
  3164.8000      9.9822   4866.0405      0.0000     12.5314    423.0000    812.7000  -2851.2000   2156.6001    285.9095      0.0245   3666.1624     74.0904    224.5311
  3164.7500     10.0005   4864.8516      0.0000     16.2282    343.0000    848.5000  -2842.0000   2136.8000    286.6234      0.0246   3655.5205     73.3766    224.5430
  3164.7000     10.0005   4907.0112      0.0000     21.1781    374.0000    896.4000  -2821.6001   2129.3999    287.6246      0.0247   3646.8210     72.3754    224.5606
  3164.6500     10.0005   4945.9033      0.0000     27.4437    403.0000    928.2000  -2786.6001   2098.6001    288.4226      0.0249   3609.8225     71.5774    224.5627
  3164.6000      9.9639   4923.0786      0.0000     34.1480    381.0000    958.4000  -2792.8999   2105.8999    288.9400      0.0248   3626.7939     71.0600    224.5634
  3164.5500      9.9639   4877.1431      0.0000     38.3461    354.0000    975.9000  -2771.3000   2114.7000    289.3995      0.0249   3620.0056     70.6005    224.5747
  3164.5000      9.9639   4796.1880      0.0000     43.4839    342.0000   1007.7000  -2737.6001   2142.7000    290.2085      0.0249   3619.5410     69.7915    224.5761
  3164.4500      9.9639   4782.3740      0.0000     44.9877    368.0000   1034.6000  -2743.3999   2136.6001    290.6626      0.0248   3627.9058     69.3374    224.5782
  3164.4000     10.0005   4779.6860      0.0000     43.9225    366.0000   1034.9000  -2735.5000   2132.8000    290.7227      0.0249   3619.7810     69.2773    224.5909
  3164.3500     10.0005   4762.9736      0.0000     41.1030    369.0000   1063.7000  -2730.8000   2143.0000    291.2819      0.0248   3630.5889     68.7181    224.6028
  3164.3000     10.0005   4692.9199      0.0000     32.8949    372.0000   1102.9000  -2715.7000   2164.3000    292.1031      0.0247   3643.5710     67.8969    224.6035
  3164.2500     10.0188   4665.1973      0.0000     27.2558    362.0000   1131.1000  -2707.7000   2148.8000    292.6720      0.0247   3637.0823     67.3280    224.5951
  3164.2000     10.0188   4701.1323      0.0000     22.8071    319.0000   1171.8000  -2693.3999   2138.3999    293.5121      0.0248   3633.2180     66.4879    224.5831
  3164.1500     10.0188   4771.0898      0.0000     19.2983    453.0000   1199.1000  -2672.7000   2127.7000    294.1633      0.0249   3620.5349     65.8367    224.5606
  3164.1000      9.9456   4811.3037      0.0000     18.1079    258.0000   1248.7000  -2660.6001   2164.8000    295.1421      0.0247   3650.2607     64.8579    224.5360
  3164.0500      9.9456   4800.0552      0.0000     18.9851    343.0000   1291.7000  -2667.1001   2191.5000    295.8413      0.0244   3685.7271     64.1587    224.5142
  3164.0000      9.9456   4792.4678      0.0000     20.6141    442.0000   1326.3000  -2623.8999   2173.6001    296.8152      0.0246   3656.2905     63.1848    224.5009
  3163.9500      9.9090   4865.0713      0.0000     22.9324    374.0000   1376.9000  -2639.7000   2137.8999    297.5471      0.0246   3665.3083     62.4529    224.4889
  3163.9000      9.9090   4905.2969      0.0000     24.4989    330.0000   1400.9000  -2638.1001   2166.0000    297.9695      0.0244   3689.6680     62.0305    224.4854
  3163.8500      9.9090   4913.6152      0.0000     27.3811    374.0000   1424.3000  -2600.7000   2169.8000    298.7078      0.0245   3674.2759     61.2922    224.4770
  3163.8000      9.9090   4860.6528      0.0000     30.2633    335.0000   1480.3000  -2551.3999   2174.0000    300.1219      0.0246   3664.3152     59.8781    224.4643
  3163.7500      9.8755   4844.6323      0.0000     31.8924    363.0000   1516.3000  -2485.2000   2124.3000    301.3887      0.0250   3603.8916     58.6113    224.4594
  3163.7000      9.8755   4852.6646      0.0000     32.4563    365.0000   1529.4000  -2482.0000   2112.6001    301.6412      0.0250   3600.3428     58.3588    224.4601
  3163.6500      9.8755   4870.3818      0.0000     33.3962    369.0000   1563.4000  -2460.2000   2109.7000    302.4350      0.0250   3598.2825     57.5650    224.4643
  3163.6000      9.8207   4856.1719      0.0000     33.1455    371.0000   1594.2000  -2438.6001   2092.8000    303.1741      0.0251   3587.2073     56.8259    224.4748
  3163.5500      9.8207   4818.1836      0.0000     33.0829    373.0000   1615.1000  -2445.5000   2071.7000    303.4423      0.0251   3589.0054     56.5577    224.4959
  3163.5000      9.8207   4798.0010      0.0000     32.5816    407.0000   1618.1000  -2455.6001   2050.8999    303.3826      0.0251   3585.3047     56.6174    224.5135
  3163.4500      9.8572   4799.7637      0.0000     32.3310    384.0000   1625.8000  -2472.8000   2063.1001    303.3239      0.0249   3607.5405     56.6761    224.5198
  3163.4000      9.8572   4822.6392      0.0000     32.3936    367.0000   1620.3000  -2470.1001   2076.7000    303.2635      0.0249   3611.0178     56.7365    224.5241
  3163.3500      9.8572   4828.0273      0.0000     31.9550    360.0000   1627.1000  -2464.0000   2133.2000    303.4388      0.0247   3642.7041     56.5613    224.5283
  3163.3000      9.8572   4810.0029      0.0000     31.5164    326.0000   1621.7000  -2458.5000   2132.1001    303.4100      0.0248   3635.9297     56.5900    224.5276
  3163.2500      9.8207   4808.4556      0.0000     31.5164    365.0000   1613.7000  -2458.8000   2155.8999    303.2767      0.0247   3646.5916     56.7233    224.5262
  3163.2000      9.8207   4843.8022      0.0000     31.1405    367.0000   1621.9000  -2451.1001   2175.7000    303.4927      0.0246   3656.7913     56.5073    224.5367
  3163.1500      9.8207   4877.0942      0.0000     29.9500    379.0000   1626.6000  -2445.0000   2167.6001    303.6349      0.0247   3649.9785     56.3651    224.5430
  3163.1000      9.8024   4877.4824      0.0000     29.2608    344.0000   1632.6000  -2442.8000   2177.6001    303.7560      0.0246   3657.1296     56.2439    224.5409
  3163.0500      9.8024   4857.8286      0.0000     27.8197    334.0000   1626.7000  -2428.3999   2163.5000    303.8167      0.0247   3636.4834     56.1833    224.5381
  3163.0000      9.8024   4857.2798      0.0000     26.8172    354.0000   1627.1000  -2454.0000   2124.2000    303.5460      0.0248   3630.6743     56.4540    224.5360
  3162.9500      9.8024   4869.5488      0.0000     25.9400    361.0000   1623.1000  -2485.3000   2124.3000    303.1478      0.0247   3650.1809     56.8522    224.5290
  3162.9000      9.8024   4869.4189      0.0000     24.6242    373.0000   1622.5000  -2498.8999   2111.8000    302.9951      0.0246   3651.9456     57.0049    224.5318
  3162.8500      9.8024   4844.9409      0.0000     23.4337    375.0000   1616.9000  -2501.1001   2085.6001    302.8817      0.0248   3635.8762     57.1183    224.5459
  3162.8000      9.8024   4826.4937      0.0000     23.1204    399.0000   1594.9000  -2520.6001   2088.7000    302.3234      0.0247   3641.4006     57.6766    224.5585
  3162.7500      9.8207   4804.7769      0.0000     22.6818    361.0000   1600.7000  -2528.8999   2072.0000    302.3323      0.0247   3640.1592     57.6677    224.5648
  3162.7000      9.8207   4796.8457      0.0000     21.5540    356.0000   1577.7000  -2518.5000   2110.3000    302.0648      0.0247   3644.9067     57.9352    224.5613
  3162.6500      9.8207   4806.1714      0.0000     20.9274    358.0000   1580.5000  -2522.2000   2111.8999    302.0727      0.0247   3649.6018     57.9273    224.5529
