~Version Information
VERS.             2.0 : CWLS log ASCII standard - Version 2.0
WRAP.             NO  : One line per depth step
#
~Well Information Block
#MNEM.UNIT                   Data Type:Information
#__________________________________________________________
 STRT .M           2450.13480  :START INDEX                  
  STOP.M           3113.3796 : STOP INDEX                    
 STEP .M              0.00000  :STEP                         
  NULL.              -999.25 : NULL VALUE                    
  COMP.              Statoil : COMPANY                       
  WELL.            15_9_F-12 : WELL                          
   FLD.                Volve : FIELD                         
   LOC.           Maersk Inspirer : LOCATION                      
  PROV.                      : PROVINCE                      
  CNTY.                      : COUNTY                        
  STAT.                      : STATE                         
  CTRY.                      : COUNTRY                       
  SRVC.              SLB D&M : SERVICE COMPANY               
  DATE.                      : LOG DATE                      
   UWI.                      : UNIQUE WELL ID                
   API.                      : API NUMBER                    
#
~Curve Information Block
#MNEM.UNIT                     : Curve Description
#---------                     --------------------
DEPT        .M                 : Bit Depth 2hz                                                   
TVDE        .M                 : SVY TVD_EXTR 2hz                                                
ARC_GR_RT   .GAPI              : ARC Gamma Ray, Real-Time                                        
ROP5        .M/HR              : 5ft ROP 2hz                                                     
SWOB        .KKGF              : Surface Weight on Bit 2hz                                       
RPM         .RPM               : SRF SRPM 2hz                                                    
TFLO        .LPM               : HSPM Total Pump Flow 2hz                                        
TRPM_RT     .RPM               : MWD TUR_RPM 2hz                                                 
SPPA        .BAR               : SRF PUMPRS 2hz                                                  
TQA         .KMN               : SRF STOR 2hz                                                    
SHKRSK_RT   .----              : MWD SHKRSK 2hz                                                  
SHK2_RT     .----              : ARC Shock Level, Real-Time                                      
SHK_ADN_RT  .----              : ADN Shock Level, Real-Time                                      
PDSHKRSK    .----              : PowerDrive Shock Risk 2hz                                       
ECD_ARC     .G/C3              : Equivalent Circulating Density                                  
ATMP        .DEGC              : ARC Annular Temperature                                         
APRS_ARC    .BAR               : ARC Annular Pressure                                            
#
~Parameter Information Block
#MNEM.UNIT                       Value:Description
#__________________________________________________________
#
~Other Information Block

#
~A    DEPT       TVDE  ARC_GR_RT       ROP5       SWOB        RPM       TFLO    TRPM_RT       SPPA        TQA  SHKRSK_RT    SHK2_RT SHK_ADN_RT   PDSHKRSK    ECD_ARC       ATMP   APRS_ARC
# ...
 2771.2417  2651.6314    16.8020     3.8486     4.2751   147.2293  3355.3906  2519.5313   212.9097    24.6417     0.0000     0.0000     0.0000     0.0000     1.3841    84.0000   359.4238
 2771.3940  2651.7517    14.7039     3.4376     6.1285   148.7289  3418.7527  2539.0625   216.3863    23.9003     0.0000     0.0000     0.0000     0.0000     1.3848    84.0000   359.6307
 2771.5464  2651.8797    15.7355     3.2330     6.6877   149.0433  3221.7626  2539.0625   200.9056    24.7039    -999.25     0.0000    -999.25     2.0000     1.3853    84.0000   359.7686
 2771.6987  2651.9999    14.7039     3.0569     6.8604   148.7487  3119.5913  2369.7917   193.0289    25.3854     0.0000     0.0000     0.0000     0.0000     1.3855    84.0000   359.8375
 2771.8513  2652.1199    20.2114     3.0121     7.3853   149.0494  3149.6826    -999.25   193.4620    25.7745    -999.25     0.0000     0.0000    -999.25     1.3857    84.0000   359.9065
 2772.0037  2652.2402    22.6591     2.8823     7.7955   148.4755  3311.8501  2500.0000   213.2957    25.3206     0.0000     0.0000    -999.25     0.0000     1.3853    84.0000   359.8375
 2772.1560  2652.3681    19.0399     2.8462     7.3547   148.5690  3336.9857    -999.25   216.4518    25.2874    -999.25     0.0000     0.0000     1.0000     1.3855    84.0000   359.9065
 2772.3083  2652.4881    20.2114     2.7830     7.4080   148.8119  3360.5050  2519.5313   216.4763    25.9738    -999.25     0.0000    -999.25     1.0000     1.3855    84.0000   359.9065
 2772.4607  2652.6084    19.0399     2.7550     7.0528   148.4891  3400.9950  2500.0000   216.6322    25.1150     0.0000     0.0000    -999.25     1.0000     1.3854    84.0000   359.9065
 2772.6133  2652.7283    14.7039     2.9437     6.8820   149.3039  3424.1954  2500.0000   216.5850    27.8303     0.0000     0.0000     0.0000     0.0000     1.3851    84.0000   359.8375
 2772.7656  2652.8566    13.7074     3.5489     6.9442   148.7674  3389.5503  2500.0000   216.7814    27.1539     0.0000     0.0000     0.0000     0.0000     1.3842    84.0000   359.6307
 2772.9180  2652.9763    16.8020     3.9773     7.0292   148.7556  3352.2928  2500.0000   216.7091    26.8979     0.0000     0.0000    -999.25     0.0000     1.3852    84.0000   359.9065
 2773.0703  2653.0968    20.2114     4.2077     7.4846   148.4462  3368.8867  2539.0625   216.8606    27.0418     0.0000     0.0000     0.0000     0.0000     1.3847    84.0000   359.7686
 2773.2229  2653.2165    21.4178     4.5188     7.0655   148.8904  3422.4556  2500.0000   216.8142    27.3930     0.0000     0.0000     0.0000     0.0000     1.3849    84.0000   359.8375
 2773.3752  2653.3448    27.9742     4.6918     6.8006   147.9828  3431.4416  2500.0000   216.5019    26.0047    -999.25    -999.25    -999.25     0.0000     1.3845    84.0000   359.7686
 2773.5276  2653.4647    33.8488     5.0082     7.2176   149.2714  3438.2183  2500.0000   216.3550    27.9761     0.0000     0.0000     0.0000     0.0000     1.3845    84.0000   359.7686
 2773.6799  2653.5850    32.3277     5.5110     6.3238   148.8227  3397.8489    -999.25   216.6738    29.5090     0.0000     0.0000    -999.25     1.0000     1.3841    84.0000   359.6996
 2773.8325  2653.7049    32.3277     6.0179     6.8705   147.9632  3410.5297  2500.0000   216.5060    26.0538    -999.25     0.0000     0.0000     1.0000     1.3846    84.0000   359.8375
 2773.9849  2653.8252    27.9742     6.3305     6.7124   148.0000  3418.7966  2500.0000   216.6128    30.4193     0.0000     0.0000     0.0000    -999.25     1.3843    84.0000   359.7686
 2774.1372  2653.9532    25.2467     6.5587     6.2675   146.5289  3381.6234  2500.0000   216.4257    28.8005    -999.25    -999.25    -999.25     0.0000     1.3848    84.0000   359.9065
 2774.2896  2654.0731    26.5930     6.6118     7.0845   148.2025  3435.6710  2500.0000   216.3426    30.7685     0.0000     0.0000     0.0000    -999.25     1.3839    84.0000   359.6996
 2774.4419  2654.1934    26.5930     6.4825     7.2036   146.2381  3424.2829  2500.0000   216.3749    27.7099     0.0000     0.0000    -999.25     1.0000     1.3846    84.0000   359.9065
 2774.5945  2654.3133    16.8020     5.9993     7.0718   147.7947  3429.0348  2519.5313   216.5157    27.5097     0.0000     0.0000     0.0000     1.0000     1.3835    84.0000   359.6307
 2774.7468  2654.4416    -999.25     5.7262     7.4205   147.5261  3410.5294  2500.0000   216.5824    27.1165     0.0000     0.0000    -999.25     1.0000     1.3840    84.0000   359.7686
 2774.8992  2654.5613    21.4178     5.3198     7.3512   148.0313  3422.3574  2500.0000   216.7681    25.9266     0.0000     0.0000     0.0000     0.0000     1.3834    84.0000   359.6307
 2775.0515  2654.6818    -999.25     4.9729     6.8516   148.2186  3421.4571  2578.1250   217.4628    26.9797     0.0000     0.0000    -999.25     0.0000     1.3839    84.0000   359.7686
 2775.2041  2654.8015    -999.25     4.6169     7.3760   148.2411  3408.7693    -999.25   218.3732    26.3380     0.0000     0.0000     0.0000     0.0000     1.3753    80.0000   357.5622
 2775.3564  2654.9298    29.3904     4.3602     7.4331   148.5218  3407.0164    -999.25   218.1951    27.3420     0.0000     0.0000    -999.25     0.0000     1.3777    80.0000   358.1828
 2775.5088  2655.0500    26.5930     4.1626     7.4549   148.7731  3418.3091  2539.0625   217.0559    27.9433     0.0000     0.0000     0.0000     0.0000     1.3768    80.0000   357.9759
 2775.6611  2655.1700    29.3904     4.0446     6.6982   147.3131  3416.5324    -999.25   216.5701    27.1504    -999.25     0.0000     0.0000     2.0000     1.3759    80.0000   357.7691
 2775.8137  2655.2899    38.6219     4.0917     6.2674   148.5669  3457.3637    -999.25   216.5046    29.7811     0.0000    -999.25    -999.25     1.0000     1.3775    80.0000   358.1828
 2775.9661  2655.4179    26.5930     4.1182     7.1528   147.8646  3409.9869  2539.0625   216.1626    30.6922     0.0000     0.0000     0.0000     1.0000     1.3771    80.0000   358.1138
 2776.1184  2655.5385    22.6591     4.1690     7.0855   147.8964  3403.6074    -999.25   215.9432    26.4287     0.0000     0.0000    -999.25     0.0000     1.3776    81.0000   358.2517
 2776.2708  2655.6581    29.3904     4.1964     6.7328   148.3183  3408.3830  2539.0625   215.4581    28.3758     0.0000     0.0000     0.0000     0.0000     1.3762    81.0000   357.9070
 2776.4231  2655.7784    23.9354     4.3873     7.3282   148.2136  3443.8835  2539.0625   215.2391    27.0775     0.0000    -999.25     0.0000     0.0000     1.3767    81.0000   358.0449
 2776.5757  2655.9064    27.9742     4.3822     7.3062   148.7370  3415.8023  2539.0625   214.9639    27.3145     0.0000     0.0000    -999.25     0.0000     1.3780    81.0000   358.3896
 2776.7280  2656.0266    17.9035     4.3191     7.3133   147.9713  3413.1058  2578.1250   214.6590    28.6344     0.0000     0.0000     0.0000    -999.25     1.3787    81.0000   358.5965
 2776.8804  2656.1466    26.5930     4.2004     6.8414   148.5920  3420.2367  2558.5938   214.5483    26.9478     0.0000     0.0000    -999.25     0.0000     1.3792    81.0000   358.7344
 2777.0327  2656.2668    38.6219     4.3434     7.0524   147.3006  3421.9508  2539.0625   214.2810    28.0655     0.0000     0.0000     0.0000     0.0000     1.3781    81.0000   358.4586
 2777.1853  2656.3948    38.6219     4.5305     6.5367   144.0744  3433.0455    -999.25   214.2903    29.6458     0.0000    -999.25     0.0000     0.0000     1.3785    81.0000   358.5965
 2777.3376  2656.5148    38.6219     4.6313     6.9415   143.5811  3473.5080  2578.1250   214.2204    28.2874    -999.25     0.0000    -999.25    -999.25     1.3793    81.0000   358.8033
 2777.4900  2656.6350    36.9959     4.8487     7.6937   147.9535  3410.2871    -999.25   214.1672    34.0302     0.0000    -999.25     0.0000     0.0000     1.3792    82.0000   358.8033
 2777.6423  2656.7547    29.3904     5.3282     7.8708   147.1146  3476.4515  2539.0625   214.0733    33.0713    -999.25     0.0000    -999.25    -999.25     1.3789    82.0000   358.7344
