~Version Information
VERS.                      2.0: CWLS Log ASCII Standard - VERSION 2.0
WRAP.                       NO: One line per depth step
~Well Information Block
STRT.M               3169.8000: START DEPTH
STOP.M               3077.9500: STOP DEPTH
STEP.M                 -0.0500: STEP
NULL.                -999.2500: NULL VALUE
COMP.                  Statoil: COMPANY
WELL.                15/9-F-12: WELL
FLD.                     Volve: FIELD
LOC.                          : LOCATION
SRVC.          Halliburton Logging Services: SERVICE COMPANY
DATE.          Wed Nov 26 07-41-16 2014: LOG DATE
UWI.                          : UNIQUE WELL ID
SECT.                         : SECTION
TOWN.                         : TOWNSHIP
RANG.                         : RANGE
API.                          : API#
OS.                           : OTHER SERVICES
PDAT.FT                       : PERMANENT DATUM
EEL.FT                        : ELEVATION
LMF.FT                        : LOG MEASURED FROM
DMF.FT                        : DRILLING MEASURED FROM
EKB.FT                        : KB
EDF.FT                        : DF
EGL.FT                        : GL
DATE1.                        : DATE1
RUN1.                         : RUN NUMBER
TDD1.FT                       : DEPTH DRILLER
TDL1.FT                       : DEPTH LOGGER
BLI1.FT                       : BOTTOM LOGGED INTERVAL
TLI1.FT                       : TOP LOG INTERVAL
CDD1.IN_FT                    : CASING DRILLER
CDL1.FT                       : CASING LOGGER
BS1.IN                        : BIT SIZE
DFT1.                         : TYPE FLUID IN HOLE
DFDV1.GM/C3_CP                : DENSITY/VISCOSITY
DFPL1.C3                      : PH/FLUID LOSS
MSS1.                         : SOURCE OF SAMPLE
RMT1.OHHM_DEGF                : RM@MEASURED TEMP
RMFT1.OHMM_DEGF                : RMF@MEASURED TEMP
RMCT1.OHMM_DEGF                : RMC@MEASURED TEMP
RMFS1.                        : SOURCE OF RMF/RMC
RMBT1.OHMM_DEGF                : RM@BHT
TCS1.                         : TIME CIRCULATION STOPPED
TLOB1.                        : TIME LOGGER ON BOTTOM
BHT1.DEGF                     : MAXIMUM RECORDED TEMPERATURE
LUN1.                         : EQUIPMENT NUMBER
LUL1.                         : LOCATION
ENGI1.                        : RECORDED BY
WITN1.                        : WITNESSED BY
~Curve Information Block
DEPT.M             0 000 00 00: Depth
LSPD.M/MIN                   0: Line Speed
LTEN.LB                      0: Surface Line Tension
MINMK.                       0: Minute Mark Ticks
GR.GAPI                      0: Gamma Ray
CCL.                         0: Casing Collar Locator
ACCX.                        0: X Axis Accelerometer
ACCY.                        0: Y Axis Accelerometer
ACCZ.                        0: Z Axis Accelerometer
RB.DEG                       0: Relative Bearing
DEVI.DEG                     0: Deviation
TOTG.GEE                     0: Total G
RBRef.DEG                    0: RB Reference
IntTemp.DEGF                 0: Internal Electronics Temperature
~Parameter Information Block
~A  Depth       LSPD        LTEN       MINMK         GR         CCL         ACCX        ACCY        ACCZ         RB         DEVI        TOTG       RBRef      IntTemp   
# ...
  3141.0000      9.6439   4779.0679      0.0000     43.2960    368.0000   1730.2000   2424.7000   2177.5000     54.4894      0.0244   3689.7517    -54.4894    224.6555
  3140.9500      9.6439   4800.1426      0.0000     44.7371    367.0000   1688.7000   2425.8000   2159.3999     55.1566      0.0246   3660.4946    -55.1566    224.6682
  3140.9000      9.6439   4781.7056      0.0000     45.8649    366.0000   1607.1000   2470.3999   2137.3000     56.9543      0.0247   3640.5627    -56.9543    224.6914
  3140.8500      9.5890   4703.2432      0.0000     47.0554    364.0000   1545.7000   2489.7000   2139.0000     58.1664      0.0248   3628.1008    -58.1664    224.7125
  3140.8000      9.5890   4622.9912      0.0000     47.1180    366.0000   1449.5000   2528.1001   2136.7000     60.1720      0.0249   3613.5615    -60.1720    224.7146
  3140.7500      9.5890   4606.0288      0.0000     45.8649    365.0000   1391.3000   2524.8000   2104.2000     61.1429      0.0252   3569.0320    -61.1429    224.6872
  3140.7000      9.6073   4635.8242      0.0000     43.7972    367.0000   1335.8000   2568.8999   2075.3000     62.5261      0.0253   3562.3699    -62.5261    224.6534
  3140.6500      9.6073   4637.2153      0.0000     41.2283    367.0000   1291.3000   2611.5000   2073.3999     63.6891      0.0252   3575.8042    -63.6891    224.6197
  3140.6000      9.6073   4601.1431      0.0000     40.2884    371.0000   1254.1000   2634.6001   2120.8000     64.5450      0.0250   3607.1702    -64.5450    224.5880
  3140.5500      9.6591   4588.6670      0.0000     41.1030    366.0000   1236.9000   2647.8000   2114.1001     64.9607      0.0250   3606.9636    -64.9607    224.5648
  3140.5000      9.6591   4609.1235      0.0000     42.4814    355.0000   1213.6000   2674.1001   2085.8999     65.5898      0.0250   3602.0293    -65.5898    224.5606
  3140.4500      9.6591   4691.5039      0.0000     45.6143    374.0000   1171.8000   2711.8999   2102.0000     66.6310      0.0248   3625.7302    -66.6310    224.5705
  3140.4000      9.6439   4741.0322      0.0000     49.3737    374.0000   1151.0000   2707.8999   2131.2000     66.9720      0.0248   3633.1167    -66.9720    224.5789
  3140.3500      9.6439   4753.2930      0.0000     52.2559    379.0000   1139.2000   2717.0000   2159.3000     67.2524      0.0246   3652.7307    -67.2524    224.5845
  3140.3000      9.6439   4744.7964      0.0000     54.0730    330.0000   1112.0000   2740.1001   2138.6001     67.9115      0.0247   3649.4250    -67.9115    224.5951
  3140.2500      9.6439   4768.9580      0.0000     52.4439    379.0000   1067.8000   2765.8999   2129.6001     68.8905      0.0247   3650.4241    -68.8905    224.5993
  3140.2000      9.6439   4822.6450      0.0000     49.4990    379.0000   1029.4000   2787.6001   2131.3999     69.7319      0.0246   3656.9446    -69.7319    224.6007
  3140.1500      9.6439   4851.3906      0.0000     46.1782    364.0000    996.6000   2799.6001   2133.8000     70.4053      0.0246   3658.4253    -70.4053    224.6070
  3140.1000      9.6439   4831.0220      0.0000     39.4739    375.0000    921.7000   2840.3999   2123.0000     72.0219      0.0246   3663.9502    -72.0219    224.6162
  3140.0500      9.6256   4764.1553      0.0000     35.3385    368.0000    883.2000   2861.3000   2082.1001     72.8461      0.0247   3647.2209    -72.8461    224.6288
  3140.0000      9.6256   4713.3232      0.0000     33.3962    367.0000    842.7000   2871.2000   2060.7000     73.6430      0.0248   3633.2378    -73.6430    224.6408
  3139.9500      9.6256   4686.2290      0.0000     34.4613    366.0000    821.2000   2871.8000   2075.1001     74.0420      0.0247   3636.9829    -74.0420    224.6668
  3139.9000      9.5890   4646.7075      0.0000     36.4663    364.0000    800.7000   2856.7000   2086.6001     74.3424      0.0248   3627.0864    -74.3424    224.6795
  3139.8500      9.5890   4605.1709      0.0000     37.7195    368.0000    785.4000   2872.8999   2109.0000     74.7100      0.0247   3649.4231    -74.7100    224.6977
  3139.8000      9.5890   4547.9575      0.0000     40.2258    367.0000    787.1000   2858.8000   2133.2000     74.6064      0.0246   3652.7805    -74.6064    224.7083
  3139.7500      9.6439   4531.1323      0.0000     42.2934    368.0000    757.9000   2822.3999   2167.0000     74.9689      0.0247   3638.1648    -74.9689    224.7090
  3139.7000      9.6439   4560.2759      0.0000     42.0428    370.0000    764.2000   2810.3999   2186.1001     74.7880      0.0247   3641.6182    -74.7880    224.7041
  3139.6500      9.6439   4596.0571      0.0000     41.4789    361.0000    739.3000   2798.6001   2196.8000     75.2023      0.0248   3633.8213    -75.2023    224.6935
  3139.6000      9.6439   4610.0420      0.0000     41.0403    366.0000    695.4000   2781.6001   2200.7000     75.9638      0.0249   3614.4102    -75.9638    224.6731
  3139.5500      9.6439   4605.7661      0.0000     38.6593    340.0000    592.8000   2819.5000   2211.5000     78.1265      0.0248   3632.0413    -78.1265    224.6436
  3139.5000      9.6439   4623.7427      0.0000     36.9676    376.0000    493.8000   2832.0000   2206.6001     80.1091      0.0248   3623.9683    -80.1091    224.6218
  3139.4500      9.6439   4681.8623      0.0000     36.4663    329.0000    366.5000   2901.2000   2139.1001     82.8001      0.0248   3623.1248    -82.8001    224.6035
  3139.4000      9.6439   4753.3228      0.0000     36.6543    357.0000    250.8000   2936.0000   2118.1001     85.1175      0.0248   3628.9592    -85.1175    224.5951
  3139.3500      9.6439   4754.8042      0.0000     36.7170    382.0000    128.2000   2933.3000   2128.2000     87.4975      0.0248   3626.2817    -87.4975    224.5930
  3139.3000      9.6439   4740.2539      0.0000     38.3461    335.0000     13.7000   2941.5000   2135.8000     89.7331      0.0248   3635.1411    -89.7331    224.5930
  3139.2500      9.6439   4762.5186      0.0000     39.7245    355.0000   -103.4000   2967.2000   2090.3999     91.9958      0.0248   3631.0796    -91.9958    224.5951
  3139.2000      9.6439   4810.8682      0.0000     41.2283    374.0000   -223.9000   2941.8999   2056.8000     94.3522      0.0250   3596.5723    -94.3522    224.6000
  3139.1500      9.6439   4816.9663      0.0000     42.9827    369.0000   -267.6000   2886.7000   2070.2000     95.2962      0.0253   3562.3552    -95.2962    224.6000
  3139.1000      9.6256   4755.7363      0.0000     44.6118    368.0000   -319.0000   2899.7000   2104.8000     96.2779      0.0250   3597.2495    -96.2779    224.6021
  3139.0500      9.6256   4653.9429      0.0000     46.2408    366.0000   -391.9000   2909.1001   2124.5000     97.6724      0.0248   3623.5271    -97.6724    224.6105
  3139.0000      9.6256   4616.9839      0.0000     47.7446    366.0000   -450.0000   2888.5000   2105.6001     98.8549      0.0250   3602.7051    -98.8549    224.6169
  3138.9500      9.6073   4602.6221      0.0000     47.8699    367.0000   -485.6000   2896.2000   2105.3999     99.5181      0.0249   3613.3765    -99.5181    224.6232
  3138.9000      9.6073   4586.1875      0.0000     47.1180    373.0000   -505.9000   2903.0000   2138.3999     99.8855      0.0247   3640.8926    -99.8855    224.6295
  3138.8500      9.6073   4513.8530      0.0000     43.6719    371.0000   -544.1000   2896.8999   2136.6001    100.6374      0.0247   3640.4854   -100.6374    224.6274
  3138.8000      9.6774   4465.5850      0.0000     41.0403    370.0000   -579.4000   2892.1001   2149.8000    101.3286      0.0247   3649.8750   -101.3286    224.6190
  3138.7500      9.6774   4473.9824      0.0000     37.2182    380.0000   -593.8000   2890.5000   2137.3000    101.6089      0.0247   3643.5752   -101.6089    224.6134
  3138.7000      9.6774   4562.7842      0.0000     32.8322    377.0000   -624.9000   2898.0000   2140.3999    102.1685      0.0246   3656.5305   -102.1685    224.6021
  3138.6500      9.6439   4620.3110      0.0000     30.1380    325.0000   -641.5000   2899.8000   2157.7000    102.4742      0.0245   3670.9714   -102.4742    224.5937
