~Version Information
VERS.                      2.0: CWLS Log ASCII Standard - VERSION 2.0
WRAP.                       NO: One line per depth step
~Well Information Block
STRT.M               3785.6000: START DEPTH
STOP.M               3572.2000: STOP DEPTH
STEP.M                 -0.0500: STEP
NULL.                -999.2500: NULL VALUE
COMP.                  STATOIL: COMPANY
WELL.               15/9-F-1-C: WELL
FLD.                     VOLVE: FIELD
LOC.                          : LOCATION
SRVC.          Halliburton Logging Services: SERVICE COMPANY
DATE.          Wed Dec 03 05-47-41 2014: LOG DATE
UWI.                          : UNIQUE WELL ID
CTRY.                   NORWAY: COUNTRY
SECT.                         : SECTION
TOWN.                         : TOWNSHIP
RANG.                         : RANGE
API.                          : API#
OS.                   --NONE--: OTHER SERVICES
PDAT.FT                  M.S.L: PERMANENT DATUM
EEL.FT                   54.9M: ELEVATION
LMF.FT                   R.K.B: LOG MEASURED FROM
DMF.FT                   R.K.B: DRILLING MEASURED FROM
EKB.FT                   54.9M: KB
EDF.FT                   54.9M: DF
EGL.FT                    -91M: GL
DATE1.         03-DEC-14 @ 05:47: DATE1
RUN1.                    1 & 2: RUN NUMBER
TDD1.FT                  4094M: DEPTH DRILLER
TDL1.FT                  3782M: DEPTH LOGGER
BLI1.FT                  3772M: BOTTOM LOGGED INTERVAL
TLI1.FT                  3572M: TOP LOG INTERVAL
CDD1.IN_FT                    : CASING DRILLER
CDL1.FT                       : CASING LOGGER
BS1.IN                    8.5": BIT SIZE
DFT1.                SEA WATER: TYPE FLUID IN HOLE
DFDV1.GM/C3_CP          1.03SG: DENSITY/VISCOSITY
DFPL1.C3                      : PH/FLUID LOSS
MSS1.                         : SOURCE OF SAMPLE
RMT1.OHHM_DEGF                : RM@MEASURED TEMP
RMFT1.OHMM_DEGF                : RMF@MEASURED TEMP
RMCT1.OHMM_DEGF                : RMC@MEASURED TEMP
RMFS1.                        : SOURCE OF RMF/RMC
RMBT1.OHMM_DEGF                : RM@BHT
TCS1.                         : TIME CIRCULATION STOPPED
TLOB1.                36 HOURS: TIME LOGGER ON BOTTOM
BHT1.DEGF                 FULL: MAXIMUM RECORDED TEMPERATURE
LUN1.                 12030699: EQUIPMENT NUMBER
LUL1.                   NORWAY: LOCATION
ENGI1.              C.JAMIESON: RECORDED BY
WITN1.                A.ALBAWI: WITNESSED BY
~Curve Information Block
DEPT.M             0 000 00 00: Depth
LSPD.M/MIN                   0: Line Speed
LTEN.LB                      0: Surface Line Tension
MINMK.                       0: Minute Mark Ticks
HVOLTA.V                     0: Head Voltage Apparent
CCL.                         0: Casing Collar Locator
~Parameter Information Block
SRFTEMP.DEGC           12.0000: Surface Temperature
MudWgt.LB/GAL           8.5600: Mud Weight
CASETHCK.IN             0.4530: Casing Thickness
BITSIZE.IN             12.2500: Borehole I.D.
~Other Information
TOOL STRING DEPLOYED BY ALTUS INTERVENTION WIRELINE UNIT ON 7/16" CABLE
CABLE HEAD BUILT BY ALTUS
LOG CORRELATED TO SHLUMBERGER 4.5" HSD OX POWER JET PULS DATED 09.APRIL.2014
CORRELATION LOG IS SHALLOWER BY 1.4M, DEPTH SHIFTED 1.4M DOWN AS PER
CLIENTS REQUEST.
4.655" HSC GUN 10 AND 350 DEGREE PHASING, 39 GR MILLENIUM, 4 SHOTS PER FOOT.
ATTEMPT WAS MADE TO RUN 4 GUNS IN ONE STRING BUT AT 3600M PICK UP WEIGHT 
WAS TOO HIGH TO CONTINUE.  CLIENT D4ECIDED TO SPLIT UP ONTO TWO RUNS.
RUN #1 CCL TO TOP SHOT 3.25 M, CCL STOP DEPT: 3729.75 M
PERFORATION INTERVAL 3733M - 3742.6M
RUN #2 CCL TO TOP SHOT 3.25 M, CCL STOP DEPT: 3711.75 M
PERFORATION INTERVAL 3715M - 3724.6M

~A  Depth       LSPD        LTEN       MINMK       HVOLTA       CCL     
  3785.6000   -999.2500   2289.9363   -999.2500   -999.2500   -999.2500
  3785.5500     -0.0518   3151.3840      0.0000      3.4859     -0.0092
  3785.5000      0.9449   3656.3386      0.0000      3.5156     -0.0067
  3785.4500      0.9449   3656.3386      0.0000      3.5156     -0.0082
  3785.4000      2.8194   3878.7402      0.0000      3.5057     -0.0137
  3785.3500      2.8194   3878.7402      0.0000      3.5057     -0.0156
  3785.3000      2.8194   3973.3760      0.0000      3.5461     -0.0082
  3785.2500      4.9987   4018.8506      0.0000      3.4958     -0.0107
  3785.2000      4.9987   4018.8506      0.0000      3.4958     -0.0070
  3785.1500      4.9987   4047.5891      0.0000      3.4454     -0.0125
  3785.1000      7.2664   4087.1187      0.0000      3.5362     -0.0064
  3785.0500      7.2664   4087.1187      0.0000      3.5362     -0.0052
  3785.0000      7.2664   4144.7031      0.0000      3.5156     -0.0156
  3784.9500      8.5161   4207.8960      0.0000      3.5362     -0.0067
  3784.9000      8.5161   4207.8960      0.0000      3.5362     -0.0070
  3784.8500      8.5161   4267.1831      0.0000      3.4859     -0.0116
  3784.8000      8.8575   4317.9580      0.0000      3.4348     -0.0131
  3784.7500      8.8575   4317.9580      0.0000      3.4348     -0.0098
  3784.7000      8.8575   4361.2944      0.0000      3.5156     -0.0204
  3784.6500      8.9093   4407.0039      0.0000      3.4851     -0.0052
  3784.6000      8.9093   4407.0039      0.0000      3.4851     -0.0070
  3784.5500      8.9093   4456.2266      0.0000      3.5255     -0.0058
  3784.5000      8.8758   4501.0771      0.0000      3.5057     -0.0177
  3784.4500      8.8758   4501.0771      0.0000      3.5057     -0.0095
  3784.4000      8.8758   4547.6929      0.0000      3.4554     -0.0089
  3784.3500      9.1074   4602.5068      0.0000      3.5156     -0.0128
  3784.3000      9.1074   4602.5068      0.0000      3.5156     -0.0171
  3784.2500      9.1074   4654.0161      0.0000      3.5057     -0.0131
  3784.2000      9.3025   4699.1646      0.0000      3.5255     -0.0131
  3784.1500      9.3025   4699.1646      0.0000      3.5255     -0.0046
  3784.1000      9.3025   4747.0449      0.0000      3.4653     -0.0119
  3784.0500      9.5189   4792.6714      0.0000      3.5263     -0.0153
  3784.0000      9.5189   4792.6714      0.0000      3.5263     -0.0024
  3783.9500      9.5189   4829.6094      0.0000      3.5156     -0.0125
  3783.9000      9.5189   4866.6074      0.0000      3.5561     -0.0143
  3783.8500      9.6957   4866.6074      0.0000      3.5561     -0.0003
  3783.8000      9.6957   4905.7920      0.0000      3.5156     -0.0046
  3783.7500      9.6957   4905.7920      0.0000      3.5156     -0.0089
  3783.7000      9.5707   4939.3442      0.0000      3.4752     -0.0064
  3783.6500      9.5707   4971.9966      0.0000      3.5065     -0.0165
  3783.6000      9.5707   4971.9966      0.0000      3.5065     -0.0055
  3783.5500      9.4640   5010.1973      0.0000      3.4958     -0.0092
  3783.5000      9.4640   5047.4961      0.0000      3.5461     -0.0073
  3783.4500      9.4640   5047.4961      0.0000      3.5461     -0.0165
  3783.4000      9.3756   5083.3896      0.0000      3.4142     -0.0024
  3783.3500      9.3756   5122.0586      0.0000      3.4554     -0.0046
  3783.3000      9.3756   5122.0586      0.0000      3.4554     -0.0104
  3783.2500      9.2690   5155.9946      0.0000      3.4653     -0.0092
  3783.2000      9.2690   5183.2231      0.0000      3.5156     -0.0003
  3783.1500      9.2690   5183.2231      0.0000      3.5156     -0.0089
  3783.1000      9.3025   5213.7007      0.0000      3.5156     -0.0143
  3783.0500      9.3025   5244.0933      0.0000      3.5461     -0.0046
  3783.0000      9.3025   5244.0933      0.0000      3.5461     -0.0095
  3782.9500      9.2842   5265.8052      0.0000      3.5057     -0.0073
  3782.9000      9.2842   5288.5928      0.0000      3.5568     -0.0079
  3782.8500      9.2842   5288.5928      0.0000      3.5568     -0.0070
  3782.8000      9.3025   5318.5703      0.0000      3.4554     -0.0095
  3782.7500      9.3025   5345.4648      0.0000      3.4653     -0.0119
  3782.7000      9.3025   5345.4648      0.0000      3.4653     -0.0101
  3782.6500      9.3574   5367.9741      0.0000      3.5255     -0.0125
  3782.6000      9.3574   5389.6279      0.0000      3.5057     -0.0021
  3782.5500      9.3574   5389.6279      0.0000      3.5057     -0.0134
  3782.5000      9.3574   5405.5757      0.0000      3.4859     -0.0070
  3782.4500      9.3574   5420.9346      0.0000      3.5362     -0.0128
  3782.4000      9.3574   5420.9346      0.0000      3.5362     -0.0079
  3782.3500      9.3574   5445.8975      0.0000      3.5156     -0.0137
  3782.3000      9.3756   5472.8071      0.0000      3.4546     -0.0113
  3782.2500      9.3756   5472.8071      0.0000      3.4546     -0.0113
  3782.2000      9.3756   5493.9946      0.0000      3.5263     -0.0018
  3782.1500      9.3756   5493.9946      0.0000      3.5263     -0.0064
  3782.1000      9.3756   5518.0933      0.0000      3.4859     -0.0119
  3782.0500      9.3756   5546.5176      0.0000      3.4653     -0.0052
  3782.0000      9.3208   5546.5176      0.0000      3.4653     -0.0076
  3781.9500      9.3208   5573.0342      0.0000      3.5255     -0.0204
  3781.9000      9.3208   5604.0522      0.0000      3.5965     -0.0104
  3781.8500      9.3025   5604.0522      0.0000      3.5965     -0.0055
  3781.8000      9.3025   5639.8267      0.0000      3.4958     -0.0104
  3781.7500      9.3025   5666.3506      0.0000      3.5065     -0.0137
  3781.7000      9.3391   5666.3506      0.0000      3.5065     -0.0168
  3781.6500      9.3391   5686.1548      0.0000      3.4958     -0.0031
  3781.6000      9.3391   5712.9097      0.0000      3.5255     -0.0116
  3781.5500      9.3025   5712.9097      0.0000      3.5255     -0.0165
  3781.5000      9.3025   5745.1392      0.0000      3.5156     -0.0070
  3781.4500      9.3025   5781.9146      0.0000      3.5057     -0.0024
  3781.4000      9.3391   5781.9146      0.0000      3.5057     -0.0122
  3781.3500      9.3391   5827.6782      0.0000      3.5164     -0.0049
  3781.3000      9.3391   5868.5083      0.0000      3.4958     -0.0092
  3781.2500      9.3391   5868.5083      0.0000      3.4958     -0.0101
  3781.2000      9.3391   5891.9780      0.0000      3.5255     -0.0113
  3781.1500      9.3391   5910.9775      0.0000      3.5255     -0.0131
  3781.1000      9.3391   5910.9775      0.0000      3.5255     -0.0064
  3781.0500      9.3391   5933.4814      0.0000      3.5057     -0.0061
  3781.0000      9.3391   5952.9165      0.0000      3.5065     -0.0073
  3780.9500      9.3391   5952.9165      0.0000      3.5065     -0.0168
  3780.9000      9.3756   5972.9258      0.0000      3.4653     -0.0171
  3780.8500      9.3756   5996.5278      0.0000      3.5255     -0.0107
  3780.8000      9.3756   5996.5278      0.0000      3.5255     -0.0195
  3780.7500      9.3208   6014.1738      0.0000      3.5362     -0.0092
  3780.7000      9.3208   6030.0352      0.0000      3.4851     -0.0128
  3780.6500      9.3208   6030.0352      0.0000      3.4851     -0.0101
  3780.6000      9.3574   6058.4634      0.0000      3.4958     -0.0171
  3780.5500      9.3574   6058.4634      0.0000      3.4958     -0.0092
  3780.5000      9.3574   6091.3940      0.0000      3.4958     -0.0085
  3780.4500      9.3208   6116.6030      0.0000      3.4851     -0.0235
  3780.4000      9.3208   6116.6030      0.0000      3.4851     -0.0140
  3780.3500      9.3208   6142.1631      0.0000      3.4950     -0.0134
  3780.3000      9.2842   6168.6680      0.0000      3.5156     -0.0107
  3780.2500      9.2842   6168.6680      0.0000      3.5156     -0.0189
  3780.2000      9.2842   6186.1743      0.0000      3.4958     -0.0098
  3780.1500      9.3025   6201.7354      0.0000      3.4859     -0.0046
  3780.1000      9.3025   6201.7354      0.0000      3.4859     -0.0137
  3780.0500      9.3025   6222.7715      0.0000      3.5156     -0.0156
