~Version Information
VERS.                      2.0: CWLS Log ASCII Standard - VERSION 2.0
WRAP.                       NO: One line per depth step
~Well Information Block
STRT.M               3169.8000: START DEPTH
STOP.M               3077.9500: STOP DEPTH
STEP.M                 -0.0500: STEP
NULL.                -999.2500: NULL VALUE
COMP.                  Statoil: COMPANY
WELL.                15/9-F-12: WELL
FLD.                     Volve: FIELD
LOC.                          : LOCATION
SRVC.          Halliburton Logging Services: SERVICE COMPANY
DATE.          Wed Nov 26 07-41-16 2014: LOG DATE
UWI.                          : UNIQUE WELL ID
SECT.                         : SECTION
TOWN.                         : TOWNSHIP
RANG.                         : RANGE
API.                          : API#
OS.                           : OTHER SERVICES
PDAT.FT                       : PERMANENT DATUM
EEL.FT                        : ELEVATION
LMF.FT                        : LOG MEASURED FROM
DMF.FT                        : DRILLING MEASURED FROM
EKB.FT                        : KB
EDF.FT                        : DF
EGL.FT                        : GL
DATE1.                        : DATE1
RUN1.                         : RUN NUMBER
TDD1.FT                       : DEPTH DRILLER
TDL1.FT                       : DEPTH LOGGER
BLI1.FT                       : BOTTOM LOGGED INTERVAL
TLI1.FT                       : TOP LOG INTERVAL
CDD1.IN_FT                    : CASING DRILLER
CDL1.FT                       : CASING LOGGER
BS1.IN                        : BIT SIZE
DFT1.                         : TYPE FLUID IN HOLE
DFDV1.GM/C3_CP                : DENSITY/VISCOSITY
DFPL1.C3                      : PH/FLUID LOSS
MSS1.                         : SOURCE OF SAMPLE
RMT1.OHHM_DEGF                : RM@MEASURED TEMP
RMFT1.OHMM_DEGF                : RMF@MEASURED TEMP
RMCT1.OHMM_DEGF                : RMC@MEASURED TEMP
RMFS1.                        : SOURCE OF RMF/RMC
RMBT1.OHMM_DEGF                : RM@BHT
TCS1.                         : TIME CIRCULATION STOPPED
TLOB1.                        : TIME LOGGER ON BOTTOM
BHT1.DEGF                     : MAXIMUM RECORDED TEMPERATURE
LUN1.                         : EQUIPMENT NUMBER
LUL1.                         : LOCATION
ENGI1.                        : RECORDED BY
WITN1.                        : WITNESSED BY
~Curve Information Block
DEPT.M             0 000 00 00: Depth
LSPD.M/MIN                   0: Line Speed
LTEN.LB                      0: Surface Line Tension
MINMK.                       0: Minute Mark Ticks
GR.GAPI                      0: Gamma Ray
CCL.                         0: Casing Collar Locator
ACCX.                        0: X Axis Accelerometer
ACCY.                        0: Y Axis Accelerometer
ACCZ.                        0: Z Axis Accelerometer
RB.DEG                       0: Relative Bearing
DEVI.DEG                     0: Deviation
TOTG.GEE                     0: Total G
RBRef.DEG                    0: RB Reference
IntTemp.DEGF                 0: Internal Electronics Temperature
~Parameter Information Block
~A  Depth       LSPD        LTEN       MINMK         GR         CCL         ACCX        ACCY        ACCZ         RB         DEVI        TOTG       RBRef      IntTemp   
# ...
  3145.8000      9.6073   4802.9023      0.0000     52.5065    363.0000   2733.2000   1104.1000   2159.6001     21.9967      0.0246   3654.2156    -21.9967    224.5993
  3145.7500      9.6073   4733.2510      0.0000     48.3712    366.0000   2726.7000   1103.9000   2167.7000     22.0405      0.0246   3654.0952    -22.0405    224.6120
  3145.7000      9.5890   4699.9907      0.0000     43.2333    364.0000   2731.3000   1121.3000   2173.3000     22.3200      0.0245   3666.1353    -22.3200    224.6246
  3145.6500      9.5890   4688.2607      0.0000     39.1606    366.0000   2730.8000   1123.4000   2192.0000     22.3613      0.0245   3677.5210    -22.3613    224.6373
  3145.6000      9.5890   4647.4634      0.0000     37.8448    358.0000   2725.8000   1114.9000   2205.3000     22.2454      0.0245   3679.1760    -22.2454    224.6499
  3145.5500      9.5890   4605.1470      0.0000     37.5942    364.0000   2742.7000   1111.2000   2183.8000     22.0552      0.0245   3677.7915    -22.0552    224.6499
  3145.5000      9.6439   4568.5747      0.0000     36.2157    365.0000   2754.8000   1097.8000   2185.8000     21.7275      0.0244   3683.9937    -21.7275    224.6478
  3145.4500      9.6439   4633.9419      0.0000     36.9049    343.0000   2721.3000   1077.5000   2211.6001     21.6011      0.0245   3668.4678    -21.6011    224.6450
  3145.4000      9.6439   4705.3257      0.0000     37.2182    396.0000   2711.3000   1082.3000   2201.3000     21.7610      0.0246   3656.2607    -21.7610    224.6387
  3145.3500      9.6256   4721.0586      0.0000     36.5917    417.0000   2721.6001   1088.5000   2158.1001     21.7989      0.0247   3639.9636    -21.7989    224.6260
  3145.3000      9.6256   4701.9800      0.0000     36.7796    334.0000   2723.8999   1099.3000   2111.5000     21.9778      0.0249   3617.5300    -21.9778    224.6211
  3145.2500      9.6256   4710.0396      0.0000     38.4714    360.0000   2723.2000   1080.6000   2073.8999     21.6438      0.0251   3589.5090    -21.6438    224.6169
  3145.2000      9.6439   4758.6543      0.0000     39.1606    440.0000   2705.8000   1090.6000   2079.8999     21.9524      0.0251   3582.8406    -21.9524    224.6148
  3145.1500      9.6439   4806.9219      0.0000     39.2859    416.0000   2731.1001   1113.5000   2068.2000     22.1813      0.0250   3602.2549    -22.1813    224.6134
  3145.1000      9.6439   4806.5386      0.0000     38.6593    317.0000   2753.7000   1101.7000   2050.3000     21.8054      0.0250   3605.5979    -21.8054    224.6190
  3145.0500      9.6439   4769.6943      0.0000     37.7821    405.0000   2752.2000   1100.6000   2056.1001     21.7964      0.0249   3607.4192    -21.7964    224.6232
  3145.0000      9.6439   4756.4375      0.0000     36.9676    384.0000   2746.3999   1081.2000   2089.8999     21.4885      0.0249   3616.5435    -21.4885    224.6239
  3144.9500      9.6439   4785.7095      0.0000     36.1531    355.0000   2734.5000   1087.6000   2129.6001     21.6893      0.0248   3632.5693    -21.6893    224.6218
  3144.9000      9.6439   4809.8936      0.0000     36.3410    363.0000   2740.6001   1105.4000   2133.2000     21.9663      0.0247   3644.6316    -21.9663    224.6190
  3144.8500      9.6073   4773.5957      0.0000     37.8448    366.0000   2738.8999   1104.1000   2131.6001     21.9553      0.0247   3642.0225    -21.9553    224.6169
  3144.8000      9.6073   4685.3848      0.0000     38.2207    366.0000   2734.5000   1103.9000   2159.7000     21.9836      0.0246   3655.1865    -21.9836    224.6105
  3144.7500      9.6073   4621.2793      0.0000     36.8423    366.0000   2727.1001   1102.5000   2184.7000     22.0123      0.0246   3664.0818    -22.0123    224.6070
  3144.7000      9.6073   4658.1089      0.0000     36.1531    364.0000   2739.0000   1093.5000   2192.0000     21.7635      0.0245   3674.6057    -21.7635    224.6070
  3144.6500      9.6073   4686.8091      0.0000     34.4613    371.0000   2747.6001   1099.6000   2190.2000     21.8115      0.0244   3681.7661    -21.8115    224.6070
  3144.6000      9.6073   4669.0269      0.0000     33.0202    364.0000   2734.5000   1097.8000   2192.6001     21.8736      0.0245   3672.8940    -21.8736    224.6070
  3144.5500      9.6439   4605.6133      0.0000     30.7019    357.0000   2729.3000   1101.9000   2220.3000     21.9854      0.0244   3686.8679    -21.9854    224.6091
  3144.5000      9.6439   4622.0679      0.0000     30.6392    405.0000   2722.2000   1085.6000   2191.7000     21.7419      0.0246   3659.5693    -21.7419    224.6120
  3144.4500      9.6439   4695.6387      0.0000     30.0753    356.0000   2736.6001   1098.7000   2151.5000     21.8746      0.0247   3650.3525    -21.8746    224.6141
  3144.4000      9.5707   4767.7739      0.0000     30.3886    367.0000   2706.8999   1134.1000   2095.3000     22.7320      0.0250   3606.0742    -22.7320    224.6148
  3144.3500      9.5707   4765.0020      0.0000     29.7621    389.0000   2694.3999   1125.0000   2067.6001     22.6621      0.0252   3577.7627    -22.6621    224.6148
  3144.3000      9.5707   4758.0537      0.0000     28.8222    277.0000   2692.3999   1137.6000   2063.7000     22.9052      0.0252   3577.9895    -22.9052    224.6148
  3144.2500      9.6073   4788.6553      0.0000     26.5665    427.0000   2694.8999   1148.1000   2052.3999     23.0753      0.0252   3576.7253    -23.0753    224.6148
  3144.2000      9.6073   4846.0781      0.0000     25.1254    339.0000   2696.0000   1199.1000   2048.5000     23.9781      0.0251   3592.0203    -23.9781    224.6070
  3144.1500      9.6073   4886.1929      0.0000     23.7470    412.0000   2668.8999   1208.3000   2067.7000     24.3578      0.0251   3585.8608    -24.3578    224.6035
  3144.1000      9.6073   4881.3789      0.0000     23.6843    328.0000   2679.5000   1193.2000   2088.8000     24.0037      0.0250   3600.9072    -24.0037    224.6021
  3144.0500      9.6073   4854.5645      0.0000     23.7470    366.0000   2676.6001   1228.0000   2119.7000     24.6452      0.0248   3628.4019    -24.6452    224.6000
  3144.0000      9.6073   4856.4136      0.0000     24.4362    369.0000   2679.6001   1235.1000   2135.6001     24.7463      0.0247   3642.3230    -24.7463    224.5972
  3143.9500      9.6073   4866.4419      0.0000     24.4362    376.0000   2672.3000   1232.5000   2134.6001     24.7598      0.0248   3635.4863    -24.7598    224.5986
  3143.9000      9.5524   4846.3140      0.0000     24.6868    366.0000   2678.2000   1242.2000   2159.6001     24.8828      0.0246   3657.8257    -24.8828    224.6000
  3143.8500      9.5524   4728.7554      0.0000     24.9375    368.0000   2690.0000   1228.7000   2183.3000     24.5493      0.0245   3675.9492    -24.5493    224.6000
  3143.8000      9.5524   4635.3569      0.0000     25.9400    367.0000   2666.7000   1220.1000   2205.3999     24.5856      0.0245   3669.2944    -24.5856    224.6000
  3143.7500      9.6439   4598.3320      0.0000     27.3811    362.0000   2665.3999   1242.1000   2216.7000     24.9859      0.0244   3682.5166    -24.9859    224.6000
  3143.7000      9.6439   4604.3794      0.0000     29.2608    365.0000   2681.0000   1274.4000   2220.7000     25.4238      0.0243   3707.2043    -25.4238    224.6000
  3143.6500      9.6439   4608.6836      0.0000     30.8899    366.0000   2673.3000   1266.3000   2227.8999     25.3462      0.0243   3703.1860    -25.3462    224.6000
  3143.6000      9.6774   4603.5645      0.0000     31.5164    346.0000   2668.1001   1263.3000   2191.8000     25.3368      0.0245   3676.7747    -25.3368    224.6000
  3143.5500      9.6774   4611.4673      0.0000     31.3911    390.0000   2657.3999   1257.1000   2132.5000     25.3168      0.0248   3631.7532    -25.3168    224.6000
  3143.5000      9.6774   4667.3516      0.0000     31.2032    430.0000   2625.8000   1273.3000   2041.1000     25.8696      0.0253   3561.2087    -25.8696    224.6035
  3143.4500      9.6591   4736.7935      0.0000     29.1981    307.0000   2622.5000   1275.0000   2026.1000     25.9280      0.0253   3550.8044    -25.9280    224.6077
