~Version Information
VERS.                      2.0: CWLS Log ASCII Standard - VERSION 2.0
WRAP.                       NO: One line per depth step
~Well Information Block
STRT.M               3779.9000: START DEPTH
STOP.M               3659.5000: STOP DEPTH
STEP.M                 -0.0500: STEP
NULL.                -999.2500: NULL VALUE
COMP.                  STATOIL: COMPANY
WELL.               15/9-F-1-C: WELL
FLD.                     VOLVE: FIELD
LOC.                          : LOCATION
SRVC.          Halliburton Logging Services: SERVICE COMPANY
DATE.          Wed Dec 03 07-18-31 2014: LOG DATE
UWI.                          : UNIQUE WELL ID
CTRY.                   NORWAY: COUNTRY
SECT.                         : SECTION
TOWN.                         : TOWNSHIP
RANG.                         : RANGE
API.                          : API#
OS.                   --NONE--: OTHER SERVICES
PDAT.FT                  M.S.L: PERMANENT DATUM
EEL.FT                   54.9M: ELEVATION
LMF.FT                   R.K.B: LOG MEASURED FROM
DMF.FT                   R.K.B: DRILLING MEASURED FROM
EKB.FT                   54.9M: KB
EDF.FT                   54.9M: DF
EGL.FT                    -91M: GL
DATE1.         03-DEC-14 @ 05:47: DATE1
RUN1.                    1 & 2: RUN NUMBER
TDD1.FT                  4094M: DEPTH DRILLER
TDL1.FT                  3782M: DEPTH LOGGER
BLI1.FT                  3772M: BOTTOM LOGGED INTERVAL
TLI1.FT                  3572M: TOP LOG INTERVAL
CDD1.IN_FT                    : CASING DRILLER
CDL1.FT                       : CASING LOGGER
BS1.IN                    8.5": BIT SIZE
DFT1.                SEA WATER: TYPE FLUID IN HOLE
DFDV1.GM/C3_CP          1.03SG: DENSITY/VISCOSITY
DFPL1.C3                      : PH/FLUID LOSS
MSS1.                         : SOURCE OF SAMPLE
RMT1.OHHM_DEGF                : RM@MEASURED TEMP
RMFT1.OHMM_DEGF                : RMF@MEASURED TEMP
RMCT1.OHMM_DEGF                : RMC@MEASURED TEMP
RMFS1.                        : SOURCE OF RMF/RMC
RMBT1.OHMM_DEGF                : RM@BHT
TCS1.                         : TIME CIRCULATION STOPPED
TLOB1.                36 HOURS: TIME LOGGER ON BOTTOM
BHT1.DEGF                 FULL: MAXIMUM RECORDED TEMPERATURE
LUN1.                 12030699: EQUIPMENT NUMBER
LUL1.                   NORWAY: LOCATION
ENGI1.              C.JAMIESON: RECORDED BY
WITN1.                A.ALBAWI: WITNESSED BY
~Curve Information Block
DEPT.M             0 000 00 00: Depth
LSPD.M/MIN                   0: Line Speed
LTEN.LB                      0: Surface Line Tension
MINMK.                       0: Minute Mark Ticks
HVOLTA.V                     0: Head Voltage Apparent
CCL.                         0: Casing Collar Locator
~Parameter Information Block
SRFTEMP.DEGC           12.0000: Surface Temperature
MudWgt.LB/GAL           8.5600: Mud Weight
CASETHCK.IN             0.4530: Casing Thickness
BITSIZE.IN             12.2500: Borehole I.D.
~Other Information
TOOL STRING DEPLOYED BY ALTUS INTERVENTION WIRELINE UNIT ON 7/16" CABLE
CABLE HEAD BUILT BY ALTUS
LOG CORRELATED TO SHLUMBERGER 4.5" HSD OX POWER JET PULS DATED 09.APRIL.2014
CORRELATION LOG IS SHALLOWER BY 1.4M, DEPTH SHIFTED 1.4M DOWN AS PER
CLIENTS REQUEST.
4.655" HSC GUN 10 AND 350 DEGREE PHASING, 39 GR MILLENIUM, 4 SHOTS PER FOOT.
ATTEMPT WAS MADE TO RUN 4 GUNS IN ONE STRING BUT AT 3600M PICK UP WEIGHT 
WAS TOO HIGH TO CONTINUE.  CLIENT D4ECIDED TO SPLIT UP ONTO TWO RUNS.
RUN #1 CCL TO TOP SHOT 3.25 M, CCL STOP DEPT: 3729.75 M
PERFORATION INTERVAL 3733M - 3742.6M
RUN #2 CCL TO TOP SHOT 3.25 M, CCL STOP DEPT: 3711.75 M
PERFORATION INTERVAL 3715M - 3724.6M

~A  Depth       LSPD        LTEN       MINMK       HVOLTA       CCL     
  3779.9000   -999.2500   2157.2529      0.0000      3.5263   -999.2500
  3779.8500      0.6401   2981.6406      0.0000      3.4454     -0.0067
  3779.8000      0.6401   2981.6406      0.0000      3.4454     -0.0131
  3779.7500      2.1763   3475.7727      0.0000      3.5065     -0.0031
  3779.7000      2.1763   3691.2429      0.0000      3.4454     -0.0107
  3779.6500      3.6789   3691.2429      0.0000      3.4454     -0.0131
  3779.6000      3.6789   3777.5276      0.0000      3.4554     -0.0137
  3779.5500      4.9286   3831.0378      0.0000      3.4660     -0.0134
  3779.5000      4.9286   3831.0378      0.0000      3.4660     -0.0037
  3779.4500      5.4986   3880.2087      0.0000      3.5759     -0.0058
  3779.4000      5.2669   3932.3501      0.0000      3.5675     -0.0079
  3779.3500      5.2669   3932.3501      0.0000      3.5675     -0.0159
  3779.3000      4.9987   3993.6042      0.0000      3.3638     -0.0040
  3779.2500      4.9804   4058.5088      0.0000      3.4554     -0.0156
  3779.2000      4.9804   4058.5088      0.0000      3.4554     -0.0153
  3779.1500      4.9286   4119.6934      0.0000      3.4454     -0.0085
  3779.1000      4.9286   4179.0640      0.0000      3.5065     -0.0125
  3779.0500      4.9621   4179.0640      0.0000      3.5065     -0.0125
  3779.0000      4.9469   4235.2847      0.0000      3.4348     -0.0101
  3778.9500      4.9469   4235.2847      0.0000      3.4348     -0.0003
  3778.9000      4.9469   4286.8281      0.0000      3.5263     -0.0058
  3778.8500      4.9469   4343.4131      0.0000      3.5461     -0.0159
  3778.8000      5.4986   4343.4131      0.0000      3.5461     -0.0159
  3778.7500      5.4986   4407.8125      0.0000      3.3638     -0.0125
  3778.7000      5.4986   4469.0220      0.0000      3.4554     -0.0137
  3778.6500      5.4986   4469.0220      0.0000      3.4554     -0.0153
  3778.6000      6.6599   4524.6865      0.0000      3.5568     -0.0137
  3778.5500      6.6599   4578.3560      0.0000      3.4859     -0.0162
  3778.5000      6.6599   4578.3560      0.0000      3.4859     -0.0092
  3778.4500      8.1961   4624.7788      0.0000      3.4653     -0.0101
  3778.4000      8.1961   4666.7725      0.0000      3.4653     -0.0131
  3778.3500      8.1961   4666.7725      0.0000      3.4653     -0.0049
  3778.3000      8.1961   4715.8745      0.0000      3.4149     -0.0171
  3778.2500      9.6439   4763.9214      0.0000      3.4454     -0.0125
  3778.2000      9.6439   4763.9214      0.0000      3.4454     -0.0079
  3778.1500      9.6439   4795.4087      0.0000      3.4248     -0.0107
  3778.1000     10.4272   4815.2710      0.0000      3.4149     -0.0180
  3778.0500     10.4272   4815.2710      0.0000      3.4149     -0.0095
  3778.0000     10.4272   4832.9019      0.0000      3.5172     -0.0003
  3777.9500     10.4272   4850.3120      0.0000      3.5156     -0.0046
  3777.9000     10.5369   4850.3120      0.0000      3.5156     -0.0122
  3777.8500     10.5369   4875.1113      0.0000      3.4752     -0.0058
  3777.8000     10.5369   4910.2129      0.0000      3.4760     -0.0095
  3777.7500     10.3571   4910.2129      0.0000      3.4760     -0.0012
  3777.7000     10.3571   4943.2358      0.0000      3.4454     -0.0070
  3777.6500     10.3571   4971.8896      0.0000      3.4554     -0.0122
  3777.6000     10.0005   4971.8896      0.0000      3.4554     -0.0122
  3777.5500     10.0005   5006.9209      0.0000      3.5057     -0.0116
  3777.5000     10.0005   5043.1885      0.0000      3.4554     -0.0134
  3777.4500      9.5006   5043.1885      0.0000      3.4554     -0.0079
  3777.4000      9.5006   5070.9194      0.0000      3.4050     -0.0183
  3777.3500      9.5006   5070.9194      0.0000      3.4050     -0.0076
  3777.3000      9.2842   5095.2539      0.0000      3.4760     -0.0092
  3777.2500      9.2842   5116.3345      0.0000      3.5263     -0.0159
  3777.2000      9.2842   5116.3345      0.0000      3.5263     -0.0131
  3777.1500      9.2141   5130.5229      0.0000      3.4859     -0.0021
  3777.1000      9.2141   5150.1084      0.0000      3.4554     -0.0110
  3777.0500      9.2141   5150.1084      0.0000      3.4554     -0.0116
  3777.0000      9.2141   5181.2441      0.0000      3.4859     -0.0211
  3776.9500      9.3025   5209.5874      0.0000      3.4958     -0.0119
  3776.9000      9.3025   5209.5874      0.0000      3.4958     -0.0031
  3776.8500      9.3025   5231.0181      0.0000      3.5667     -0.0058
  3776.8000      9.6957   5253.7920      0.0000      3.4653     -0.0009
  3776.7500      9.6957   5253.7920      0.0000      3.4653     -0.0116
  3776.7000      9.6957   5276.5347      0.0000      3.4653     -0.0089
  3776.6500      9.8389   5302.7593      0.0000      3.4859     -0.0122
  3776.6000      9.8389   5302.7593      0.0000      3.4859     -0.0076
  3776.5500      9.8389   5341.5313      0.0000      3.4859     -0.0021
  3776.5000      9.8389   5382.2627      0.0000      3.4958     -0.0043
  3776.4500      9.8024   5382.2627      0.0000      3.4958     -0.0092
  3776.4000      9.8024   5412.1924      0.0000      3.4859     -0.0140
  3776.3500      9.8024   5438.4512      0.0000      3.5263     -0.0021
  3776.3000      9.8572   5438.4512      0.0000      3.5263     -0.0098
  3776.2500      9.8572   5465.0469      0.0000      3.4859     -0.0055
  3776.2000      9.8572   5486.6875      0.0000      3.4859     -0.0021
  3776.1500      9.8389   5486.6875      0.0000      3.4859     -0.0082
  3776.1000      9.8389   5511.4355      0.0000      3.5454     -0.0009
  3776.0500      9.8389   5546.4331      0.0000      3.5156     -0.0040
  3776.0000      9.8207   5546.4331      0.0000      3.5156     -0.0040
  3775.9500      9.8207   5578.0776      0.0000      3.4660     -0.0034
  3775.9000      9.8207   5599.7515      0.0000      3.5370     -0.0070
  3775.8500      9.8207   5599.7515      0.0000      3.5370     -0.0015
  3775.8000      9.8024   5620.1177      0.0000      3.4958     -0.0064
  3775.7500      9.8024   5620.1177      0.0000      3.4958     -0.0211
  3775.7000      9.8024   5639.0186      0.0000      3.4966     -0.0076
  3775.6500      9.7688   5657.3472      0.0000      3.4760     -0.0049
  3775.6000      9.7688   5657.3472      0.0000      3.4760     -0.0137
  3775.5500      9.7688   5683.6133      0.0000      3.4958     -0.0092
  3775.5000      9.7323   5709.7993      0.0000      3.4760     -0.0165
  3775.4500      9.7323   5709.7993      0.0000      3.4760     -0.0128
  3775.4000      9.7323   5722.7383      0.0000      3.4859     -0.0104
  3775.3500      9.7688   5732.1929      0.0000      3.4859     -0.0125
  3775.3000      9.7688   5732.1929      0.0000      3.4859     -0.0143
  3775.2500      9.7688   5747.5903      0.0000      3.4859     -0.0055
  3775.2000      9.7688   5760.4282      0.0000      3.4554     -0.0089
  3775.1500      9.7323   5760.4282      0.0000      3.4554     -0.0110
  3775.1000      9.7323   5774.6392      0.0000      3.4859     -0.0162
  3775.0500      9.7323   5802.5376      0.0000      3.4859     -0.0122
  3775.0000      9.7506   5802.5376      0.0000      3.4859     -0.0134
  3774.9500      9.7506   5835.0303      0.0000      3.5263     -0.0134
  3774.9000      9.7506   5862.0781      0.0000      3.4760     -0.0174
  3774.8500      9.8024   5862.0781      0.0000      3.4760     -0.0067
  3774.8000      9.8024   5889.0039      0.0000      3.4653     -0.0043
  3774.7500      9.8024   5913.3760      0.0000      3.4859     -0.0131
  3774.7000      9.7688   5913.3760      0.0000      3.4859     -0.0089
  3774.6500      9.7688   5929.8003      0.0000      3.4958     -0.0122
  3774.6000      9.7688   5946.9326      0.0000      3.5568     -0.0156
  3774.5500      9.7688   5946.9326      0.0000      3.5568     -0.0159
  3774.5000      9.7841   5966.3882      0.0000      3.5263     -0.0076
  3774.4500      9.7841   5980.1680      0.0000      3.5057     -0.0156
  3774.4000      9.7841   5980.1680      0.0000      3.5057     -0.0095
  3774.3500      9.8024   5995.8188      0.0000      3.4653     -0.0073
