~Version Information
VERS.                      2.0: CWLS Log ASCII Standard - VERSION 2.0
WRAP.                       NO: One line per depth step
~Well Information Block
STRT.M               3779.4000: START DEPTH
STOP.M               3680.8000: STOP DEPTH
STEP.M                 -0.0500: STEP
NULL.                -999.2500: NULL VALUE
COMP.                  STATOIL: COMPANY
WELL.               15/9-F-1-C: WELL
FLD.                     VOLVE: FIELD
LOC.                          : LOCATION
SRVC.          Halliburton Logging Services: SERVICE COMPANY
DATE.          Thu Dec 04 05-18-20 2014: LOG DATE
UWI.                          : UNIQUE WELL ID
CTRY.                   NORWAY: COUNTRY
SECT.                         : SECTION
TOWN.                         : TOWNSHIP
RANG.                         : RANGE
API.                          : API#
OS.                   --NONE--: OTHER SERVICES
PDAT.FT                  M.S.L: PERMANENT DATUM
EEL.FT                   54.9M: ELEVATION
LMF.FT                   R.K.B: LOG MEASURED FROM
DMF.FT                   R.K.B: DRILLING MEASURED FROM
EKB.FT                   54.9M: KB
EDF.FT                   54.9M: DF
EGL.FT                    -91M: GL
DATE1.         03-DEC-14 @ 05:47: DATE1
RUN1.                    1 & 2: RUN NUMBER
TDD1.FT                  4094M: DEPTH DRILLER
TDL1.FT                  3782M: DEPTH LOGGER
BLI1.FT                  3772M: BOTTOM LOGGED INTERVAL
TLI1.FT                  3572M: TOP LOG INTERVAL
CDD1.IN_FT                    : CASING DRILLER
CDL1.FT                       : CASING LOGGER
BS1.IN                    8.5": BIT SIZE
DFT1.                SEA WATER: TYPE FLUID IN HOLE
DFDV1.GM/C3_CP          1.03SG: DENSITY/VISCOSITY
DFPL1.C3                      : PH/FLUID LOSS
MSS1.                         : SOURCE OF SAMPLE
RMT1.OHHM_DEGF                : RM@MEASURED TEMP
RMFT1.OHMM_DEGF                : RMF@MEASURED TEMP
RMCT1.OHMM_DEGF                : RMC@MEASURED TEMP
RMFS1.                        : SOURCE OF RMF/RMC
RMBT1.OHMM_DEGF                : RM@BHT
TCS1.                         : TIME CIRCULATION STOPPED
TLOB1.                36 HOURS: TIME LOGGER ON BOTTOM
BHT1.DEGF                 FULL: MAXIMUM RECORDED TEMPERATURE
LUN1.                 12030699: EQUIPMENT NUMBER
LUL1.                   NORWAY: LOCATION
ENGI1.              C.JAMIESON: RECORDED BY
WITN1.                A.ALBAWI: WITNESSED BY
~Curve Information Block
DEPT.M             0 000 00 00: Depth
LSPD.M/MIN                   0: Line Speed
LTEN.LB                      0: Surface Line Tension
MINMK.                       0: Minute Mark Ticks
HVOLTA.V                     0: Head Voltage Apparent
CCL.                         0: Casing Collar Locator
~Parameter Information Block
SRFTEMP.DEGC           10.0000: Surface Temperature
MudWgt.LB/GAL           8.5000: Mud Weight
CASETHCK.IN             0.4530: Casing Thickness
BITSIZE.IN              8.5000: Borehole I.D.
~Other Information
TOOL STRING DEPLOYED BY ALTUS INTERVENTION WIRELINE UNIT ON 7/16" CABLE
CABLE HEAD BUILT BY ALTUS
LOG CORRELATED TO SHLUMBERGER 4.5" HSD OX POWER JET PULS DATED 09.APRIL.2014
CORRELATION LOG IS SHALLOWER BY 1.4M, DEPTH SHIFTED 1.4M DOWN AS PER
CLIENTS REQUEST.
4.655" HSC GUN 10 AND 350 DEGREE PHASING, 39 GR MILLENIUM, 4 SHOTS PER FOOT.
ATTEMPT WAS MADE TO RUN 4 GUNS IN ONE STRING BUT AT 3600M PICK UP WEIGHT 
WAS TOO HIGH TO CONTINUE.  CLIENT D4ECIDED TO SPLIT UP ONTO TWO RUNS.
RUN #1 CCL TO TOP SHOT 3.25 M, CCL STOP DEPT: 3729.75 M
PERFORATION INTERVAL 3733M - 3742.6M
RUN #2 CCL TO TOP SHOT 3.25 M, CCL STOP DEPT: 3711.75 M
PERFORATION INTERVAL 3715M - 3724.6M

~A  Depth       LSPD        LTEN       MINMK       HVOLTA       CCL     
# ...
  3768.2000      9.3391   7317.0327      0.0000      3.4851     -0.0211
  3768.1500      9.3391   7317.0327      0.0000      3.4851      0.0232
  3768.1000      9.3391   7296.5659      0.0000      3.4546      0.0354
  3768.0500      9.3391   7295.5547      0.0000      3.4851     -0.0348
  3768.0000      9.3391   7295.5547      0.0000      3.4851      0.0101
  3767.9500      9.3391   7308.0884      0.0000      3.4851     -0.0220
  3767.9000      9.3756   7308.0884      0.0000      3.4851      0.0162
  3767.8500      9.3756   7332.2944      0.0000      3.4851      0.0159
  3767.8000      9.3756   7350.7041      0.0000      3.5156     -0.0574
  3767.7500      9.4092   7350.7041      0.0000      3.5156      0.0800
  3767.7000      9.4092   7347.3516      0.0000      3.5156     -0.1413
  3767.6500      9.4092   7330.2603      0.0000      3.4851      0.2014
  3767.6000      9.4275   7330.2603      0.0000      3.4851      0.4675
  3767.5500      9.4275   7306.9316      0.0000      3.4851     -0.4285
  3767.5000      9.4275   7279.0313      0.0000      3.4950     -0.1349
  3767.4500      9.4275   7279.0313      0.0000      3.4950     -0.6744
  3767.4000      9.4275   7257.3755      0.0000      3.5156     -0.2505
  3767.3500      9.4275   7245.0303      0.0000      3.4851     -0.1352
  3767.3000      9.4275   7245.0303      0.0000      3.4851      0.0766
  3767.2500      9.4275   7236.4609      0.0000      3.4851      0.0784
  3767.2000      9.4275   7241.0537      0.0000      3.4950      0.1187
  3767.1500      9.3939   7241.0537      0.0000      3.4950      0.0214
  3767.1000      9.3939   7266.4961      0.0000      3.4546     -0.0317
  3767.0500      9.3939   7301.3740      0.0000      3.4950     -0.0110
  3767.0000      9.3574   7301.3740      0.0000      3.4950     -0.0113
  3766.9500      9.3574   7343.6987      0.0000      3.4851     -0.0143
  3766.9000      9.3574   7397.9707      0.0000      3.4851     -0.0018
  3766.8500      9.3574   7397.9707      0.0000      3.4851     -0.0388
  3766.8000      9.3391   7444.8237      0.0000      3.4950     -0.0183
  3766.7500      9.3391   7470.6333      0.0000      3.4851     -0.0174
  3766.7000      9.3391   7470.6333      0.0000      3.4851     -0.0037
  3766.6500      9.3208   7489.4814      0.0000      3.5156      0.5182
  3766.6000      9.3208   7501.6636      0.0000      3.4851     -0.0085
  3766.5500      9.3208   7501.6636      0.0000      3.4851      0.1373
  3766.5000      9.3756   7493.3130      0.0000      3.4851     -0.5063
  3766.4500      9.3756   7475.6743      0.0000      3.4950      0.0223
  3766.4000      9.3756   7475.6743      0.0000      3.4950     -0.6470
  3766.3500      9.3939   7463.5195      0.0000      3.4950     -0.4367
  3766.3000      9.3939   7463.5195      0.0000      3.4950     -0.3781
  3766.2500      9.3939   7447.8647      0.0000      3.4546      0.0226
  3766.2000      9.4275   7427.7900      0.0000      3.4752     -0.1630
  3766.1500      9.4275   7427.7900      0.0000      3.4752      0.6290
  3766.1000      9.4275   7414.5718      0.0000      3.4851     -0.2029
  3766.0500      9.3939   7401.0020      0.0000      3.4950      0.2386
  3766.0000      9.3939   7401.0020      0.0000      3.4950     -0.8508
  3765.9500      9.3939   7382.1943      0.0000      3.4851      0.0391
  3765.9000      9.3756   7373.7358      0.0000      3.4851      0.0027
  3765.8500      9.3756   7373.7358      0.0000      3.4851     -0.2136
  3765.8000      9.3756   7377.8398      0.0000      3.4546     -0.0360
  3765.7500      9.3574   7381.4995      0.0000      3.4851     -0.2322
  3765.7000      9.3574   7381.4995      0.0000      3.4851      0.6815
  3765.6500      9.3574   7386.5176      0.0000      3.4851      0.0388
  3765.6000      9.3574   7396.3931      0.0000      3.4851      0.1309
  3765.5500      9.3391   7396.3931      0.0000      3.4851      0.0128
  3765.5000      9.3391   7398.7529      0.0000      3.4851      0.1163
  3765.4500      9.3391   7392.0972      0.0000      3.4851      0.1526
  3765.4000      9.3574   7392.0972      0.0000      3.4851      0.2057
  3765.3500      9.3574   7390.8799      0.0000      3.5156      0.0085
  3765.3000      9.3574   7396.3672      0.0000      3.4851      0.0818
  3765.2500      9.3939   7396.3672      0.0000      3.4851     -0.0342
  3765.2000      9.3939   7400.8906      0.0000      3.4645     -0.1251
  3765.1500      9.3939   7400.5479      0.0000      3.4851     -0.0827
  3765.1000      9.4092   7400.5479      0.0000      3.4851      0.0879
  3765.0500      9.4092   7390.4712      0.0000      3.5156     -0.3265
  3765.0000      9.4092   7373.0137      0.0000      3.4241      0.4333
  3764.9500      9.4458   7373.0137      0.0000      3.4241      0.0882
  3764.9000      9.4458   7350.8047      0.0000      3.4950     -0.4980
  3764.8500      9.4458   7312.7085      0.0000      3.4851     -0.1132
  3764.8000      9.4458   7312.7085      0.0000      3.4851      0.7718
  3764.7500      9.4458   7263.5439      0.0000      3.4851     -0.3680
  3764.7000      9.4458   7263.5439      0.0000      3.4851     -0.8682
  3764.6500      9.4092   7236.0913      0.0000      3.4546     -0.0937
  3764.6000      9.4092   7240.0874      0.0000      3.4851     -0.0415
  3764.5500      9.4092   7240.0874      0.0000      3.4851      0.0262
  3764.5000      9.4275   7254.8608      0.0000      3.4851     -0.0128
  3764.4500      9.4275   7282.3599      0.0000      3.4851     -0.0162
  3764.4000      9.4275   7282.3599      0.0000      3.4851     -0.0201
  3764.3500      9.4275   7334.0205      0.0000      3.4546     -0.0174
  3764.3000      9.3756   7387.2881      0.0000      3.4851      0.0348
  3764.2500      9.3756   7387.2881      0.0000      3.4851      0.0385
  3764.2000      9.3756   7418.7856      0.0000      3.4447     -0.1007
  3764.1500      9.3756   7437.0498      0.0000      3.4546      0.0287
  3764.1000      9.3756   7437.0498      0.0000      3.4546      0.2127
  3764.0500      9.3756   7453.7637      0.0000      3.4851     -0.1764
  3764.0000      9.4092   7465.4927      0.0000      3.4851     -0.1706
  3763.9500      9.4092   7465.4927      0.0000      3.4851      0.2103
  3763.9000      9.4092   7464.5786      0.0000      3.4851     -0.3116
  3763.8500      9.4092   7443.0420      0.0000      3.4950      0.1834
  3763.8000      9.4092   7443.0420      0.0000      3.4950     -0.1337
  3763.7500      9.4092   7402.6875      0.0000      3.4851     -0.7007
  3763.7000      9.4458   7360.5596      0.0000      3.5156     -0.0333
  3763.6500      9.4458   7360.5596      0.0000      3.5156     -1.1111
  3763.6000      9.4458   7317.5913      0.0000      3.4950     -0.0446
  3763.5500      9.4275   7255.6934      0.0000      3.4851     -0.0171
  3763.5000      9.4275   7255.6934      0.0000      3.4851      0.1501
  3763.4500      9.4275   7181.7095      0.0000      3.4851     -0.7938
  3763.4000      9.4092   7119.0103      0.0000      3.4851     -0.2222
  3763.3500      9.4092   7119.0103      0.0000      3.4851      0.1175
  3763.3000      9.4092   7067.7617      0.0000      3.5355      0.0333
  3763.2500      9.4092   7027.1997      0.0000      3.4950     -0.0443
  3763.2000      9.4092   7027.1997      0.0000      3.4950     -0.0211
  3763.1500      9.4092   7014.8003      0.0000      3.4851     -0.0378
  3763.1000      9.4092   7014.8003      0.0000      3.4851     -0.0275
  3763.0500      9.3574   7024.2715      0.0000      3.4752     -0.0369
  3763.0000      9.3574   7026.9512      0.0000      3.4851     -0.0250
  3762.9500      9.3574   7026.9512      0.0000      3.4851      0.0000
  3762.9000      9.3939   7026.2720      0.0000      3.4950     -0.0156
  3762.8500      9.3939   7041.6372      0.0000      3.5156     -0.0259
  3762.8000      9.3939   7041.6372      0.0000      3.5156     -0.0208
  3762.7500      9.3574   7065.4648      0.0000      3.4950     -0.0174
  3762.7000      9.3574   7085.5156      0.0000      3.4645     -0.0076
  3762.6500      9.3574   7085.5156      0.0000      3.4645     -0.0171
