~Version Information
VERS.                      2.0: CWLS Log ASCII Standard - VERSION 2.0
WRAP.                       NO: One line per depth step
~Well Information Block
STRT.M               3779.4000: START DEPTH
STOP.M               3680.8000: STOP DEPTH
STEP.M                 -0.0500: STEP
NULL.                -999.2500: NULL VALUE
COMP.                  STATOIL: COMPANY
WELL.               15/9-F-1-C: WELL
FLD.                     VOLVE: FIELD
LOC.                          : LOCATION
SRVC.          Halliburton Logging Services: SERVICE COMPANY
DATE.          Thu Dec 04 05-18-20 2014: LOG DATE
UWI.                          : UNIQUE WELL ID
CTRY.                   NORWAY: COUNTRY
SECT.                         : SECTION
TOWN.                         : TOWNSHIP
RANG.                         : RANGE
API.                          : API#
OS.                   --NONE--: OTHER SERVICES
PDAT.FT                  M.S.L: PERMANENT DATUM
EEL.FT                   54.9M: ELEVATION
LMF.FT                   R.K.B: LOG MEASURED FROM
DMF.FT                   R.K.B: DRILLING MEASURED FROM
EKB.FT                   54.9M: KB
EDF.FT                   54.9M: DF
EGL.FT                    -91M: GL
DATE1.         03-DEC-14 @ 05:47: DATE1
RUN1.                    1 & 2: RUN NUMBER
TDD1.FT                  4094M: DEPTH DRILLER
TDL1.FT                  3782M: DEPTH LOGGER
BLI1.FT                  3772M: BOTTOM LOGGED INTERVAL
TLI1.FT                  3572M: TOP LOG INTERVAL
CDD1.IN_FT                    : CASING DRILLER
CDL1.FT                       : CASING LOGGER
BS1.IN                    8.5": BIT SIZE
DFT1.                SEA WATER: TYPE FLUID IN HOLE
DFDV1.GM/C3_CP          1.03SG: DENSITY/VISCOSITY
DFPL1.C3                      : PH/FLUID LOSS
MSS1.                         : SOURCE OF SAMPLE
RMT1.OHHM_DEGF                : RM@MEASURED TEMP
RMFT1.OHMM_DEGF                : RMF@MEASURED TEMP
RMCT1.OHMM_DEGF                : RMC@MEASURED TEMP
RMFS1.                        : SOURCE OF RMF/RMC
RMBT1.OHMM_DEGF                : RM@BHT
TCS1.                         : TIME CIRCULATION STOPPED
TLOB1.                36 HOURS: TIME LOGGER ON BOTTOM
BHT1.DEGF                 FULL: MAXIMUM RECORDED TEMPERATURE
LUN1.                 12030699: EQUIPMENT NUMBER
LUL1.                   NORWAY: LOCATION
ENGI1.              C.JAMIESON: RECORDED BY
WITN1.                A.ALBAWI: WITNESSED BY
~Curve Information Block
DEPT.M             0 000 00 00: Depth
LSPD.M/MIN                   0: Line Speed
LTEN.LB                      0: Surface Line Tension
MINMK.                       0: Minute Mark Ticks
HVOLTA.V                     0: Head Voltage Apparent
CCL.                         0: Casing Collar Locator
~Parameter Information Block
SRFTEMP.DEGC           10.0000: Surface Temperature
MudWgt.LB/GAL           8.5000: Mud Weight
CASETHCK.IN             0.4530: Casing Thickness
BITSIZE.IN              8.5000: Borehole I.D.
~Other Information
TOOL STRING DEPLOYED BY ALTUS INTERVENTION WIRELINE UNIT ON 7/16" CABLE
CABLE HEAD BUILT BY ALTUS
LOG CORRELATED TO SHLUMBERGER 4.5" HSD OX POWER JET PULS DATED 09.APRIL.2014
CORRELATION LOG IS SHALLOWER BY 1.4M, DEPTH SHIFTED 1.4M DOWN AS PER
CLIENTS REQUEST.
4.655" HSC GUN 10 AND 350 DEGREE PHASING, 39 GR MILLENIUM, 4 SHOTS PER FOOT.
ATTEMPT WAS MADE TO RUN 4 GUNS IN ONE STRING BUT AT 3600M PICK UP WEIGHT 
WAS TOO HIGH TO CONTINUE.  CLIENT D4ECIDED TO SPLIT UP ONTO TWO RUNS.
RUN #1 CCL TO TOP SHOT 3.25 M, CCL STOP DEPT: 3729.75 M
PERFORATION INTERVAL 3733M - 3742.6M
RUN #2 CCL TO TOP SHOT 3.25 M, CCL STOP DEPT: 3711.75 M
PERFORATION INTERVAL 3715M - 3724.6M

~A  Depth       LSPD        LTEN       MINMK       HVOLTA       CCL     
# ...
  3723.4000      9.3939   6908.0371      0.0000      3.4645     -0.2386
  3723.3500      9.3574   6870.5981      0.0000      3.5255     -0.2728
  3723.3000      9.3574   6812.3740      0.0000      3.5255      0.2316
  3723.2500      9.3574   6812.3740      0.0000      3.5255      0.0378
  3723.2000      9.3939   6744.6655      0.0000      3.4546      0.0558
  3723.1500      9.3939   6690.1240      0.0000      3.4851     -0.0418
  3723.1000      9.3939   6690.1240      0.0000      3.4851      0.2341
  3723.0500      9.3939   6647.5283      0.0000      3.5156     -0.1138
  3723.0000      9.3939   6610.8013      0.0000      3.5156     -0.4520
  3722.9500      9.3939   6610.8013      0.0000      3.5156      0.0388
  3722.9000      9.3939   6598.5005      0.0000      3.4950      0.1035
  3722.8500      9.4275   6619.1323      0.0000      3.4851     -0.0256
  3722.8000      9.4275   6619.1323      0.0000      3.4851      0.0049
  3722.7500      9.4275   6653.3682      0.0000      3.4851     -0.0040
  3722.7000      9.4823   6693.5117      0.0000      3.4546     -0.0119
  3722.6500      9.4823   6693.5117      0.0000      3.4546     -0.0165
  3722.6000      9.4823   6742.8027      0.0000      3.4851     -0.0070
  3722.5500      9.4458   6789.8501      0.0000      3.5156     -0.0134
  3722.5000      9.4458   6789.8501      0.0000      3.5156     -0.0061
  3722.4500      9.4458   6829.5635      0.0000      3.4950     -0.0082
  3722.4000      9.4458   6869.6709      0.0000      3.4851     -0.0089
  3722.3500      9.4458   6869.6709      0.0000      3.4851     -0.0128
  3722.3000      9.4458   6904.9893      0.0000      3.4851     -0.0125
  3722.2500      9.3756   6930.8271      0.0000      3.4950     -0.0122
  3722.2000      9.3756   6930.8271      0.0000      3.4950     -0.0113
  3722.1500      9.3756   6960.9868      0.0000      3.4752     -0.0064
  3722.1000      9.3391   6997.3154      0.0000      3.4950     -0.0131
  3722.0500      9.3391   6997.3154      0.0000      3.4950     -0.0122
  3722.0000      9.3391   7025.5835      0.0000      3.5255     -0.0076
  3721.9500      9.3391   7048.5586      0.0000      3.4447     -0.0217
  3721.9000      9.3391   7048.5586      0.0000      3.4447      0.0146
  3721.8500      9.3391   7069.0498      0.0000      3.4752     -0.0058
  3721.8000      9.3391   7069.0498      0.0000      3.4752      0.0070
  3721.7500      9.3756   7067.3970      0.0000      3.4546     -0.1068
  3721.7000      9.3756   7034.2324      1.0000      3.4950      0.2518
  3721.6500      9.3756   7034.2324      1.0000      3.4950     -0.1721
  3721.6000      9.4092   6981.1509      0.0000      3.4851      0.2167
  3721.5500      9.4092   6915.6040      0.0000      3.4950     -0.0034
  3721.5000      9.4092   6915.6040      0.0000      3.4950      0.4068
  3721.4500      9.4640   6846.0264      0.0000      3.4546      0.1703
  3721.4000      9.4640   6785.4717      0.0000      3.4752      0.3281
  3721.3500      9.4640   6785.4717      0.0000      3.4752      0.2319
  3721.3000      9.4823   6735.6455      0.0000      3.4851     -0.0488
  3721.2500      9.4823   6703.0254      0.0000      3.4851      0.0351
  3721.2000      9.4823   6703.0254      0.0000      3.4851      0.0925
  3721.1500      9.4823   6704.7881      0.0000      3.4546     -0.4031
  3721.1000      9.4823   6732.7397      0.0000      3.5255      0.1816
  3721.0500      9.4823   6732.7397      0.0000      3.5255     -0.0082
  3721.0000      9.4640   6763.1504      0.0000      3.5156     -0.0128
  3720.9500      9.4640   6798.3223      0.0000      3.4950     -0.0098
  3720.9000      9.4640   6798.3223      0.0000      3.4950     -0.0146
  3720.8500      9.4640   6847.5991      0.0000      3.4546     -0.0131
  3720.8000      9.3939   6900.9150      0.0000      3.5156     -0.0089
  3720.7500      9.3939   6900.9150      0.0000      3.5156     -0.0034
  3720.7000      9.3939   6951.2866      0.0000      3.5156     -0.0165
  3720.6500      9.3756   7000.1797      0.0000      3.4546     -0.0052
  3720.6000      9.3756   7000.1797      0.0000      3.4546     -0.0143
  3720.5500      9.3756   7038.3643      0.0000      3.5156     -0.0140
  3720.5000      9.3574   7064.1270      0.0000      3.5156     -0.0455
  3720.4500      9.3574   7064.1270      0.0000      3.5156      0.0259
  3720.4000      9.3574   7093.4185      0.0000      3.5057      0.0107
  3720.3500      9.3391   7124.4458      0.0000      3.5156      0.0830
  3720.3000      9.3391   7124.4458      0.0000      3.5156      0.0375
  3720.2500      9.3391   7143.5688      0.0000      3.5156     -0.0180
  3720.2000      9.4092   7143.5688      0.0000      3.5156     -0.0085
  3720.1500      9.4092   7157.3008      0.0000      3.4645     -0.0555
  3720.1000      9.4092   7163.9766      0.0000      3.4950     -0.0702
  3720.0500      9.3939   7163.9766      0.0000      3.4950      0.0458
  3720.0000      9.3939   7139.4180      0.0000      3.4851     -0.0305
  3719.9500      9.3939   7082.3398      0.0000      3.4950      0.0159
  3719.9000      9.4092   7082.3398      0.0000      3.4950     -0.1489
  3719.8500      9.4092   7010.2749      0.0000      3.4950     -2.1478
  3719.8000      9.4092   6919.5840      0.0000      3.4546     -0.0989
  3719.7500      9.4092   6919.5840      0.0000      3.4546      0.4309
  3719.7000      9.4092   6811.0083      0.0000      3.4851     -3.0606
  3719.6500      9.4092   6710.1152      0.0000      3.4546      0.5573
  3719.6000      9.4092   6710.1152      0.0000      3.4546      0.0809
  3719.5500      9.3756   6630.4980      0.0000      3.4950      1.0361
  3719.5000      9.3756   6573.5156      0.0000      3.4851      0.0275
  3719.4500      9.3756   6573.5156      0.0000      3.4851      0.0247
  3719.4000      9.4092   6550.7998      0.0000      3.4546      0.0131
  3719.3500      9.4092   6562.2681      0.0000      3.4851     -0.0070
  3719.3000      9.4092   6562.2681      0.0000      3.4851     -0.0146
  3719.2500      9.3939   6593.2393      0.0000      3.4851     -0.0165
  3719.2000      9.3939   6643.3999      0.0000      3.5255     -0.0092
  3719.1500      9.3939   6643.3999      0.0000      3.5255     -0.0058
  3719.1000      9.3939   6708.7886      0.0000      3.4851     -0.0116
  3719.0500      9.3939   6762.4043      0.0000      3.5156     -0.0067
  3719.0000      9.3939   6762.4043      0.0000      3.5156     -0.0089
  3718.9500      9.4458   6797.1143      0.0000      3.4851     -0.0143
  3718.9000      9.4458   6834.7207      0.0000      3.4447     -0.0146
  3718.8500      9.4458   6834.7207      0.0000      3.4447     -0.0076
  3718.8000      9.4092   6879.7515      0.0000      3.4950     -0.0159
  3718.7500      9.4092   6923.4556      0.0000      3.4950     -0.0168
  3718.7000      9.4092   6923.4556      0.0000      3.4950     -0.0107
  3718.6500      9.3756   6966.2319      0.0000      3.4950     -0.0104
  3718.6000      9.3756   6966.2319      0.0000      3.4950     -0.0089
  3718.5500      9.3756   6999.3042      0.0000      3.5156     -0.0043
  3718.5000      9.3025   7008.7246      0.0000      3.4851      0.0443
  3718.4500      9.3025   7008.7246      0.0000      3.4851     -0.0745
  3718.4000      9.3025   7000.5898      0.0000      3.4546      0.0925
  3718.3500      9.2141   6982.5156      0.0000      3.4851      0.3320
  3718.3000      9.2141   6982.5156      0.0000      3.4851      0.1682
  3718.2500      9.2141   6946.1689      0.0000      3.4851     -5.4636
  3718.2000      9.2141   6897.2383      0.0000      3.4851     -4.0009
  3718.1500      9.1958   6897.2383      0.0000      3.4851      0.0415
  3718.1000      9.1958   6859.8989      0.0000      3.4752      0.3452
  3718.0500      9.1958   6846.8789      0.0000      3.4546     -0.0073
  3718.0000      9.1958   6846.8789      0.0000      3.4546     -0.0714
  3717.9500      9.1958   6859.8647      0.0000      3.4546      0.1059
  3717.9000      9.1958   6891.4619      0.0000      3.4851     -0.0671
  3717.8500      9.2141   6891.4619      0.0000      3.4851     -0.0079
