~Version Information
VERS.                      2.0: CWLS Log ASCII Standard - VERSION 2.0
WRAP.                       NO: One line per depth step
~Well Information Block
STRT.M               3169.9500: START DEPTH
STOP.M               3076.7000: STOP DEPTH
STEP.M                 -0.0500: STEP
NULL.                -999.2500: NULL VALUE
COMP.                  Statoil: COMPANY
WELL.                15/9-F-12: WELL
FLD.                     Volve: FIELD
LOC.                          : LOCATION
SRVC.          Halliburton Logging Services: SERVICE COMPANY
DATE.          Wed Nov 26 07-57-02 2014: LOG DATE
UWI.                          : UNIQUE WELL ID
SECT.                         : SECTION
TOWN.                         : TOWNSHIP
RANG.                         : RANGE
API.                          : API#
OS.                           : OTHER SERVICES
PDAT.FT                       : PERMANENT DATUM
EEL.FT                        : ELEVATION
LMF.FT                        : LOG MEASURED FROM
DMF.FT                        : DRILLING MEASURED FROM
EKB.FT                        : KB
EDF.FT                        : DF
EGL.FT                        : GL
DATE1.                        : DATE1
RUN1.                         : RUN NUMBER
TDD1.FT                       : DEPTH DRILLER
TDL1.FT                       : DEPTH LOGGER
BLI1.FT                       : BOTTOM LOGGED INTERVAL
TLI1.FT                       : TOP LOG INTERVAL
CDD1.IN_FT                    : CASING DRILLER
CDL1.FT                       : CASING LOGGER
BS1.IN                        : BIT SIZE
DFT1.                         : TYPE FLUID IN HOLE
DFDV1.GM/C3_CP                : DENSITY/VISCOSITY
DFPL1.C3                      : PH/FLUID LOSS
MSS1.                         : SOURCE OF SAMPLE
RMT1.OHHM_DEGF                : RM@MEASURED TEMP
RMFT1.OHMM_DEGF                : RMF@MEASURED TEMP
RMCT1.OHMM_DEGF                : RMC@MEASURED TEMP
RMFS1.                        : SOURCE OF RMF/RMC
RMBT1.OHMM_DEGF                : RM@BHT
TCS1.                         : TIME CIRCULATION STOPPED
TLOB1.                        : TIME LOGGER ON BOTTOM
BHT1.DEGF                     : MAXIMUM RECORDED TEMPERATURE
LUN1.                         : EQUIPMENT NUMBER
LUL1.                         : LOCATION
ENGI1.                        : RECORDED BY
WITN1.                        : WITNESSED BY
~Curve Information Block
DEPT.M             0 000 00 00: Depth
LSPD.M/MIN                   0: Line Speed
LTEN.LB                      0: Surface Line Tension
MINMK.                       0: Minute Mark Ticks
GR.GAPI                      0: Gamma Ray
CCL.                         0: Casing Collar Locator
ACCX.                        0: X Axis Accelerometer
ACCY.                        0: Y Axis Accelerometer
ACCZ.                        0: Z Axis Accelerometer
RB.DEG                       0: Relative Bearing
DEVI.DEG                     0: Deviation
TOTG.GEE                     0: Total G
RBRef.DEG                    0: RB Reference
IntTemp.DEGF                 0: Internal Electronics Temperature
~Parameter Information Block
~A  Depth       LSPD        LTEN       MINMK         GR         CCL         ACCX        ACCY        ACCZ         RB         DEVI        TOTG       RBRef      IntTemp   
# ...
  3105.1500      9.4092   4317.3267      0.0000     36.2157    534.0000   2431.5000   1651.1000   2144.6001     34.1783      0.0247   3638.3557    -34.1783    226.1237
  3105.1000      9.4640   4273.0269      0.0000     36.4037    519.0000   2428.1001   1656.4000   2156.5000     34.3010      0.0247   3645.5210    -34.3010    226.1117
  3105.0500      9.4640   4221.3530      0.0000     37.9075    528.0000   2429.8999   1668.0000   2169.7000     34.4676      0.0246   3659.8135    -34.4676    226.1103
  3105.0000      9.4640   4226.3057      0.0000     39.6618    517.0000   2420.3999   1681.5000   2165.8999     34.7885      0.0246   3657.4446    -34.7885    226.1047
  3104.9500      9.4275   4247.7925      0.0000     42.2934    526.0000   2413.8000   1685.1000   2118.8000     34.9193      0.0248   3627.0244    -34.9193    226.0963
  3104.9000      9.4275   4245.6543      0.0000     45.8649    524.0000   2397.3000   1683.3000   2121.1001     35.0752      0.0249   3616.5747    -35.0752    226.0956
  3104.8500      9.4275   4210.4155      0.0000     47.1807    543.0000   2389.0000   1696.0000   2167.8999     35.3717      0.0247   3644.6572    -35.3717    226.0941
  3104.8000      9.4640   4179.4961      0.0000     48.3085    525.0000   2373.5000   1708.8000   2149.8999     35.7520      0.0248   3629.8167    -35.7520    226.0941
  3104.7500      9.4640   4195.3916      0.0000     50.1256    541.0000   2362.3000   1705.6000   2131.6001     35.8296      0.0249   3610.1594    -35.8296    226.1047
  3104.7000      9.4640   4268.6470      0.0000     50.7521    528.0000   2370.2000   1701.2000   2136.5000     35.6687      0.0249   3616.1528    -35.6687    226.1342
  3104.6500      9.4275   4285.9888      0.0000     50.0002    524.0000   2369.1001   1706.3000   2174.3000     35.7626      0.0247   3640.2852    -35.7626    226.1546
  3104.6000      9.4275   4241.0024      0.0000     49.3110    535.0000   2362.3000   1702.4000   2179.1001     35.7785      0.0247   3636.9087    -35.7785    226.1722
  3104.5500      9.4275   4184.9868      0.0000     48.6845    523.0000   2367.8000   1704.0000   2146.3999     35.7409      0.0248   3621.7573    -35.7409    226.1834
  3104.5000      9.3939   4180.6030      0.0000     47.0554    524.0000   2373.8999   1729.8000   2143.6001     36.0799      0.0248   3636.2935    -36.0799    226.1848
  3104.4500      9.3939   4197.4736      0.0000     47.1807    526.0000   2375.5000   1733.6000   2167.0000     36.1213      0.0246   3652.9792    -36.1213    226.1785
  3104.4000      9.3939   4174.9126      0.0000     48.6218    529.0000   2376.1001   1732.5000   2180.2000     36.0971      0.0246   3660.6938    -36.0971    226.1736
  3104.3500      9.4092   4117.5308      0.0000     52.2559    523.0000   2371.0000   1735.0000   2172.0000     36.1951      0.0246   3653.6899    -36.1951    226.1736
  3104.3000      9.4092   4077.6174      0.0000     57.2685    522.0000   2389.2000   1737.8000   2154.8000     36.0305      0.0246   3656.6909    -36.0305    226.1820
  3104.2500      9.4092   4107.2344      0.0000     60.5266    535.0000   2391.8999   1739.0000   2154.0000     36.0185      0.0246   3658.5547    -36.0185    226.1862
  3104.2000      9.4092   4139.0220      0.0000     62.2184    524.0000   2395.8000   1708.8000   2150.3999     35.4983      0.0247   3644.7324    -35.4983    226.1841
  3104.1500      9.3756   4173.4092      0.0000     63.9727    538.0000   2387.3000   1703.0000   2154.0000     35.5025      0.0247   3638.5610    -35.5025    226.1687
  3104.1000      9.3756   4161.8047      0.0000     62.0930    536.0000   2392.5000   1688.3000   2117.1001     35.2092      0.0249   3613.3816    -35.2092    226.1518
  3104.0500      9.3756   4153.8770      0.0000     59.2108    531.0000   2399.7000   1687.7000   2100.8000     35.1186      0.0249   3608.3586    -35.1186    226.1321
  3104.0000      9.4092   4180.5498      0.0000     55.8900    558.0000   2385.6001   1681.0000   2114.8999     35.1702      0.0250   3604.1157    -35.1702    226.1194
  3103.9500      9.4092   4237.1997      0.0000     52.7572    525.0000   2393.7000   1689.7000   2173.3000     35.2181      0.0247   3648.0293    -35.2181    226.1124
  3103.9000      9.4092   4241.3306      0.0000     49.6870    532.0000   2388.2000   1689.6000   2139.0000     35.2786      0.0248   3624.0266    -35.2786    226.1138
  3103.8500      9.4275   4208.1011      0.0000     48.3712    514.0000   2399.6001   1682.4000   2111.1001     35.0349      0.0249   3611.8269    -35.0349    226.1159
  3103.8000      9.4275   4187.3804      0.0000     48.9977    526.0000   2414.6001   1684.1000   2163.5000     34.8944      0.0246   3653.3845    -34.8944    226.1138
  3103.7500      9.4275   4219.3291      0.0000     49.6243    524.0000   2420.3999   1669.9000   2175.1001     34.6029      0.0246   3657.5896    -34.6029    226.1096
  3103.7000      9.4092   4249.6274      0.0000     49.4363    523.0000   2440.1001   1661.0000   2148.7000     34.2435      0.0247   3651.0164    -34.2435    226.1082
  3103.6500      9.4092   4248.1973      0.0000     49.6243    520.0000   2464.3999   1633.5000   2105.8999     33.5380      0.0248   3629.9316    -33.5380    226.1075
  3103.6000      9.4092   4204.6475      0.0000     48.9977    533.0000   2476.8999   1606.5000   2152.2000     32.9672      0.0246   3653.4695    -32.9672    226.0991
  3103.5500      9.4275   4180.0576      0.0000     46.6168    526.0000   2483.2000   1588.3000   2194.7000     32.6037      0.0245   3675.0085    -32.6037    226.0948
  3103.5000      9.4275   4187.7383      0.0000     41.4162    525.0000   2495.2000   1574.9000   2181.7000     32.2590      0.0245   3669.6250    -32.2590    226.0885
  3103.4500      9.4275   4215.6646      0.0000     34.1480    526.0000   2505.3999   1566.1000   2141.1001     32.0091      0.0247   3648.8364    -32.0091    226.0716
  3103.4000      9.3939   4208.6357      0.0000     30.1380    531.0000   2506.5000   1551.0000   2141.5000     31.7489      0.0247   3643.3728    -31.7489    226.0604
  3103.3500      9.3939   4175.3491      0.0000     27.1931    539.0000   2494.2000   1541.1000   2161.8999     31.7108      0.0247   3642.7783    -31.7108    226.0555
  3103.3000      9.3939   4149.7290      0.0000     25.3134    524.0000   2492.0000   1559.8000   2134.3000     32.0434      0.0248   3632.9434    -32.0434    226.0513
  3103.2500      9.3574   4175.5449      0.0000     26.2533    513.0000   2515.1001   1548.0000   2075.0000     31.6116      0.0249   3609.3845    -31.6116    226.0534
  3103.2000      9.3574   4216.8613      0.0000     26.8172    521.0000   2509.1001   1547.5000   2077.3000     31.6644      0.0250   3606.3159    -31.6644    226.0653
  3103.1500      9.3574   4223.6680      0.0000     25.0001    519.0000   2518.3999   1541.4000   2134.8000     31.4689      0.0247   3643.5730    -31.4689    226.0815
  3103.1000      9.3574   4165.6831      0.0000     21.5540    542.0000   2523.1001   1521.1000   2144.8999     31.0845      0.0247   3644.2249    -31.0845    226.1068
  3103.0500      9.3574   4137.3013      0.0000     18.4838    518.0000   2535.2000   1515.7000   2127.6001     30.8736      0.0247   3640.2290    -30.8736    226.1258
  3103.0000      9.3574   4156.5176      0.0000     15.7896    530.0000   2545.0000   1492.2000   2131.6001     30.3842      0.0247   3639.6985    -30.3842    226.1363
  3102.9500      9.3391   4180.5371      0.0000     14.0978    520.0000   2535.3999   1486.6000   2174.8999     30.3847      0.0246   3656.2852    -30.3847    226.1342
  3102.9000      9.3391   4144.1943      0.0000     14.0978    535.0000   2546.6001   1468.3000   2200.1001     29.9666      0.0245   3671.7185    -29.9666    226.1138
  3102.8500      9.3391   4110.4365      0.0000     14.2858    516.0000   2553.6001   1467.0000   2155.8999     29.8766      0.0247   3649.7764    -29.8766    226.0934
  3102.8000      9.3391   4086.7346      0.0000     15.1630    533.0000   2568.0000   1455.7000   2119.5000     29.5472      0.0248   3634.0015    -29.5472    226.0787
