~Version Information
VERS.                      2.0: CWLS Log ASCII Standard - VERSION 2.0
WRAP.                       NO: One line per depth step
~Well Information Block
STRT.M               3785.6000: START DEPTH
STOP.M               3572.2000: STOP DEPTH
STEP.M                 -0.0500: STEP
NULL.                -999.2500: NULL VALUE
COMP.                  STATOIL: COMPANY
WELL.               15/9-F-1-C: WELL
FLD.                     VOLVE: FIELD
LOC.                          : LOCATION
SRVC.          Halliburton Logging Services: SERVICE COMPANY
DATE.          Wed Dec 03 05-47-41 2014: LOG DATE
UWI.                          : UNIQUE WELL ID
CTRY.                   NORWAY: COUNTRY
SECT.                         : SECTION
TOWN.                         : TOWNSHIP
RANG.                         : RANGE
API.                          : API#
OS.                   --NONE--: OTHER SERVICES
PDAT.FT                  M.S.L: PERMANENT DATUM
EEL.FT                   54.9M: ELEVATION
LMF.FT                   R.K.B: LOG MEASURED FROM
DMF.FT                   R.K.B: DRILLING MEASURED FROM
EKB.FT                   54.9M: KB
EDF.FT                   54.9M: DF
EGL.FT                    -91M: GL
DATE1.         03-DEC-14 @ 05:47: DATE1
RUN1.                    1 & 2: RUN NUMBER
TDD1.FT                  4094M: DEPTH DRILLER
TDL1.FT                  3782M: DEPTH LOGGER
BLI1.FT                  3772M: BOTTOM LOGGED INTERVAL
TLI1.FT                  3572M: TOP LOG INTERVAL
CDD1.IN_FT                    : CASING DRILLER
CDL1.FT                       : CASING LOGGER
BS1.IN                    8.5": BIT SIZE
DFT1.                SEA WATER: TYPE FLUID IN HOLE
DFDV1.GM/C3_CP          1.03SG: DENSITY/VISCOSITY
DFPL1.C3                      : PH/FLUID LOSS
MSS1.                         : SOURCE OF SAMPLE
RMT1.OHHM_DEGF                : RM@MEASURED TEMP
RMFT1.OHMM_DEGF                : RMF@MEASURED TEMP
RMCT1.OHMM_DEGF                : RMC@MEASURED TEMP
RMFS1.                        : SOURCE OF RMF/RMC
RMBT1.OHMM_DEGF                : RM@BHT
TCS1.                         : TIME CIRCULATION STOPPED
TLOB1.                36 HOURS: TIME LOGGER ON BOTTOM
BHT1.DEGF                 FULL: MAXIMUM RECORDED TEMPERATURE
LUN1.                 12030699: EQUIPMENT NUMBER
LUL1.                   NORWAY: LOCATION
ENGI1.              C.JAMIESON: RECORDED BY
WITN1.                A.ALBAWI: WITNESSED BY
~Curve Information Block
DEPT.M             0 000 00 00: Depth
LSPD.M/MIN                   0: Line Speed
LTEN.LB                      0: Surface Line Tension
MINMK.                       0: Minute Mark Ticks
HVOLTA.V                     0: Head Voltage Apparent
CCL.                         0: Casing Collar Locator
~Parameter Information Block
SRFTEMP.DEGC           12.0000: Surface Temperature
MudWgt.LB/GAL           8.5600: Mud Weight
CASETHCK.IN             0.4530: Casing Thickness
BITSIZE.IN             12.2500: Borehole I.D.
~Other Information
TOOL STRING DEPLOYED BY ALTUS INTERVENTION WIRELINE UNIT ON 7/16" CABLE
CABLE HEAD BUILT BY ALTUS
LOG CORRELATED TO SHLUMBERGER 4.5" HSD OX POWER JET PULS DATED 09.APRIL.2014
CORRELATION LOG IS SHALLOWER BY 1.4M, DEPTH SHIFTED 1.4M DOWN AS PER
CLIENTS REQUEST.
4.655" HSC GUN 10 AND 350 DEGREE PHASING, 39 GR MILLENIUM, 4 SHOTS PER FOOT.
ATTEMPT WAS MADE TO RUN 4 GUNS IN ONE STRING BUT AT 3600M PICK UP WEIGHT 
WAS TOO HIGH TO CONTINUE.  CLIENT D4ECIDED TO SPLIT UP ONTO TWO RUNS.
RUN #1 CCL TO TOP SHOT 3.25 M, CCL STOP DEPT: 3729.75 M
PERFORATION INTERVAL 3733M - 3742.6M
RUN #2 CCL TO TOP SHOT 3.25 M, CCL STOP DEPT: 3711.75 M
PERFORATION INTERVAL 3715M - 3724.6M

~A  Depth       LSPD        LTEN       MINMK       HVOLTA       CCL     
# ...
  3617.6000      9.5524   6483.7456      0.0000      3.5263     -0.0082
  3617.5500      9.5524   6511.6787      1.0000      3.4248     -0.0134
  3617.5000      9.5524   6511.6787      1.0000      3.4248     -0.0626
  3617.4500      9.5524   6521.2002      0.0000      3.5561      0.0070
  3617.4000      9.5524   6505.4521      0.0000      3.5255      0.0006
  3617.3500      9.5524   6505.4521      0.0000      3.5255      0.0031
  3617.3000      9.5524   6472.8823      0.0000      3.5263     -0.0061
  3617.2500      9.5707   6425.5254      0.0000      3.4859     -0.1624
  3617.2000      9.5707   6425.5254      0.0000      3.4859     -0.3467
  3617.1500      9.5707   6363.8647      0.0000      3.5362      0.2283
  3617.1000      9.6073   6363.8647      0.0000      3.5362      0.1443
  3617.0500      9.6073   6303.3384      0.0000      3.5461      0.4230
  3617.0000      9.6073   6253.0098      0.0000      3.5156      0.2316
  3616.9500      9.6073   6253.0098      0.0000      3.5156      0.5499
  3616.9000      9.6073   6207.8931      0.0000      3.5156      0.2402
  3616.8500      9.6073   6173.6533      0.0000      3.4859      0.2222
  3616.8000      9.5890   6173.6533      0.0000      3.4859     -0.1920
  3616.7500      9.5890   6154.4053      0.0000      3.5164     -0.0119
  3616.7000      9.5890   6138.1143      0.0000      3.4859      0.0192
  3616.6500      9.5707   6138.1143      0.0000      3.4859     -0.0156
  3616.6000      9.5707   6132.3672      0.0000      3.4546     -0.0040
  3616.5500      9.5707   6158.2520      0.0000      3.4851     -0.0015
  3616.5000      9.5707   6158.2520      0.0000      3.4851     -0.0363
  3616.4500      9.5341   6204.0352      0.0000      3.4653     -0.0476
  3616.4000      9.5341   6247.5522      0.0000      3.4653     -0.0168
  3616.3500      9.5341   6247.5522      0.0000      3.4653     -0.0003
  3616.3000      9.5341   6288.7109      0.0000      3.4653      0.0018
  3616.2500      9.5341   6323.9668      0.0000      3.4958      0.0058
  3616.2000      9.5341   6323.9668      0.0000      3.4958     -0.0067
  3616.1500      9.5524   6345.2480      0.0000      3.5461     -0.0107
  3616.1000      9.5524   6363.4136      0.0000      3.5057      0.0150
  3616.0500      9.5524   6363.4136      0.0000      3.5057     -0.0049
  3616.0000      9.5707   6379.0776      0.0000      3.5362     -0.0565
  3615.9500      9.5707   6367.9365      0.0000      3.4355     -0.0436
  3615.9000      9.5707   6367.9365      0.0000      3.4355     -0.0211
  3615.8500      9.5707   6325.7764      0.0000      3.4958      0.0473
  3615.8000      9.5890   6266.3530      0.0000      3.5561     -0.3021
  3615.7500      9.5890   6266.3530      0.0000      3.5561     -0.2960
  3615.7000      9.5890   6183.9326      0.0000      3.5362      0.6625
  3615.6500      9.6073   6079.0483      0.0000      3.4859     -0.6042
  3615.6000      9.6073   6079.0483      0.0000      3.4859      0.2603
  3615.5500      9.6073   5982.3823      0.0000      3.4958     -0.1492
  3615.5000      9.6073   5982.3823      0.0000      3.4958      0.4669
  3615.4500      9.6073   5914.8350      0.0000      3.4958      0.1004
  3615.4000      9.6073   5870.9077      0.0000      3.5156      0.0427
  3615.3500      9.6256   5870.9077      0.0000      3.5156      0.0403
  3615.3000      9.6256   5849.7690      0.0000      3.4851      0.0226
  3615.2500      9.6256   5856.6777      0.0000      3.5461     -0.0046
  3615.2000      9.6256   5856.6777      0.0000      3.5461     -0.0317
  3615.1500      9.6256   5886.4229      0.0000      3.4752     -0.0363
  3615.1000      9.6256   5932.9238      0.0000      3.5469     -0.0061
  3615.0500      9.6073   5932.9238      0.0000      3.5469     -0.0107
  3615.0000      9.6073   5987.5493      0.0000      3.4653     -0.0095
  3614.9500      9.6073   6032.5103      0.0000      3.5156     -0.0034
  3614.9000      9.6073   6032.5103      0.0000      3.5156     -0.0046
  3614.8500      9.5707   6063.1079      0.0000      3.4958     -0.0058
  3614.8000      9.5707   6090.1162      0.0000      3.4760     -0.0137
  3614.7500      9.5707   6090.1162      0.0000      3.4760     -0.0092
  3614.7000      9.5341   6116.2686      0.0000      3.4554     -0.0168
  3614.6500      9.5341   6142.4741      0.0000      3.5164     -0.0119
  3614.6000      9.5341   6142.4741      0.0000      3.5164     -0.0021
  3614.5500      9.6256   6175.4492      0.0000      3.4851     -0.0146
  3614.5000      9.6256   6205.3750      0.0000      3.5057     -0.0183
  3614.4500      9.6256   6205.3750      0.0000      3.5057     -0.0052
  3614.4000      9.5890   6215.3091      0.0000      3.4454     -0.0177
  3614.3500      9.5890   6211.5420      0.0000      3.4958     -0.0232
  3614.3000      9.5890   6211.5420      0.0000      3.4958     -0.0217
  3614.2500      9.5890   6202.3486      0.0000      3.4859      0.4874
  3614.2000      9.6073   6182.3774      0.0000      3.5255     -0.8774
  3614.1500      9.6073   6182.3774      0.0000      3.5255      1.4697
  3614.1000      9.6073   6160.8022      0.0000      3.4447     -0.7697
  3614.0500      9.6439   6150.5176      0.0000      3.4859      0.1443
  3614.0000      9.6439   6150.5176      0.0000      3.4859      0.1016
  3613.9500      9.6439   6144.7695      0.0000      3.4859     -0.0095
  3613.9000      9.5524   6144.7695      0.0000      3.4859     -0.0693
  3613.8500      9.5524   6149.7671      0.0000      3.4653      0.0067
  3613.8000      9.5524   6187.2466      0.0000      3.4851     -0.0528
  3613.7500      9.5524   6187.2466      0.0000      3.4851     -0.0571
  3613.7000      9.5524   6245.8628      0.0000      3.4851      0.0015
  3613.6500      9.5524   6296.8906      0.0000      3.5263      0.0012
  3613.6000      9.5524   6296.8906      0.0000      3.5263     -0.0061
  3613.5500      9.5524   6336.9263      0.0000      3.4859     -0.0122
  3613.5000      9.5524   6365.6519      0.0000      3.5362     -0.0146
  3613.4500      9.5189   6365.6519      0.0000      3.5362     -0.0165
  3613.4000      9.5189   6372.7778      0.0000      3.4554     -0.0220
  3613.3500      9.5189   6360.7065      0.0000      3.5156     -0.0229
  3613.3000      9.5189   6360.7065      0.0000      3.5156      0.0058
  3613.2500      9.5707   6331.7158      0.0000      3.5057      0.0003
  3613.2000      9.5707   6275.8540      0.0000      3.4554     -0.4691
  3613.1500      9.5707   6275.8540      0.0000      3.4554      0.0558
  3613.1000      9.5707   6201.0420      0.0000      3.5164     -0.0763
  3613.0500      9.5707   6131.6284      0.0000      3.5263     -0.5731
  3613.0000      9.5707   6131.6284      0.0000      3.5263     -0.3677
  3612.9500      9.6256   6073.3022      0.0000      3.4142     -0.7074
  3612.9000      9.6256   6027.8599      0.0000      3.5255      0.2863
  3612.8500      9.6256   6027.8599      0.0000      3.5255     -0.1187
  3612.8000      9.6439   6014.8184      0.0000      3.5164     -0.0079
  3612.7500      9.6439   6038.2075      0.0000      3.4653     -0.0165
  3612.7000      9.6439   6038.2075      0.0000      3.4653     -0.0919
  3612.6500      9.6439   6075.3335      0.0000      3.4958     -0.0156
  3612.6000      9.6256   6111.0986      0.0000      3.5461     -0.0238
  3612.5500      9.6256   6111.0986      0.0000      3.5461     -0.0177
  3612.5000      9.6256   6143.7510      0.0000      3.4950     -0.0186
  3612.4500      9.5707   6174.0142      0.0000      3.4958     -0.0067
  3612.4000      9.5707   6174.0142      0.0000      3.4958     -0.0134
  3612.3500      9.5707   6211.6143      0.0000      3.5263     -0.0253
  3612.3000      9.5707   6211.6143      0.0000      3.5263     -0.0238
  3612.2500      9.5707   6257.3770      0.0000      3.5263     -0.0089
  3612.2000      9.5707   6288.4863      0.0000      3.4851     -0.0076
  3612.1500      9.5341   6288.4863      0.0000      3.4851     -0.0055
  3612.1000      9.5341   6297.8071      0.0000      3.4752     -0.0089
  3612.0500      9.5341   6300.7217      0.0000      3.4851     -0.0311
