~Version Information
VERS.                      2.0: CWLS Log ASCII Standard - VERSION 2.0
WRAP.                       NO: One line per depth step
~Well Information Block
STRT.M               3135.0500: START DEPTH
STOP.M               3039.9000: STOP DEPTH
STEP.M                 -0.0500: STEP
NULL.                -999.2500: NULL VALUE
COMP.                  Statoil: COMPANY
WELL.                15/9-F-12: WELL
FLD.                     Volve: FIELD
LOC.                          : LOCATION
SRVC.          Halliburton Logging Services: SERVICE COMPANY
DATE.          Wed Nov 26 21-01-09 2014: LOG DATE
UWI.                          : UNIQUE WELL ID
SECT.                         : SECTION
TOWN.                         : TOWNSHIP
RANG.                         : RANGE
API.                          : API#
OS.                           : OTHER SERVICES
PDAT.FT                       : PERMANENT DATUM
EEL.FT                        : ELEVATION
LMF.FT                        : LOG MEASURED FROM
DMF.FT                        : DRILLING MEASURED FROM
EKB.FT                        : KB
EDF.FT                        : DF
EGL.FT                        : GL
DATE1.                        : DATE1
RUN1.                         : RUN NUMBER
TDD1.FT                       : DEPTH DRILLER
TDL1.FT                       : DEPTH LOGGER
BLI1.FT                       : BOTTOM LOGGED INTERVAL
TLI1.FT                       : TOP LOG INTERVAL
CDD1.IN_FT                    : CASING DRILLER
CDL1.FT                       : CASING LOGGER
BS1.IN                        : BIT SIZE
DFT1.                         : TYPE FLUID IN HOLE
DFDV1.GM/C3_CP                : DENSITY/VISCOSITY
DFPL1.C3                      : PH/FLUID LOSS
MSS1.                         : SOURCE OF SAMPLE
RMT1.OHHM_DEGF                : RM@MEASURED TEMP
RMFT1.OHMM_DEGF                : RMF@MEASURED TEMP
RMCT1.OHMM_DEGF                : RMC@MEASURED TEMP
RMFS1.                        : SOURCE OF RMF/RMC
RMBT1.OHMM_DEGF                : RM@BHT
TCS1.                         : TIME CIRCULATION STOPPED
TLOB1.                        : TIME LOGGER ON BOTTOM
BHT1.DEGF                     : MAXIMUM RECORDED TEMPERATURE
LUN1.                         : EQUIPMENT NUMBER
LUL1.                         : LOCATION
ENGI1.                        : RECORDED BY
WITN1.                        : WITNESSED BY
~Curve Information Block
DEPT.M             0 000 00 00: Depth
LSPD.M/MIN                   0: Line Speed
LTEN.LB                      0: Surface Line Tension
MINMK.                       0: Minute Mark Ticks
HVOLTA.V                     0: Head Voltage Apparent
CCL.                         0: Casing Collar Locator
~Parameter Information Block
SRFTEMP.DEGC           10.0000: Surface Temperature
MudWgt.LB/GAL           8.5000: Mud Weight
CASETHCK.IN             6.1840: Casing Thickness
BITSIZE.IN              8.5000: Borehole I.D.
~A  Depth       LSPD        LTEN       MINMK       HVOLTA       CCL     
# ...
  3123.8500      3.3558   4337.3535      0.0000      3.5774     -2.0089
  3123.8000      3.3558   4337.3535      0.0000      3.5774     -2.0085
  3123.7500      3.5174   4361.5034      0.0000      3.5774     -2.3503
  3123.7000      3.7856   4378.0811      0.0000      3.5774     -2.1740
  3123.6500      3.9289   4378.0811      0.0000      3.5774     -1.7543
  3123.6000      3.9289   4387.8403      0.0000      3.5370     -2.2075
  3123.5500      3.9990   4384.0737      0.0000      3.5469     -2.0043
  3123.5000      4.1239   4384.0737      0.0000      3.5469     -2.0262
  3123.4500      4.1239   4372.2676      1.0000      3.5469     -2.0143
  3123.4000      4.1057   4372.2676      1.0000      3.5469     -2.0079
  3123.3500      4.2489   4361.9365      0.0000      3.5469     -1.9283
  3123.3000      4.2489   4355.1592      0.0000      3.5774     -2.0897
  3123.2500      4.2489   4355.1592      0.0000      3.5774     -1.9963
  3123.2000      4.2123   4357.7637      0.0000      3.6179     -2.0360
  3123.1500      4.2672   4373.2891      0.0000      3.5774     -2.0085
  3123.1000      4.2672   4373.2891      0.0000      3.5774     -2.0052
  3123.0500      4.2672   4387.8950      0.0000      3.5774     -1.9969
  3123.0000      4.4287   4389.8931      0.0000      3.5774     -2.0159
  3122.9500      4.4287   4389.8931      0.0000      3.5774     -2.0037
  3122.9000      4.5537   4388.2119      0.0000      3.5774     -1.9762
  3122.8500      4.6604   4393.0591      0.0000      3.5675     -2.0766
  3122.8000      4.6604   4393.0591      0.0000      3.5675     -1.9680
  3122.7500      4.8372   4403.2739      0.0000      3.5774     -1.9982
  3122.7000      4.8372   4412.5063      0.0000      3.5675     -2.0107
  3122.6500      4.8555   4412.5063      0.0000      3.5675     -1.9939
  3122.6000      4.9804   4406.4805      0.0000      3.5774     -2.0061
  3122.5500      4.9804   4375.2061      0.0000      3.5774     -2.0122
  3122.5000      5.0719   4375.2061      0.0000      3.5774     -1.9982
  3122.4500      5.0719   4336.5698      0.0000      3.5774     -1.9863
  3122.4000      5.1786   4318.2188      0.0000      3.5370     -2.0146
  3122.3500      5.1786   4318.2188      0.0000      3.5370     -2.0131
  3122.3000      5.3919   4325.2246      0.0000      3.5774     -2.0073
  3122.2500      5.3919   4350.6836      0.0000      3.5774     -2.0189
  3122.2000      5.7302   4350.6836      0.0000      3.5774     -2.0073
  3122.1500      5.7302   4390.3218      0.0000      3.5774     -2.0137
  3122.1000      6.0168   4431.1201      0.0000      3.5774     -2.0189
  3122.0500      6.0168   4431.1201      0.0000      3.5774     -1.9893
  3122.0000      6.0168   4457.2598      0.0000      3.6079     -2.0165
  3121.9500      6.3734   4462.7603      0.0000      3.5370     -2.0208
  3121.9000      6.3734   4462.7603      0.0000      3.5370     -2.0055
  3121.8500      6.7483   4443.3735      0.0000      3.5370     -2.1013
  3121.8000      6.7483   4443.3735      0.0000      3.5370     -2.0092
  3121.7500      6.7483   4401.5425      0.0000      3.5370     -2.1907
  3121.7000      7.1232   4359.2627      0.0000      3.5873     -2.5560
  3121.6500      7.1232   4359.2627      0.0000      3.5873     -2.0763
  3121.6000      7.6230   4339.5942      0.0000      3.5774     -2.0183
  3121.5500      7.6230   4345.1040      0.0000      3.5774     -1.9982
  3121.5000      7.6230   4345.1040      0.0000      3.5774     -2.0021
  3121.4500      8.0894   4368.9951      0.0000      3.5774     -2.0015
  3121.4000      8.0894   4404.4668      0.0000      3.5774     -2.0107
  3121.3500      8.0894   4404.4668      0.0000      3.5774     -2.0226
  3121.3000      8.4460   4437.3579      0.0000      3.5873     -2.0046
  3121.2500      8.4460   4456.0176      0.0000      3.6079     -2.0183
  3121.2000      8.4460   4456.0176      0.0000      3.6079     -2.0043
  3121.1500      8.6959   4460.2856      0.0000      3.5370     -2.0113
  3121.1000      8.6959   4449.0635      0.0000      3.6079     -2.0098
  3121.0500      8.6959   4449.0635      0.0000      3.6079     -2.0153
  3121.0000      8.9276   4423.9673      0.0000      3.5774     -2.0110
  3120.9500      8.9276   4400.5059      0.0000      3.5774     -1.9997
  3120.9000      8.9276   4400.5059      0.0000      3.5774     -2.0031
  3120.8500      8.9642   4391.5127      0.0000      3.5675     -1.9994
  3120.8000      8.9642   4395.6187      0.0000      3.5774     -2.0043
  3120.7500      8.9642   4395.6187      0.0000      3.5774     -2.0089
  3120.7000      9.1074   4408.1826      0.0000      3.6179     -2.0000
  3120.6500      9.1074   4417.3638      0.0000      3.5873     -2.0174
  3120.6000      9.1074   4417.3638      0.0000      3.5873     -2.0177
  3120.5500      9.1074   4403.8809      0.0000      3.5469     -1.9954
  3120.5000      9.1257   4369.6387      0.0000      3.5774     -2.0201
  3120.4500      9.1257   4369.6387      0.0000      3.5774     -2.0143
  3120.4000      9.1257   4338.3208      0.0000      3.5774     -2.0052
  3120.3500      9.0891   4320.9863      0.0000      3.5774     -2.0009
  3120.3000      9.0891   4320.9863      0.0000      3.5774     -2.0134
  3120.2500      9.1592   4315.4204      0.0000      3.6079     -2.0204
  3120.2000      9.1592   4315.4204      0.0000      3.6079     -2.0070
  3120.1500      9.1592   4325.5288      0.0000      3.5873     -2.0082
  3120.1000      9.1074   4348.1465      0.0000      3.5469     -2.0076
  3120.0500      9.1074   4348.1465      0.0000      3.5469     -2.0140
  3120.0000      9.1074   4370.1689      0.0000      3.5774     -2.0278
  3119.9500      9.1074   4391.7842      0.0000      3.6079     -2.0113
  3119.9000      9.1074   4391.7842      0.0000      3.6079     -2.0256
  3119.8500      9.1074   4413.2925      0.0000      3.5774     -2.0085
  3119.8000      9.0708   4420.2495      0.0000      3.5469     -2.0061
  3119.7500      9.0708   4420.2495      0.0000      3.5469     -2.0073
  3119.7000      9.0708   4413.1138      0.0000      3.5774     -2.0314
  3119.6500      9.0343   4407.5029      0.0000      3.5774     -2.0024
  3119.6000      9.0343   4407.5029      0.0000      3.5774     -2.0134
  3119.5500      9.0343   4402.8999      0.0000      3.5774     -2.0021
  3119.5000      9.0343   4395.0264      0.0000      3.5469     -2.0101
  3119.4500      9.0891   4395.0264      0.0000      3.5469     -2.0168
  3119.4000      9.0891   4389.4170      0.0000      3.5675     -2.0067
  3119.3500      9.0891   4379.5815      0.0000      3.6179     -2.0085
  3119.3000      9.0160   4379.5815      0.0000      3.6179     -2.0174
  3119.2500      9.0160   4356.7949      0.0000      3.5469     -2.0116
  3119.2000      9.0160   4332.9058      0.0000      3.5774     -2.0098
  3119.1500      9.1074   4332.9058      0.0000      3.5774     -2.0153
  3119.1000      9.1074   4318.5645      0.0000      3.5774     -2.0140
  3119.0500      9.1074   4313.0459      0.0000      3.5370     -1.9976
  3119.0000      9.1257   4313.0459      0.0000      3.5370     -2.0000
  3118.9500      9.1257   4321.4136      0.0000      3.6179     -2.0208
  3118.9000      9.1257   4342.5566      0.0000      3.6079     -2.0079
  3118.8500      9.0891   4342.5566      0.0000      3.6079     -1.9976
  3118.8000      9.0891   4361.5254      0.0000      3.5774     -2.0009
  3118.7500      9.0891   4372.9209      0.0000      3.5774     -2.0018
  3118.7000      9.1775   4372.9209      0.0000      3.5774     -2.0031
  3118.6500      9.1775   4380.7690      0.0000      3.5675     -2.0214
  3118.6000      9.1775   4380.7690      0.0000      3.5675     -2.0040
  3118.5500      9.1074   4383.7603      0.0000      3.5370     -2.0107
  3118.5000      9.1074   4381.8721      0.0000      3.5469     -2.0119
  3118.4500      9.1074   4381.8721      0.0000      3.5469     -2.0165
  3118.4000      9.1074   4375.3247      0.0000      3.5774     -2.0113
  3118.3500      9.1074   4356.1631      0.0000      3.5469     -2.0134
  3118.3000      9.1074   4356.1631      0.0000      3.5469     -2.0101
