~Version Information
VERS.             2.0 : CWLS log ASCII standard - Version 2.0
WRAP.             NO  : One line per depth step
#
~Well Information Block
#MNEM.UNIT                   Data Type:Information
#__________________________________________________________
 STRT .M           2450.13480  :START INDEX                  
  STOP.M           3113.3796 : STOP INDEX                    
 STEP .M              0.00000  :STEP                         
  NULL.              -999.25 : NULL VALUE                    
  COMP.              Statoil : COMPANY                       
  WELL.            15_9_F-12 : WELL                          
   FLD.                Volve : FIELD                         
   LOC.           Maersk Inspirer : LOCATION                      
  PROV.                      : PROVINCE                      
  CNTY.                      : COUNTY                        
  STAT.                      : STATE                         
  CTRY.                      : COUNTRY                       
  SRVC.              SLB D&M : SERVICE COMPANY               
  DATE.                      : LOG DATE                      
   UWI.                      : UNIQUE WELL ID                
   API.                      : API NUMBER                    
#
~Curve Information Block
#MNEM.UNIT                     : Curve Description
#---------                     --------------------
DEPT        .M                 : Bit Depth 2hz                                                   
TVDE        .M                 : SVY TVD_EXTR 2hz                                                
ARC_GR_RT   .GAPI              : ARC Gamma Ray, Real-Time                                        
ROP5        .M/HR              : 5ft ROP 2hz                                                     
SWOB        .KKGF              : Surface Weight on Bit 2hz                                       
RPM         .RPM               : SRF SRPM 2hz                                                    
TFLO        .LPM               : HSPM Total Pump Flow 2hz                                        
TRPM_RT     .RPM               : MWD TUR_RPM 2hz                                                 
SPPA        .BAR               : SRF PUMPRS 2hz                                                  
TQA         .KMN               : SRF STOR 2hz                                                    
SHKRSK_RT   .----              : MWD SHKRSK 2hz                                                  
SHK2_RT     .----              : ARC Shock Level, Real-Time                                      
SHK_ADN_RT  .----              : ADN Shock Level, Real-Time                                      
PDSHKRSK    .----              : PowerDrive Shock Risk 2hz                                       
ECD_ARC     .G/C3              : Equivalent Circulating Density                                  
ATMP        .DEGC              : ARC Annular Temperature                                         
APRS_ARC    .BAR               : ARC Annular Pressure                                            
#
~Parameter Information Block
#MNEM.UNIT                       Value:Description
#__________________________________________________________
#
~Other Information Block

#
~A    DEPT       TVDE  ARC_GR_RT       ROP5       SWOB        RPM       TFLO    TRPM_RT       SPPA        TQA  SHKRSK_RT    SHK2_RT SHK_ADN_RT   PDSHKRSK    ECD_ARC       ATMP   APRS_ARC
# ...
 2895.7524  2736.7138    26.6663    13.7133     8.0819   141.8961  3526.3477    -999.25   223.5796    32.9868    -999.25     0.0000    -999.25    -999.25     1.3900    91.0000   372.5928
 2895.9048  2736.8111    25.3163    14.4990     8.4818   144.2703  3540.5709    -999.25   223.6145    32.4700     0.0000    -999.25     0.0000     0.0000     1.3895    91.0000   372.4549
 2896.0571  2736.9153    35.5024    14.8250     8.0180   145.8919  3529.7923  2617.1875   223.6107    33.9478    -999.25     0.0000     0.0000    -999.25     1.3897    91.0000   372.5239
 2896.2097  2737.0127    26.6663    14.6732     8.3705   135.0132  3544.7618    -999.25   223.5544    32.0799     0.0000    -999.25     0.0000     0.0000     1.3894    91.0000   372.4549
 2896.3621  2737.1103    22.7216    14.3131     8.4322   143.4211  3544.7618  2617.1875   223.5991    39.3472    -999.25     0.0000     0.0000    -999.25     1.3896    87.0000   372.5239
 2896.5144  2737.2073    19.0924    14.3386     8.3191   137.4934  3544.7618    -999.25   223.4828    36.8463    -999.25    -999.25     0.0000     0.0000     1.3903    87.0000   372.7307
 2896.6667  2737.3112    21.4768    14.3761     7.9027   134.9600  3544.7618  2617.1875   223.6254    33.9874     0.0000    -999.25     0.0000    -999.25     1.3905    87.0000   372.7997
 2896.8191  2737.4088    21.4768    14.3773     8.3911   137.5867  3544.7618    -999.25   223.5408    33.2594    -999.25     0.0000     0.0000     0.0000     1.3902    87.0000   372.7307
 2896.9717  2737.5062    26.6663    14.4210     8.3271   141.8553  3544.7618  2578.1250   223.5077    36.4385     0.0000    -999.25    -999.25    -999.25     1.3907    88.0000   372.8686
 2897.1240  2737.6038    24.0014    14.4882     8.4573   142.0253  3544.7618    -999.25   223.7419    34.1832    -999.25     0.0000     0.0000     0.0000     1.3896    88.0000   372.5928
 2897.2764  2737.7077    22.7216    14.3920     8.3195   141.6024  3544.7618  2617.1875   223.5058    32.3854     0.0000    -999.25     0.0000    -999.25     1.3893    88.0000   372.5239
 2897.4287  2737.8050    24.0014    14.2785     8.6580   144.5375  3544.7618    -999.25   223.6312    36.9914    -999.25     0.0000     0.0000    -999.25     1.3903    88.0000   372.7997
 2897.5813  2737.9023    21.4768    13.9736     8.9756   145.0444  3544.7618  2617.1875   223.4125    35.1525    -999.25    -999.25     0.0000     0.0000     1.3902    88.0000   372.7997
 2897.7336  2738.0000    20.2671    13.4368     9.0108   144.4352  3544.7618    -999.25   223.3696    32.2807    -999.25     0.0000     0.0000     0.0000     1.3910    88.0000   373.0065
 2897.8860  2738.1036    25.3163    13.2755     8.7639   136.9059  3544.7618  2617.1875   223.6692    32.0705     0.0000    -999.25     0.0000    -999.25     1.3906    89.0000   372.9376
 2898.0383  2738.2012    21.4768    13.2484     8.7268   142.4935  3544.7618    -999.25   223.5971    35.7075    -999.25     0.0000     0.0000     0.0000     1.3901    89.0000   372.7997
 2898.1909  2738.2985    20.2671    13.1104     9.1649   144.7143  3544.7618  2578.1250   223.6427    33.5411     0.0000    -999.25    -999.25    -999.25     1.3913    89.0000   373.1444
 2898.3433  2738.3959    29.4714    12.9901     9.0232   138.6868  3544.7618    -999.25   223.6209    32.8734    -999.25     0.0000     0.0000     0.0000     1.3910    89.0000   373.0755
 2898.4956  2738.5000    22.7216    12.8252     8.7070   136.2644  3544.7618  2617.1875   223.4873    37.5348     0.0000    -999.25     0.0000    -999.25     1.3915    89.0000   373.2133
 2898.6479  2738.5971    24.0014    12.7486     8.9917   135.6190  3544.7618    -999.25   223.5129    32.2881    -999.25     0.0000    -999.25     0.0000     1.3917    89.0000   373.2823
 2898.8003  2738.6947    29.4714    12.7544     8.9222   136.5366  3544.7618  2578.1250   223.6365    33.0885     0.0000    -999.25     0.0000    -999.25     1.3904    89.0000   372.9376
 2898.9529  2738.7920    24.0014    12.6269     9.0879   143.9663  3544.7618    -999.25   223.4849    33.8612    -999.25     0.0000     0.0000     0.0000     1.3919    89.0000   373.3512
 2899.1052  2738.8959    24.0014    12.6145     8.6577   139.4945  3544.7618  2617.1875   223.5419    31.6295     0.0000    -999.25     0.0000    -999.25     1.3921    89.0000   373.4202
 2899.2576  2738.9936    28.0513    12.9299     8.8959   145.2209  3544.7618    -999.25   223.6385    35.7828    -999.25     0.0000    -999.25     0.0000     1.3915    89.0000   373.2823
 2899.4099  2739.0909    -999.25    12.7974     9.0616   145.0211  3544.7618  2617.1875   223.5544    33.7065     0.0000     0.0000     0.0000    -999.25     1.3917    89.0000   373.3512
 2899.5625  2739.1882    20.2671    12.5274     9.3450   144.0737  3544.7618    -999.25   223.4341    31.4432     0.0000    -999.25     0.0000     0.0000     1.3922    89.0000   373.4891
 2899.7148  2739.2859    25.3163    12.1355     9.4513   142.8750  3544.7618  2617.1875   223.4231    30.9658    -999.25     0.0000     0.0000     0.0000     1.3914    89.0000   373.2823
 2899.8672  2739.3897    20.2671    11.9150     9.3229   143.8400  3544.7618  2617.1875   223.7650    36.2537     0.0000    -999.25     0.0000    -999.25     1.3913    89.0000   373.2823
 2900.0195  2739.4871    20.2671    11.6977     9.0201   144.1250  3544.7618    -999.25   223.5836    33.3456     0.0000     0.0000     0.0000     0.0000     1.3913    89.0000   373.2823
 2900.1721  2739.5844    21.4768    11.4207     8.9291   141.3084  3544.7618  2617.1875   223.4901    31.4589    -999.25     0.0000     0.0000    -999.25     1.3915    89.0000   373.3512
 2900.3245  2739.6817    24.0014    11.0999     9.0430   146.4495  3544.7618  2617.1875   223.6467    31.7315     0.0000    -999.25     0.0000     0.0000     1.3919    89.0000   373.4891
 2900.4768  2739.7859    22.7216    10.9417     8.9891   145.0289  3544.7618    -999.25   223.6513    34.7716    -999.25     0.0000    -999.25     0.0000     1.3916    89.0000   373.4202
 2900.6292  2739.8830    25.3163    10.7499     8.8108   141.1009  3544.7618  2617.1875   223.4770    29.0005     0.0000     0.0000     0.0000    -999.25     1.3924    89.0000   373.6270
 2900.7815  2739.9806    22.7216    10.5231     8.7422   141.7963  3544.7618  2578.1250   223.6269    31.2897     0.0000    -999.25     0.0000     0.0000     1.3918    89.0000   373.4891
 2900.9341  2740.0779    21.4768    10.3832     9.3105   138.2294  3544.7618    -999.25   223.6391    31.0629    -999.25     0.0000     0.0000     0.0000     1.3923    89.0000   373.6270
 2901.0864  2740.1821    26.6663    10.1997     9.3266   139.5965  3544.7618  2617.1875   223.6459    31.6752     0.0000     0.0000     0.0000    -999.25     1.3912    89.0000   373.3512
 2901.2388  2740.2794    25.3163    10.2692     9.0913   135.0667  3544.7618  2617.1875   223.7452    35.7175     0.0000    -999.25     0.0000     0.0000     1.3917    89.0000   373.4891
 2901.3911  2740.3768    21.4768    10.1625     9.7661   130.0182  3544.7618    -999.25   223.7550    32.5788    -999.25     0.0000     0.0000     0.0000     1.3916    89.0000   373.4891
 2901.5437  2740.4744    24.0014    10.0313     9.4311   140.0508  3544.7618  2617.1875   223.7484    35.0716     0.0000     0.0000     0.0000    -999.25     1.3913    89.0000   373.4202
 2901.6960  2740.5780    28.0513    10.0223     9.2730   134.5963  3544.7618  2578.1250   223.7732    32.7927     0.0000    -999.25    -999.25     0.0000     1.3918    89.0000   373.5581
 2901.8484  2740.6756    26.6663    10.1132     9.2593   144.9091  3544.7618    -999.25   223.6793    35.0025    -999.25     0.0000     0.0000     1.0000     1.3912    89.0000   373.4202
 2902.0007  2740.7729    32.4168    10.0171     9.3433   134.8070  3544.7618  2617.1875   223.7414    29.3476     0.0000    -999.25     0.0000    -999.25     1.3912    89.0000   373.4202
 2902.1533  2740.8703    25.3163    10.0201     9.8473   141.4955  3544.7618    -999.25   223.6618    30.9724     0.0000     0.0000     0.0000     1.0000     1.3909    89.0000   373.3512
