~Version Information
VERS.                      2.0: CWLS Log ASCII Standard - VERSION 2.0
WRAP.                       NO: One line per depth step
~Well Information Block
STRT.M               3169.9500: START DEPTH
STOP.M               3076.7000: STOP DEPTH
STEP.M                 -0.0500: STEP
NULL.                -999.2500: NULL VALUE
COMP.                  Statoil: COMPANY
WELL.                15/9-F-12: WELL
FLD.                     Volve: FIELD
LOC.                          : LOCATION
SRVC.          Halliburton Logging Services: SERVICE COMPANY
DATE.          Wed Nov 26 07-57-02 2014: LOG DATE
UWI.                          : UNIQUE WELL ID
SECT.                         : SECTION
TOWN.                         : TOWNSHIP
RANG.                         : RANGE
API.                          : API#
OS.                           : OTHER SERVICES
PDAT.FT                       : PERMANENT DATUM
EEL.FT                        : ELEVATION
LMF.FT                        : LOG MEASURED FROM
DMF.FT                        : DRILLING MEASURED FROM
EKB.FT                        : KB
EDF.FT                        : DF
EGL.FT                        : GL
DATE1.                        : DATE1
RUN1.                         : RUN NUMBER
TDD1.FT                       : DEPTH DRILLER
TDL1.FT                       : DEPTH LOGGER
BLI1.FT                       : BOTTOM LOGGED INTERVAL
TLI1.FT                       : TOP LOG INTERVAL
CDD1.IN_FT                    : CASING DRILLER
CDL1.FT                       : CASING LOGGER
BS1.IN                        : BIT SIZE
DFT1.                         : TYPE FLUID IN HOLE
DFDV1.GM/C3_CP                : DENSITY/VISCOSITY
DFPL1.C3                      : PH/FLUID LOSS
MSS1.                         : SOURCE OF SAMPLE
RMT1.OHHM_DEGF                : RM@MEASURED TEMP
RMFT1.OHMM_DEGF                : RMF@MEASURED TEMP
RMCT1.OHMM_DEGF                : RMC@MEASURED TEMP
RMFS1.                        : SOURCE OF RMF/RMC
RMBT1.OHMM_DEGF                : RM@BHT
TCS1.                         : TIME CIRCULATION STOPPED
TLOB1.                        : TIME LOGGER ON BOTTOM
BHT1.DEGF                     : MAXIMUM RECORDED TEMPERATURE
LUN1.                         : EQUIPMENT NUMBER
LUL1.                         : LOCATION
ENGI1.                        : RECORDED BY
WITN1.                        : WITNESSED BY
~Curve Information Block
DEPT.M             0 000 00 00: Depth
LSPD.M/MIN                   0: Line Speed
LTEN.LB                      0: Surface Line Tension
MINMK.                       0: Minute Mark Ticks
GR.GAPI                      0: Gamma Ray
CCL.                         0: Casing Collar Locator
ACCX.                        0: X Axis Accelerometer
ACCY.                        0: Y Axis Accelerometer
ACCZ.                        0: Z Axis Accelerometer
RB.DEG                       0: Relative Bearing
DEVI.DEG                     0: Deviation
TOTG.GEE                     0: Total G
RBRef.DEG                    0: RB Reference
IntTemp.DEGF                 0: Internal Electronics Temperature
~Parameter Information Block
~A  Depth       LSPD        LTEN       MINMK         GR         CCL         ACCX        ACCY        ACCZ         RB         DEVI        TOTG       RBRef      IntTemp   
# ...
  3141.1500      9.1074   4411.3877      0.0000     38.2834    515.0000   1164.4000   2706.3000   2133.8000     66.7199      0.0247   3637.7178    -66.7199    225.8087
  3141.1000      9.1074   4419.5361      0.0000     35.0252    522.0000   1140.1000   2717.2000   2130.6001     67.2377      0.0248   3636.2700    -67.2377    225.8045
  3141.0500      9.1410   4394.6504      0.0000     33.2082    527.0000   1112.4000   2735.6001   2161.5000     67.8715      0.0246   3659.6479    -67.8715    225.7967
  3141.0000      9.1410   4375.0923      0.0000     30.2633    516.0000   1073.5000   2742.0000   2136.1001     68.6195      0.0247   3637.8413    -68.6195    225.7714
  3140.9500      9.1410   4408.2817      0.0000     30.2633    545.0000   1039.8000   2753.1001   2123.8999     69.3093      0.0248   3629.2830    -69.3093    225.7580
  3140.9000      9.1074   4478.9883      0.0000     30.7019    502.0000    990.6000   2764.5000   2087.1001     70.2859      0.0250   3602.7400    -70.2859    225.7545
  3140.8500      9.1074   4498.5591      0.0000     30.3260    565.0000    962.4000   2772.3000   2104.3000     70.8556      0.0249   3611.0857    -70.8556    225.7524
  3140.8000      9.1074   4485.9731      0.0000     29.6367    502.0000    936.8000   2774.1001   2106.3999     71.3404      0.0250   3606.9580    -71.3404    225.7545
  3140.7500      9.0891   4477.5913      0.0000     29.1981    534.0000    920.5000   2773.8999   2098.8999     71.6419      0.0250   3598.2249    -71.6419    225.7651
  3140.7000      9.0891   4487.4473      0.0000     29.4488    521.0000    915.1000   2783.8000   2099.8999     71.8031      0.0250   3605.0701    -71.8031    225.7707
  3140.6500      9.0891   4476.9692      0.0000     29.2608    547.0000    914.9000   2790.5000   2120.3999     71.8476      0.0248   3622.1580    -71.8476    225.7756
  3140.6000      9.0891   4433.3228      0.0000     29.5741    533.0000    917.5000   2797.8000   2165.8999     71.8438      0.0246   3655.2173    -71.8438    225.7791
  3140.5500      9.0891   4376.7168      0.0000     31.1405    511.0000    906.7000   2793.5000   2202.0000     72.0179      0.0245   3670.7698    -72.0179    225.7707
  3140.5000      9.0891   4346.4082      0.0000     31.5164    520.0000    879.0000   2843.8999   2155.5000     72.8245      0.0245   3675.1311    -72.8245    225.7623
  3140.4500      9.0708   4384.4893      0.0000     32.7069    534.0000    836.5000   2874.1001   2186.6001     73.7725      0.0243   3706.9399    -73.7725    225.7658
  3140.4000      9.0708   4434.1431      0.0000     34.0227    534.0000    824.4000   2860.7000   2183.3999     73.9240      0.0244   3691.9473    -73.9240    225.7770
  3140.3500      9.0708   4444.4863      0.0000     35.5265    530.0000    793.7000   2875.0000   2210.5000     74.5668      0.0242   3712.3975    -74.5668    225.7869
  3140.3000      9.0891   4412.0020      0.0000     36.7796    523.0000    712.1000   2855.3000   2175.3999     75.9963      0.0246   3659.5339    -75.9963    225.8171
  3140.2500      9.0891   4426.6709      0.0000     38.8473    537.0000    652.1000   2867.5000   2123.3999     77.1882      0.0248   3627.2053    -77.1882    225.8347
  3140.2000      9.0891   4487.1655      0.0000     40.1004    503.0000    611.1000   2845.8999   2177.8000     77.8809      0.0248   3635.2996    -77.8809    225.8410
  3140.1500      9.0891   4536.0366      0.0000     41.9175    574.0000    557.4000   2832.8000   2150.8999     78.8683      0.0250   3600.2529    -78.8683    225.8298
  3140.1000      9.0891   4502.0967      0.0000     43.9852    505.0000    447.0000   2875.3000   2162.3999     81.1634      0.0248   3625.3459    -81.1634    225.8101
  3140.0500      9.0891   4441.3174      0.0000     44.7997    529.0000    369.1000   2891.3000   2130.3999     82.7250      0.0249   3610.3262    -82.7250    225.7862
  3140.0000      9.0708   4424.3350      0.0000     45.4263    532.0000    327.8000   2929.8999   2113.1001     83.6162      0.0248   3627.2522    -83.6162    225.7637
  3139.9500      9.0708   4465.0771      0.0000     45.1757    512.0000    264.2000   2929.1001   2162.2000     84.8460      0.0247   3650.2791    -84.8460    225.7489
  3139.9000      9.0708   4467.9141      0.0000     44.1105    522.0000    226.9000   2947.7000   2176.7000     85.5983      0.0245   3671.2996    -85.5983    225.7475
  3139.8500      9.0526   4418.0532      0.0000     42.9827    525.0000    167.1000   2992.7000   2204.1001     86.8042      0.0242   3720.5151    -86.8042    225.7447
  3139.8000      9.0526   4353.7935      0.0000     42.7947    527.0000    129.7000   3009.6001   2158.0000     87.5323      0.0243   3705.6011    -87.5323    225.7454
  3139.7500      9.0526   4335.1060      0.0000     43.1080    528.0000     69.7000   2993.8000   2167.1001     88.6663      0.0243   3696.4875    -88.6663    225.7384
  3139.7000      9.0708   4373.1587      0.0000     43.2333    525.0000     15.3000   2996.0000   2191.8999     89.7074      0.0242   3712.2332    -89.7074    225.7236
  3139.6500      9.0708   4404.5425      0.0000     44.1732    521.0000    -26.7000   2997.1001   2177.1001     90.5104      0.0243   3704.4685    -90.5104    225.7088
  3139.6000      9.0708   4394.5303      0.0000     44.7371    532.0000    -78.2000   2970.8000   2141.2000     91.5078      0.0246   3662.8547    -91.5078    225.6976
  3139.5500      9.1257   4357.8765      0.0000     44.8624    493.0000   -144.4000   2900.0000   2093.3999     92.8506      0.0251   3579.5496    -92.8506    225.6842
  3139.5000      9.1257   4377.1001      0.0000     42.7947    581.0000   -191.2000   2873.3999   2145.3000     93.8069      0.0251   3591.0022    -93.8069    225.6800
  3139.4500      9.1257   4430.5371      0.0000     41.2909    510.0000   -250.0000   2897.8999   2159.8999     94.9307      0.0248   3622.9121    -94.9307    225.6800
  3139.4000      9.0891   4451.8003      0.0000     37.9075    539.0000   -313.8000   2884.2000   2160.8999     96.2093      0.0249   3617.5361    -96.2093    225.6828
  3139.3500      9.0891   4398.8931      0.0000     35.5265    532.0000   -390.0000   2919.6001   2141.8999     97.6085      0.0247   3641.9639    -97.6085    225.6849
  3139.3000      9.0891   4337.6880      0.0000     32.2057    492.0000   -478.6000   2888.7000   2142.8000     99.4073      0.0248   3628.3933    -99.4073    225.6870
  3139.2500      9.1257   4325.3306      0.0000     30.7646    531.0000   -552.0000   2875.2000   2190.0000    100.8678      0.0246   3656.1699   -100.8678    225.6891
  3139.2000      9.1257   4361.3105      0.0000     29.3235    526.0000   -684.6000   2844.8000   2174.2000    103.5309      0.0247   3645.3682   -103.5309    225.6906
  3139.1500      9.1257   4355.9712      0.0000     28.5716    527.0000   -784.8000   2809.8000   2163.0000    105.6055      0.0248   3631.7290   -105.6055    225.6884
  3139.1000      9.1257   4314.6504      0.0000     28.0703    537.0000   -905.2000   2809.2000   2134.6001    107.8603      0.0247   3642.4592   -107.8603    225.6863
  3139.0500      9.1775   4280.9951      0.0000     29.7621    531.0000  -1013.1000   2727.7000   2164.1001    110.3756      0.0248   3626.2996   -110.3756    225.6835
  3139.0000      9.1775   4300.9922      0.0000     30.8899    509.0000  -1123.1000   2712.7000   2153.5000    112.4903      0.0247   3641.1064   -112.4903    225.6807
  3138.9500      9.1775   4339.2529      0.0000     32.4563    548.0000  -1180.8000   2699.5000   2114.8000    113.6253      0.0248   3626.8401   -113.6253    225.6821
  3138.9000      9.0891   4370.2632      0.0000     34.8373    521.0000  -1220.4000   2669.1001   2078.8999    114.5714      0.0250   3596.5674   -114.5714    225.6898
  3138.8500      9.0891   4360.2490      0.0000     35.9651    505.0000  -1256.1000   2643.7000   2083.7000    115.4138      0.0250   3592.8738   -115.4138    225.7018
  3138.8000      9.1257   4345.1401      0.0000     34.8373    520.0000  -1288.0000   2624.8999   2131.3000    116.1365      0.0249   3618.2156   -116.1365    225.7187
