~Version Information
VERS.                      2.0: CWLS Log ASCII Standard - VERSION 2.0
WRAP.                       NO: One line per depth step
~Well Information Block
STRT.M               3785.6000: START DEPTH
STOP.M               3572.2000: STOP DEPTH
STEP.M                 -0.0500: STEP
NULL.                -999.2500: NULL VALUE
COMP.                  STATOIL: COMPANY
WELL.               15/9-F-1-C: WELL
FLD.                     VOLVE: FIELD
LOC.                          : LOCATION
SRVC.          Halliburton Logging Services: SERVICE COMPANY
DATE.          Wed Dec 03 05-47-41 2014: LOG DATE
UWI.                          : UNIQUE WELL ID
CTRY.                   NORWAY: COUNTRY
SECT.                         : SECTION
TOWN.                         : TOWNSHIP
RANG.                         : RANGE
API.                          : API#
OS.                   --NONE--: OTHER SERVICES
PDAT.FT                  M.S.L: PERMANENT DATUM
EEL.FT                   54.9M: ELEVATION
LMF.FT                   R.K.B: LOG MEASURED FROM
DMF.FT                   R.K.B: DRILLING MEASURED FROM
EKB.FT                   54.9M: KB
EDF.FT                   54.9M: DF
EGL.FT                    -91M: GL
DATE1.         03-DEC-14 @ 05:47: DATE1
RUN1.                    1 & 2: RUN NUMBER
TDD1.FT                  4094M: DEPTH DRILLER
TDL1.FT                  3782M: DEPTH LOGGER
BLI1.FT                  3772M: BOTTOM LOGGED INTERVAL
TLI1.FT                  3572M: TOP LOG INTERVAL
CDD1.IN_FT                    : CASING DRILLER
CDL1.FT                       : CASING LOGGER
BS1.IN                    8.5": BIT SIZE
DFT1.                SEA WATER: TYPE FLUID IN HOLE
DFDV1.GM/C3_CP          1.03SG: DENSITY/VISCOSITY
DFPL1.C3                      : PH/FLUID LOSS
MSS1.                         : SOURCE OF SAMPLE
RMT1.OHHM_DEGF                : RM@MEASURED TEMP
RMFT1.OHMM_DEGF                : RMF@MEASURED TEMP
RMCT1.OHMM_DEGF                : RMC@MEASURED TEMP
RMFS1.                        : SOURCE OF RMF/RMC
RMBT1.OHMM_DEGF                : RM@BHT
TCS1.                         : TIME CIRCULATION STOPPED
TLOB1.                36 HOURS: TIME LOGGER ON BOTTOM
BHT1.DEGF                 FULL: MAXIMUM RECORDED TEMPERATURE
LUN1.                 12030699: EQUIPMENT NUMBER
LUL1.                   NORWAY: LOCATION
ENGI1.              C.JAMIESON: RECORDED BY
WITN1.                A.ALBAWI: WITNESSED BY
~Curve Information Block
DEPT.M             0 000 00 00: Depth
LSPD.M/MIN                   0: Line Speed
LTEN.LB                      0: Surface Line Tension
MINMK.                       0: Minute Mark Ticks
HVOLTA.V                     0: Head Voltage Apparent
CCL.                         0: Casing Collar Locator
~Parameter Information Block
SRFTEMP.DEGC           12.0000: Surface Temperature
MudWgt.LB/GAL           8.5600: Mud Weight
CASETHCK.IN             0.4530: Casing Thickness
BITSIZE.IN             12.2500: Borehole I.D.
~Other Information
TOOL STRING DEPLOYED BY ALTUS INTERVENTION WIRELINE UNIT ON 7/16" CABLE
CABLE HEAD BUILT BY ALTUS
LOG CORRELATED TO SHLUMBERGER 4.5" HSD OX POWER JET PULS DATED 09.APRIL.2014
CORRELATION LOG IS SHALLOWER BY 1.4M, DEPTH SHIFTED 1.4M DOWN AS PER
CLIENTS REQUEST.
4.655" HSC GUN 10 AND 350 DEGREE PHASING, 39 GR MILLENIUM, 4 SHOTS PER FOOT.
ATTEMPT WAS MADE TO RUN 4 GUNS IN ONE STRING BUT AT 3600M PICK UP WEIGHT 
WAS TOO HIGH TO CONTINUE.  CLIENT D4ECIDED TO SPLIT UP ONTO TWO RUNS.
RUN #1 CCL TO TOP SHOT 3.25 M, CCL STOP DEPT: 3729.75 M
PERFORATION INTERVAL 3733M - 3742.6M
RUN #2 CCL TO TOP SHOT 3.25 M, CCL STOP DEPT: 3711.75 M
PERFORATION INTERVAL 3715M - 3724.6M

~A  Depth       LSPD        LTEN       MINMK       HVOLTA       CCL     
# ...
  3634.4000      9.6073   6283.7144      0.0000      3.5263     -0.1154
  3634.3500      9.6439   6316.5303      0.0000      3.5263     -0.0192
  3634.3000      9.6439   6358.9331      0.0000      3.5370     -0.0116
  3634.2500      9.6439   6358.9331      0.0000      3.5370     -0.0159
  3634.2000      9.6439   6393.6870      0.0000      3.4851     -0.0208
  3634.1500      9.5341   6420.2168      0.0000      3.5255      0.0253
  3634.1000      9.5341   6420.2168      0.0000      3.5255      0.0128
  3634.0500      9.5341   6459.7041      0.0000      3.4859     -0.0186
  3634.0000      9.5341   6509.6719      0.0000      3.4859     -0.0430
  3633.9500      9.5341   6509.6719      0.0000      3.4859     -0.0461
  3633.9000      9.5341   6543.8936      0.0000      3.4958     -0.0311
  3633.8500      9.5006   6558.7012      0.0000      3.4653     -0.0284
  3633.8000      9.5006   6558.7012      0.0000      3.4653      0.0201
  3633.7500      9.5006   6560.9180      0.0000      3.5255      0.0412
  3633.7000      9.5006   6538.3232      0.0000      3.5057      0.0485
  3633.6500      9.5006   6538.3232      0.0000      3.5057      0.0043
  3633.6000      9.5006   6488.6987      0.0000      3.4958     -0.2518
  3633.5500      9.5707   6427.2129      0.0000      3.4859     -0.3403
  3633.5000      9.5707   6427.2129      0.0000      3.4859      0.2545
  3633.4500      9.5707   6357.4990      0.0000      3.5461     -0.2988
  3633.4000      9.5890   6285.8550      0.0000      3.4950      0.3430
  3633.3500      9.5890   6285.8550      0.0000      3.4950      0.1785
  3633.3000      9.5890   6233.0166      0.0000      3.4653      0.1334
  3633.2500      9.5890   6206.8013      0.0000      3.4653      0.1822
  3633.2000      9.6073   6206.8013      0.0000      3.4653     -0.0906
  3633.1500      9.6073   6206.4092      0.0000      3.4859     -0.0369
  3633.1000      9.6073   6239.9883      0.0000      3.4859     -0.0229
  3633.0500      9.6256   6239.9883      0.0000      3.4859      0.0098
  3633.0000      9.6256   6296.1895      0.0000      3.5156     -0.0113
  3632.9500      9.6256   6296.1895      0.0000      3.5156     -0.0229
  3632.9000      9.5890   6345.2681      0.0000      3.5461      0.0021
  3632.8500      9.5890   6387.4917      0.0000      3.4958     -0.0180
  3632.8000      9.5890   6387.4917      0.0000      3.4958     -0.0183
  3632.7500      9.5341   6438.6206      0.0000      3.4859     -0.0067
  3632.7000      9.5341   6487.4561      0.0000      3.5156      0.0021
  3632.6500      9.5341   6487.4561      0.0000      3.5156     -0.0122
  3632.6000      9.5341   6520.4438      0.0000      3.5461     -0.0177
  3632.5500      9.5341   6544.8779      0.0000      3.4859     -0.0055
  3632.5000      9.5341   6544.8779      0.0000      3.4859     -0.0284
  3632.4500      9.5341   6563.0537      0.0000      3.4859      0.0085
  3632.4000      9.4823   6567.8545      0.0000      3.4554     -0.0256
  3632.3500      9.4823   6567.8545      0.0000      3.4554      0.0235
  3632.3000      9.4823   6558.9546      0.0000      3.4851      0.0485
  3632.2500      9.5006   6532.5010      0.0000      3.5255     -0.0082
  3632.2000      9.5006   6532.5010      0.0000      3.5255     -0.0195
  3632.1500      9.5006   6485.4434      0.0000      3.5156      0.0226
  3632.1000      9.5189   6433.4531      0.0000      3.5263     -0.1892
  3632.0500      9.5189   6433.4531      0.0000      3.5263      0.1514
  3632.0000      9.5189   6386.5332      0.0000      3.4554      0.1282
  3631.9500      9.5707   6342.0327      0.0000      3.5057      0.2698
  3631.9000      9.5707   6342.0327      0.0000      3.5057     -0.2112
  3631.8500      9.5707   6317.3037      0.0000      3.4950      0.0677
  3631.8000      9.6073   6328.0894      0.0000      3.5057     -0.0067
  3631.7500      9.6073   6328.0894      0.0000      3.5057      0.0858
  3631.7000      9.6073   6354.7612      0.0000      3.4653     -0.0305
  3631.6500      9.6073   6382.7153      0.0000      3.4859     -0.0143
  3631.6000      9.6073   6382.7153      0.0000      3.4859     -0.0024
  3631.5500      9.6073   6422.9854      0.0000      3.5156     -0.0156
  3631.5000      9.6073   6471.8770      0.0000      3.5156     -0.0110
  3631.4500      9.5707   6471.8770      0.0000      3.5156     -0.0165
  3631.4000      9.5707   6516.3530      0.0000      3.5362     -0.0140
  3631.3500      9.5707   6516.3530      0.0000      3.5362     -0.0140
  3631.3000      9.5524   6558.9648      0.0000      3.4958     -0.0107
  3631.2500      9.5524   6592.3901      0.0000      3.4958      0.0079
  3631.2000      9.5524   6592.3901      0.0000      3.4958     -0.0067
  3631.1500      9.4640   6601.6846      0.0000      3.5164     -0.0095
  3631.1000      9.4640   6597.2656      0.0000      3.5156      0.0085
  3631.0500      9.4640   6597.2656      0.0000      3.5156     -0.0452
  3631.0000      9.4640   6591.7852      0.0000      3.5561     -0.0674
  3630.9500      9.4640   6573.8184      0.0000      3.5057      0.0760
  3630.9000      9.4640   6573.8184      0.0000      3.5057     -0.0977
  3630.8500      9.5189   6537.9517      0.0000      3.4859      0.0729
  3630.8000      9.5189   6494.0508      0.0000      3.4760     -0.1718
  3630.7500      9.5189   6494.0508      0.0000      3.4760     -0.1578
  3630.7000      9.5189   6441.1348      0.0000      3.5156      0.3177
  3630.6500      9.5189   6381.2993      0.0000      3.5255     -0.3915
  3630.6000      9.5189   6381.2993      0.0000      3.5255      0.3073
  3630.5500      9.5189   6336.5532      0.0000      3.4859      0.0650
  3630.5000      9.6073   6318.3979      0.0000      3.4859     -0.0119
  3630.4500      9.6073   6318.3979      0.0000      3.4859      0.0098
  3630.4000      9.6073   6319.1372      0.0000      3.4958      0.0763
  3630.3500      9.6439   6334.2134      0.0000      3.5057      0.0809
  3630.3000      9.6439   6334.2134      0.0000      3.5057      0.0027
  3630.2500      9.6439   6357.3789      0.0000      3.5057     -0.0293
  3630.2000      9.5890   6377.7290      0.0000      3.4958     -0.0497
  3630.1500      9.5890   6377.7290      0.0000      3.4958     -0.0333
  3630.1000      9.5890   6399.3101      0.0000      3.5057     -0.0165
  3630.0500      9.5890   6429.0664      0.0000      3.4554     -0.0360
  3630.0000      9.5890   6429.0664      0.0000      3.4554      0.0027
  3629.9500      9.5890   6458.7334      0.0000      3.4859      0.0079
  3629.9000      9.5707   6491.3857      0.0000      3.5156     -0.0696
  3629.8500      9.5707   6491.3857      0.0000      3.5156     -0.0357
  3629.8000      9.5707   6539.8867      0.0000      3.4752     -0.0183
  3629.7500      9.5707   6539.8867      0.0000      3.4752     -0.0101
  3629.7000      9.5006   6584.7881      0.0000      3.4859      0.0003
  3629.6500      9.5006   6597.3975      0.0000      3.4958     -0.0217
  3629.6000      9.5006   6597.3975      0.0000      3.4958     -0.0269
  3629.5500      9.5006   6587.6240      0.0000      3.4653      0.0003
  3629.5000      9.5006   6571.9395      0.0000      3.5156      0.0174
  3629.4500      9.5006   6571.9395      0.0000      3.5156      0.0275
  3629.4000      9.5006   6538.0000      0.0000      3.5156     -0.3531
  3629.3500      9.5006   6478.7847      0.0000      3.4958      0.1303
  3629.3000      9.5006   6478.7847      0.0000      3.4958      0.2960
  3629.2500      9.5006   6412.1558      0.0000      3.4653      0.0006
  3629.2000      9.5006   6356.8369      0.0000      3.4554      0.2057
  3629.1500      9.5006   6356.8369      0.0000      3.4554      0.2753
  3629.1000      9.5006   6324.6797      0.0000      3.5156     -0.5258
  3629.0500      9.6439   6317.0049      0.0000      3.4851      0.4004
  3629.0000      9.6439   6317.0049      0.0000      3.4851     -0.1059
  3628.9500      9.6439   6321.4341      0.0000      3.4958     -0.1489
  3628.9000      9.6256   6335.5005      0.0000      3.4859      0.0198
  3628.8500      9.6256   6335.5005      0.0000      3.4859     -0.0186
