~Version Information
VERS  .          2.0                              :CWLS Log Ascii Standard - Version 2.0
WRAP  .          NO                               :One line per depth step
~Well Information Block
#MNEM.UNIT       Data Type                        Information
#---------       ---------                        -------------------------------
STRT  .M         3396.00000                       :START DEPTH
STOP  .M         5302.00000                       :STOP DEPTH
STEP  .M          0.15240                         :INCREMENT
NULL  .          -999.25                          :NULL DATA VALUE
COMP  .          StatoilHydro                     :COMPANY
WELL  .          15/9-F-10                        :WELL
FLD   .          Volve                            :FIELD
LOC   .                                           :LOCATION
PROV  .          Norway                           :PROVINCE
STAT  .          Norway                           :STATE
CNTY  .          Maersk Inspirer                  :COUNTY
CTRY  .          Norway                           :COUNTRY
DATE  .                                           :DATE
UWI   .          15/9-F-10                        :UNIQUE WELL UWI
LIC   .                                           :LICENSE NUMBER
API   .                                           :API NUMBER
SRVC  .                                           :SERVICE COMPANY
~Parameter Information Block
#MNEM.UNIT       Value                            Description
#---------       ---------                        -------------
LONG  .DEG       1.887480                         :Well Surface Location
LATI  .DEG       58.441612                        :Well Surface Location
XWELL .DEG       1.887480                         :X-coordinate of Well Head
YWELL .DEG       58.441612                        :Y-coordinate of Well Head
PDAT  .          Mean Sea Level                   :Permanent Datum               
EPD   .m         0.00                             :Elevation of Permanent Datum (PDAT) above Mean Sea Level
LMF   .          Drill Floor                      :Logging Measured From (Name of Working Datum)
APD   .m         54.90                            :Elevation of Working Datum (LMF) Above Permanent Datum
EGL   .m         -91.00                           :Elevation of Ground Level Above Mean Sea Level
EDF   .m         54.90                            :Elevation of Derrick Floor Above Mean Sea Level
~Curve Information Block
#MNEM.UNIT       API Code            Curve    Description
#--------        --------------      -----    -------------------
DEPT  .M                             :0       Index
DTCO  .US/F                          :1       Delta-T Compressional         
DTSM  .US/F                          :2       Delta-T Shear                 
VPVS  .                              :3       Compressional to Shear Velocity Ratio
~Ascii Data Section
   3396.00000    -999.25000    -999.25000    -999.25000 
   3396.15240    -999.25000     118.22501    -999.25000 
   3396.30480      63.11383     119.14964       1.89212 
   3396.45720      58.97655     119.99004       2.03483 
   3396.60960      57.30708     120.60769       2.10543 
   3396.76200      56.65247     121.18849       2.13958 
   3396.91440      60.58444     123.93264       2.04982 
   3397.06680      67.81200     126.33813       1.86906 
   3397.21920      73.97414     127.45966       1.72342 
   3397.37160      75.81770     128.28052       1.69197 
   3397.52400      74.66251     127.70469       1.71119 
   3397.67640      71.08224     125.53300       1.76647 
   3397.82880      68.21295     124.08324       1.81967 
   3397.98120      67.18106     123.04813       1.83203 
   3398.13360      67.71379     121.60221       1.79595 
   3398.28600      66.90144     119.77337       1.79029 
   3398.43840      67.04408     116.69387       1.74061 
   3398.59080      67.35948     114.79617       1.70425 
   3398.74320      67.69793     113.57683       1.67770 
   3398.89560      66.64254     117.25635       1.76262 
   3399.04800      63.94331     123.06545       1.92476 
   3399.20040      63.32551     125.47171       1.98147 
   3399.35280      63.53764     127.93806       2.01359 
   3399.50520      64.70078     131.22766       2.02809 
   3399.65760      66.02399     134.14833       2.03221 
   3399.81000      68.76866     134.05200       1.95098 
   3399.96240      71.42728     132.69138       1.85780 
   3400.11480      72.30195     131.00459       1.81211 
   3400.26720      73.28545     130.26881       1.77757 
   3400.41960      73.77949     130.32658       1.76645 
   3400.57200      73.91218     131.05704       1.77320 
   3400.72440      72.64513     132.03764       1.81811 
   3400.87680      71.22752     131.92705       1.85220 
   3401.02920      71.27711     130.32523       1.82843 
   3401.18160      71.99602     129.83186       1.80351 
   3401.33400      73.25985     130.33611       1.77910 
   3401.48640      73.65061     129.99094       1.76500 
   3401.63880      74.82051     129.99026       1.73766 
   3401.79120      75.60445     129.32465       1.71057 
   3401.94360      74.87227     128.72208       1.71923 
   3402.09600      73.45924     128.80884       1.75429 
   3402.24840      70.23728     128.82500       1.83504 
   3402.40080      68.50260     129.97340       1.89729 
   3402.55320      69.12699     131.56375       1.90328 
   3402.70560      69.67056     131.81216       1.89192 
   3402.85800      70.09964     132.64781       1.89232 
   3403.01040      70.58767     132.52980       1.87752 
   3403.16280      71.33913     133.04216       1.86507 
   3403.31520      71.66832     132.70924       1.85180 
   3403.46760      71.31093     131.64233       1.84620 
   3403.62000      71.30158     130.70564       1.83340 
   3403.77240      69.65719     130.67113       1.87611 
   3403.92480      68.27268     130.14561       1.90633 
   3404.07720      67.82368     129.60979       1.91102 
   3404.22960      69.35608     130.46147       1.88155 
   3404.38200      69.82957     131.48511       1.88396 
   3404.53440      66.07487     131.16878       1.98710 
   3404.68680      63.01435     129.69360       2.05816 
   3404.83920      63.33871     129.00487       2.03704 
   3404.99160      63.82999     126.98096       1.98920 
   3405.14400      63.27595     122.53365       1.93660 
   3405.29640      63.02403     118.68157       1.88303 
   3405.44880      61.80979     116.33646       1.88230 
   3405.60120      60.84544     117.06844       1.92419 
   3405.75360      59.78905     118.58801       1.98381 
   3405.90600      58.38633     118.60397       2.03150 
   3406.05840      58.19530     119.02077       2.04528 
   3406.21080      58.57084     119.32738       2.03735 
   3406.36320      59.37439     118.76333       2.00172 
   3406.51560      61.21521     118.59246       1.93733 
   3406.66800      60.46479     118.84959       1.96583 
   3406.82040      59.20292     118.19242       1.99644 
   3406.97280      58.10678     117.11613       2.01569 
   3407.12520      57.53197     116.67776       2.02809 
   3407.27760      57.73563     116.96026       2.02582 
   3407.43000      57.84916     117.04152       2.02338 
   3407.58240      58.82842     116.62563       1.98263 
   3407.73480      59.29292     116.83554       1.97054 
   3407.88720      58.15811     117.32776       2.01805 
   3408.03960      56.90091     118.88039       2.08926 
   3408.19200      57.24524     120.85822       2.11137 
   3408.34440      57.56278     120.25477       2.08909 
   3408.49680      57.39963     120.31149       2.09595 
   3408.64920      58.03735     122.19618       2.10551 
   3408.80160      58.49596     122.09278       2.08724 
   3408.95400      59.05058     122.22503       2.06988 
   3409.10640      59.52166     121.46463       2.04073 
   3409.25880      59.59052     119.82950       2.01088 
   3409.41120      59.14091     118.98018       2.01184 
   3409.56360      58.38844     118.99397       2.03815 
   3409.71600      58.05013     119.70791       2.06219 
   3409.86840      58.36146     119.62328       2.04969 
   3410.02080      59.06553     120.60855       2.04213 
   3410.17320      60.85128     122.32057       2.01045 
   3410.32560      62.83873     124.17905       1.97637 
   3410.47800      64.19379     125.08314       1.94857 
   3410.63040      64.26349     123.43134       1.92064 
   3410.78280      63.99017     121.72030       1.90217 
   3410.93520      64.02195     121.94703       1.90477 
   3411.08760      63.99582     121.86447       1.90425 
   3411.24000      64.54150     121.72445       1.88616 
   3411.39240      65.51891     122.10709       1.86358 
   3411.54480      66.50555     125.44376       1.88617 
   3411.69720      66.98750     127.30737       1.90046 
   3411.84960      67.10206     128.08701       1.90884 
   3412.00200      67.51995     129.30965       1.91511 
   3412.15440      67.93773     130.31560       1.91816 
   3412.30680      67.76883     130.21486       1.92147 
   3412.45920      67.20659     130.76070       1.94577 
   3412.61160      66.95377     129.62090       1.93629 
   3412.76400      68.23611     128.80978       1.88777 
   3412.91640      69.18792     130.66743       1.88856 
   3413.06880      68.86251     131.84116       1.91470 
   3413.22120      68.41686     130.29648       1.90474 
   3413.37360      68.03468     127.42641       1.87332 
   3413.52600      65.60831     124.66582       1.90022 
   3413.67840      63.90274     122.01015       1.90934 
   3413.83080      63.15982     120.70551       1.91112 
   3413.98320      63.65134     121.46240       1.90825 
   3414.13560      62.52385     121.79766       1.94933 
   3414.28800      61.61688     122.12234       1.98292 
   3414.44040      63.29505     121.66360       1.92216 
   3414.59280      62.87778     120.53910       1.91707 
   3414.74520      62.69738     118.88830       1.89648 
   3414.89760      62.92644     117.13271       1.86150 
   3415.05000      61.95626     119.33427       1.92658 
   3415.20240      60.85866     124.22080       2.04156 
   3415.35480      58.76342     124.38986       2.11773 
   3415.50720      56.16827     122.14555       2.17485 
   3415.65960      55.76762     120.42726       2.16004 
   3415.81200      57.69351     119.09434       2.06532 
   3415.96440      60.25561     118.58482       1.96890 
   3416.11680      62.29310     115.74735       1.85871 
   3416.26920      64.22139     113.17660       1.76236 
   3416.42160      66.34584     116.47371       1.75556 
   3416.57400      66.39231     115.81241       1.74436 
   3416.72640      65.58990     115.02624       1.75409 
   3416.87880      64.01640     114.99332       1.79640 
   3417.03120      63.26053     115.63135       1.82792 
   3417.18360      62.86219     116.84770       1.85881 
   3417.33600      62.57091     117.03844       1.87050 
