~Version Information
VERS  .          2.0                              :CWLS Log Ascii Standard - Version 2.0
WRAP  .          NO                               :One line per depth step
~Well Information Block
#MNEM.UNIT       Data Type                        Information
#---------       ---------                        -------------------------------
STRT  .M         3396.00000                       :START DEPTH
STOP  .M         5302.00000                       :STOP DEPTH
STEP  .M          0.15240                         :INCREMENT
NULL  .          -999.25                          :NULL DATA VALUE
COMP  .          StatoilHydro                     :COMPANY
WELL  .          15/9-F-10                        :WELL
FLD   .          Volve                            :FIELD
LOC   .                                           :LOCATION
PROV  .          Norway                           :PROVINCE
STAT  .          Norway                           :STATE
CNTY  .          Maersk Inspirer                  :COUNTY
CTRY  .          Norway                           :COUNTRY
DATE  .                                           :DATE
UWI   .          15/9-F-10                        :UNIQUE WELL UWI
LIC   .                                           :LICENSE NUMBER
API   .                                           :API NUMBER
SRVC  .                                           :SERVICE COMPANY
~Parameter Information Block
#MNEM.UNIT       Value                            Description
#---------       ---------                        -------------
LONG  .DEG       1.887480                         :Well Surface Location
LATI  .DEG       58.441612                        :Well Surface Location
XWELL .DEG       1.887480                         :X-coordinate of Well Head
YWELL .DEG       58.441612                        :Y-coordinate of Well Head
PDAT  .          Mean Sea Level                   :Permanent Datum               
EPD   .m         0.00                             :Elevation of Permanent Datum (PDAT) above Mean Sea Level
LMF   .          Drill Floor                      :Logging Measured From (Name of Working Datum)
APD   .m         54.90                            :Elevation of Working Datum (LMF) Above Permanent Datum
EGL   .m         -91.00                           :Elevation of Ground Level Above Mean Sea Level
EDF   .m         54.90                            :Elevation of Derrick Floor Above Mean Sea Level
~Curve Information Block
#MNEM.UNIT       API Code            Curve    Description
#--------        --------------      -----    -------------------
DEPT  .M                             :0       Index
DTCO  .US/F                          :1       Delta-T Compressional         
DTSM  .US/F                          :2       Delta-T Shear                 
VPVS  .                              :3       Compressional to Shear Velocity Ratio
~Ascii Data Section
# ...
   4255.53600      64.51196     125.54082       1.94605 
   4255.68840      64.93049     127.58889       1.96529 
   4255.84080      66.06523     130.46577       1.97451 
   4255.99320      66.50918     135.10410       2.03136 
   4256.14560      66.92539     135.35341       2.02232 
   4256.29800      67.57905     137.91100       2.04074 
   4256.45040      67.33887     136.99568       2.03441 
   4256.60280      67.18568     137.47289       2.04609 
   4256.75520      67.67753     140.08736       2.06992 
   4256.90760      68.26188     141.48077       2.07261 
   4257.06000      69.19873     143.32547       2.07124 
   4257.21240      70.64861     144.16669       2.04116 
   4257.36480      71.67603     142.97884       1.99473 
   4257.51720      70.40681     140.38145       1.99395 
   4257.66960      69.68952     140.80339       2.02043 
   4257.82200      69.11165     141.78436       2.05166 
   4257.97440      67.51670     138.55670       2.05198 
   4258.12680      66.64713     135.06679       2.02660 
   4258.27920      67.08025     134.93449       2.01163 
   4258.43160      68.25370     133.84618       1.96150 
   4258.58400      69.16125     133.25986       1.92686 
   4258.73640      68.41605     134.65430       1.96835 
   4258.88880      67.84506     134.64302       1.98461 
   4259.04120      69.42220     133.95872       1.93076 
   4259.19360      70.67983     135.26974       1.91464 
   4259.34600      69.09243     139.06110       2.01287 
   4259.49840      67.51519     138.25517       2.04786 
   4259.65080      66.89230     136.63144       2.04280 
   4259.80320      68.57603     139.05338       2.02768 
   4259.95560      68.45269     141.03569       2.06079 
   4260.10800      67.79570     139.91573       2.06431 
   4260.26040      69.69614     137.42369       1.97246 
   4260.41280      70.69788     136.59306       1.93222 
   4260.56520      69.39240     135.50439       1.95272 
   4260.71760      69.06751     133.75209       1.93671 
   4260.87000      69.70130     133.57903       1.91646 
   4261.02240      69.41294     134.06316       1.93140 
   4261.17480      68.73147     134.73743       1.96057 
   4261.32720      66.96695     134.90306       2.01503 
   4261.47960      64.82206     133.75130       2.06349 
   4261.63200      64.93880     132.47487       2.04101 
   4261.78440      67.60276     132.87573       1.96588 
   4261.93680      68.81277     134.19748       1.95021 
   4262.08920      68.58575     134.65642       1.96332 
   4262.24160      68.65041     134.35876       1.95712 
   4262.39400      69.24517     135.80432       1.96126 
   4262.54640      69.79855     136.23364       1.95181 
   4262.69880      70.02843     137.19472       1.95910 
   4262.85120      70.24300     138.05215       1.96534 
   4263.00360      69.79582     137.55524       1.97091 
   4263.15600      69.21742     138.20883       1.99675 
   4263.30840      69.10874     136.79039       1.97943 
   4263.46080      69.26074     134.99237       1.94906 
   4263.61320      68.83829     135.86343       1.97376 
   4263.76560      68.70168     135.91649       1.97850 
   4263.91800      69.58834     133.13953       1.91355 
   4264.07040      70.22612     129.11168       1.83852 
   4264.22280      70.07788     127.29697       1.81655 
   4264.37520      69.59140     127.76405       1.83592 
   4264.52760      69.27202     127.92765       1.84673 
   4264.68000      69.40614     131.87340       1.89999 
   4264.83240      69.53818     135.49103       1.94845 
   4264.98480      69.73164     134.50548       1.92891 
   4265.13720      69.99781     134.56009       1.92235 
   4265.28960      70.42120     134.64326       1.91202 
   4265.44200      70.76775     134.85968       1.90568 
   4265.59440      70.67663     135.90221       1.92287 
   4265.74680      70.73717     138.08046       1.95200 
   4265.89920      71.20473     142.84290       2.00592 
   4266.05160      72.07069     146.23500       2.02908 
   4266.20400      73.10759     146.54877       2.00480 
   4266.35640      73.64907     147.52487       2.00338 
   4266.50880      72.43949     148.38193       2.04840 
   4266.66120      72.08142     149.10020       2.06848 
   4266.81360      71.94817     150.32390       2.08938 
   4266.96600      72.06200     150.37830       2.08696 
   4267.11840      72.84388     150.51045       2.06621 
   4267.27080      72.05526     151.84525       2.10795 
   4267.42320      70.92538     153.72295       2.16739 
   4267.57560      71.11477     152.38974       2.14294 
   4267.72800      71.18732     148.94748       2.09228 
   4267.88040      70.89038     145.97887       2.05921 
   4268.03280      70.80052     143.68430       2.02943 
   4268.18520      70.63600     141.27480       2.00002 
   4268.33760      70.18407     141.24449       2.01255 
   4268.49000      70.02543     145.61259       2.07939 
   4268.64240      70.25592     149.64694       2.13004 
   4268.79480      70.37681     148.88075       2.11546 
   4268.94720      69.86389     147.34479       2.10906 
   4269.09960      70.06799     146.39735       2.08980 
   4269.25200      71.07660     145.57051       2.04809 
   4269.40440      72.04151     145.61133       2.02199 
   4269.55680      74.29050     147.23853       1.98184 
   4269.70920      74.70004     150.73872       2.01804 
   4269.86160      74.49736     153.05948       2.05455 
   4270.01400      75.92181     156.01671       2.05506 
   4270.16640      76.95859     159.15039       2.06830 
   4270.31880      75.78651     159.09692       2.09928 
   4270.47120      75.89480     159.02332       2.09532 
   4270.62360      75.04436     159.14822       2.12141 
   4270.77600      73.23538     158.12820       2.15917 
   4270.92840      73.51590     156.05475       2.12289 
   4271.08080      75.30305     154.10037       2.04752 
   4271.23320      77.69543     151.49756       1.95015 
   4271.38560      78.06994     148.75003       1.90534 
   4271.53800      76.70901     148.40070       1.93510 
   4271.69040      74.03125     150.16806       2.02983 
   4271.84280      70.44462     148.97142       2.11511 
   4271.99520      68.62408     145.87170       2.12572 
   4272.14760      70.16273     144.90962       2.06645 
   4272.30000      72.07492     143.84421       1.99576 
   4272.45240      71.49618     143.10493       2.00171 
   4272.60480      69.44135     143.47844       2.06727 
   4272.75720      69.84215     147.58412       2.11471 
   4272.90960      73.70860     149.69183       2.03129 
   4273.06200      75.23975     150.56812       2.00116 
   4273.21440      76.17188     155.98627       2.04731 
   4273.36680      75.93928     165.17094       2.17722 
   4273.51920      73.71799     169.54654       2.29993 
   4273.67160      74.21712     168.81531       2.27492 
   4273.82400      73.47421     165.32310       2.25085 
   4273.97640      70.38618     161.15952       2.28968 
   4274.12880      69.28411     155.75368       2.24791 
   4274.28120      67.66896     150.61293       2.22753 
   4274.43360      65.80649     151.75298       2.30613 
   4274.58600      66.39146     153.05081       2.30531 
   4274.73840      66.56381    -999.25000    -999.25000 
   4274.89080      67.52316    -999.25000    -999.25000 
   4275.04320      68.04785    -999.25000    -999.25000 
   4275.19560      67.26333    -999.25000    -999.25000 
   4275.34800      65.98094    -999.25000    -999.25000 
   4275.50040      65.10106    -999.25000    -999.25000 
   4275.65280      64.50285    -999.25000    -999.25000 
   4275.80520      64.13453    -999.25000    -999.25000 
   4275.95760      65.53763    -999.25000    -999.25000 
   4276.11000      66.62679    -999.25000    -999.25000 
   4276.26240      64.52332    -999.25000    -999.25000 
   4276.41480      64.43806    -999.25000    -999.25000 
   4276.56720      67.86149    -999.25000    -999.25000 
   4276.71960      69.12563    -999.25000    -999.25000 
   4276.87200      68.79118     160.98213       2.34017 
