~Version Information
VERS  .          2.0                              :CWLS Log Ascii Standard - Version 2.0
WRAP  .          NO                               :One line per depth step
~Well Information Block
#MNEM.UNIT       Data Type                        Information
#---------       ---------                        -------------------------------
STRT  .M         3396.00000                       :START DEPTH
STOP  .M         5302.00000                       :STOP DEPTH
STEP  .M          0.15240                         :INCREMENT
NULL  .          -999.25                          :NULL DATA VALUE
COMP  .          StatoilHydro                     :COMPANY
WELL  .          15/9-F-10                        :WELL
FLD   .          Volve                            :FIELD
LOC   .                                           :LOCATION
PROV  .          Norway                           :PROVINCE
STAT  .          Norway                           :STATE
CNTY  .          Maersk Inspirer                  :COUNTY
CTRY  .          Norway                           :COUNTRY
DATE  .                                           :DATE
UWI   .          15/9-F-10                        :UNIQUE WELL UWI
LIC   .                                           :LICENSE NUMBER
API   .                                           :API NUMBER
SRVC  .                                           :SERVICE COMPANY
~Parameter Information Block
#MNEM.UNIT       Value                            Description
#---------       ---------                        -------------
LONG  .DEG       1.887480                         :Well Surface Location
LATI  .DEG       58.441612                        :Well Surface Location
XWELL .DEG       1.887480                         :X-coordinate of Well Head
YWELL .DEG       58.441612                        :Y-coordinate of Well Head
PDAT  .          Mean Sea Level                   :Permanent Datum               
EPD   .m         0.00                             :Elevation of Permanent Datum (PDAT) above Mean Sea Level
LMF   .          Drill Floor                      :Logging Measured From (Name of Working Datum)
APD   .m         54.90                            :Elevation of Working Datum (LMF) Above Permanent Datum
EGL   .m         -91.00                           :Elevation of Ground Level Above Mean Sea Level
EDF   .m         54.90                            :Elevation of Derrick Floor Above Mean Sea Level
~Curve Information Block
#MNEM.UNIT       API Code            Curve    Description
#--------        --------------      -----    -------------------
DEPT  .M                             :0       Index
DTCO  .US/F                          :1       Delta-T Compressional         
DTSM  .US/F                          :2       Delta-T Shear                 
VPVS  .                              :3       Compressional to Shear Velocity Ratio
~Ascii Data Section
# ...
   4362.97800      60.93199     126.02686       2.06907 
   4363.13040      61.44344     123.68592       2.01314 
   4363.28280      59.60395     122.54120       2.05658 
   4363.43520      59.58689     124.37459       2.08793 
   4363.58760      61.64452     127.35070       2.06587 
   4363.74000      62.08957     128.94853       2.07685 
   4363.89240      62.71464     129.53485       2.06547 
   4364.04480      62.21457     128.87856       2.07174 
   4364.19720      60.76297     128.28664       2.11145 
   4364.34960      60.18900     129.76022       2.15587 
   4364.50200      60.29928     131.17223       2.17536 
   4364.65440      60.70309     130.40540       2.14844 
   4364.80680      61.98533     129.53075       2.09013 
   4364.95920      63.33917     128.95306       2.03597 
   4365.11160      62.98763     124.53883       1.97680 
   4365.26400      61.89909     120.59441       1.94833 
   4365.41640      60.29152     122.57017       2.03498 
   4365.56880      57.84442     123.15836       2.12912 
   4365.72120      59.09865     122.49327       2.07534 
   4365.87360      62.22076    -999.25000    -999.25000 
   4366.02600      61.98381    -999.25000    -999.25000 
   4366.17840      58.45242    -999.25000    -999.25000 
   4366.33080      54.62597    -999.25000    -999.25000 
   4366.48320      55.48293    -999.25000    -999.25000 
   4366.63560      55.52292    -999.25000    -999.25000 
   4366.78800      57.70909    -999.25000    -999.25000 
   4366.94040      60.10923     113.26974       1.88560 
   4367.09280      63.94567     114.09900       1.78621 
   4367.24520      65.02511     116.01844       1.78743 
   4367.39760      63.61488     116.34523       1.83172 
   4367.55000      66.39784     117.65984       1.77211 
   4367.70240      65.41416     121.80076       1.86245 
   4367.85480      63.51416     122.53063       1.92958 
   4368.00720      62.29686     123.06599       1.97538 
   4368.15960      61.10972     119.76849       1.95987 
   4368.31200      60.32855     117.76871       1.95211 
   4368.46440      59.30378     116.73149       1.96894 
   4368.61680      58.16317     115.74442       1.99014 
   4368.76920      58.41362     114.80402       1.96538 
   4368.92160      58.13630     115.11617       1.98006 
   4369.07400      58.21363     116.67773       2.00433 
   4369.22640      57.93032     117.50234       2.02834 
   4369.37880      57.64085     119.67308       2.07640 
   4369.53120      56.83411     121.07482       2.13044 
   4369.68360      56.21037     121.88787       2.16848 
   4369.83600      58.44572     121.91133       2.09271 
   4369.98840      64.51721     120.69638       1.87371 
   4370.14080      65.71812     120.80859       1.84146 
   4370.29320      62.07651     118.92323       1.91574 
   4370.44560      61.06862     115.19965       1.88645 
   4370.59800      59.30837     112.48659       1.89667 
   4370.75040      60.00873     113.49426       1.89173 
   4370.90280      60.35723     113.90957       1.88802 
   4371.05520      57.34217     109.39448       1.90725 
   4371.20760      58.05968     104.16263       1.79923 
   4371.36000      62.35415     103.82121       1.66510 
   4371.51240      61.38029     106.70840       1.74259 
   4371.66480      58.26530     110.44872       1.89569 
   4371.81720      58.05795     111.76852       1.92509 
   4371.96960      58.40388     112.66044       1.92903 
   4372.12200      58.87039     111.94512       1.90162 
   4372.27440      59.72306     111.32302       1.86426 
   4372.42680      60.89827     112.41022       1.84567 
   4372.57920      61.68882     115.90109       1.87879 
   4372.73160      60.16011     116.49767       1.93873 
   4372.88400      59.08396     116.21121       1.96919 
   4373.03640      58.69824     117.08321       2.00461 
   4373.18880      55.47406     117.28222       2.11809 
   4373.34120      59.36493     113.44351       1.91338 
   4373.49360      61.56969     109.15031       1.77293 
   4373.64600      61.62477     105.46606       1.71119 
   4373.79840      60.65561     104.93261       1.73070 
   4373.95080      59.60190     110.96056       1.86197 
   4374.10320      58.16370     113.96393       1.96063 
   4374.25560      56.90893     115.20039       2.02438 
   4374.40800      58.44538     112.54006       1.92777 
   4374.56040      60.66518     111.57519       1.83917 
   4374.71280      60.03066     113.65131       1.89403 
   4374.86520      58.32764     116.02988       1.98968 
   4375.01760      58.49723     114.80867       1.96456 
   4375.17000      60.62703     112.56256       1.85628 
   4375.32240      61.82631     119.70055       1.93600 
   4375.47480      60.91876     122.78634       2.01561 
   4375.62720      58.33019     120.33698       2.06426 
   4375.77960      57.02517     121.06736       2.12316 
   4375.93200      58.16666     120.33347       2.06934 
   4376.08440      59.22587     120.40324       2.03299 
   4376.23680      58.06359     120.46738       2.07549 
   4376.38920      55.61386     120.97618       2.17683 
   4376.54160      54.62367     122.55413       2.24397 
   4376.69400      56.91182     121.76871       2.14217 
   4376.84640      58.58488     117.24522       2.00092 
   4376.99880      58.09924     112.16109       1.93066 
   4377.15120      58.25902     110.66914       1.89964 
   4377.30360      57.72197     109.60253       1.89877 
   4377.45600      57.32299     108.39354       1.89096 
   4377.60840      56.91731     109.14030       1.91757 
   4377.76080      57.34570     110.95334       1.93495 
   4377.91320      58.18084     112.24056       1.92920 
   4378.06560      58.07092     112.48470       1.93704 
   4378.21800      59.22385     112.80169       1.90530 
   4378.37040      60.21117     113.44291       1.88435 
   4378.52280      58.68166     113.77749       1.93935 
   4378.67520      56.78563     112.91235       1.98866 
   4378.82760      55.70832     111.04687       1.99339 
   4378.98000      56.35502     110.35650       1.95836 
   4379.13240      57.36882     111.85535       1.94975 
   4379.28480      57.56252     112.94391       1.96210 
   4379.43720      57.74459     114.03536       1.97482 
   4379.58960      58.18194     114.52670       1.96848 
   4379.74200      58.51529     113.56704       1.94080 
   4379.89440      58.13020     111.21059       1.91305 
   4380.04680      57.68137     109.46400       1.89775 
   4380.19920      57.86596     109.15995       1.88643 
   4380.35160      57.51803     108.65104       1.88912 
   4380.50400      57.02321     109.21655       1.91529 
   4380.65640      57.08812     109.95080       1.92598 
   4380.80880      57.05803     110.28272       1.93282 
   4380.96120      57.04242     110.91395       1.94441 
   4381.11360      56.98996     111.90836       1.96366 
   4381.26600      57.05368     111.28298       1.95061 
   4381.41840      58.83683     110.52537       1.88002 
   4381.57080      60.88737     111.47767       1.83099 
   4381.72320      60.58211     112.11430       1.85062 
   4381.87560      60.60217     112.58272       1.85779 
   4382.02800      60.19932     112.61034       1.87062 
   4382.18040      61.01398     112.90780       1.85089 
   4382.33280      62.28882     110.91365       1.78088 
   4382.48520      61.34253     108.27989       1.76665 
   4382.63760      59.36125     108.47550       1.82741 
   4382.79000      59.60900     109.67259       1.83999 
   4382.94240      59.06615     110.34261       1.86811 
   4383.09480      58.68578     109.99885       1.87441 
   4383.24720      58.49145     110.34473       1.88652 
   4383.39960      57.92773     110.19696       1.90274 
   4383.55200      57.73755     110.26309       1.91047 
   4383.70440      60.16735     110.01445       1.82936 
   4383.85680      60.45150     110.09279       1.82286 
   4384.00920      58.20041     111.11344       1.90917 
   4384.16160      58.14587     112.28648       1.93111 
   4384.31400      58.62477     113.64568       1.93851 
