~Version Information
VERS  .          2.0                              :CWLS Log Ascii Standard - Version 2.0
WRAP  .          NO                               :One line per depth step
~Well Information Block
#MNEM.UNIT       Data Type                        Information
#---------       ---------                        -------------------------------
STRT  .M         3396.00000                       :START DEPTH
STOP  .M         5302.00000                       :STOP DEPTH
STEP  .M          0.15240                         :INCREMENT
NULL  .          -999.25                          :NULL DATA VALUE
COMP  .          StatoilHydro                     :COMPANY
WELL  .          15/9-F-10                        :WELL
FLD   .          Volve                            :FIELD
LOC   .                                           :LOCATION
PROV  .          Norway                           :PROVINCE
STAT  .          Norway                           :STATE
CNTY  .          Maersk Inspirer                  :COUNTY
CTRY  .          Norway                           :COUNTRY
DATE  .                                           :DATE
UWI   .          15/9-F-10                        :UNIQUE WELL UWI
LIC   .                                           :LICENSE NUMBER
API   .                                           :API NUMBER
SRVC  .                                           :SERVICE COMPANY
~Parameter Information Block
#MNEM.UNIT       Value                            Description
#---------       ---------                        -------------
LONG  .DEG       1.887480                         :Well Surface Location
LATI  .DEG       58.441612                        :Well Surface Location
XWELL .DEG       1.887480                         :X-coordinate of Well Head
YWELL .DEG       58.441612                        :Y-coordinate of Well Head
PDAT  .          Mean Sea Level                   :Permanent Datum               
EPD   .m         0.00                             :Elevation of Permanent Datum (PDAT) above Mean Sea Level
LMF   .          Drill Floor                      :Logging Measured From (Name of Working Datum)
APD   .m         54.90                            :Elevation of Working Datum (LMF) Above Permanent Datum
EGL   .m         -91.00                           :Elevation of Ground Level Above Mean Sea Level
EDF   .m         54.90                            :Elevation of Derrick Floor Above Mean Sea Level
~Curve Information Block
#MNEM.UNIT       API Code            Curve    Description
#--------        --------------      -----    -------------------
DEPT  .M                             :0       Index
DTCO  .US/F                          :1       Delta-T Compressional         
DTSM  .US/F                          :2       Delta-T Shear                 
VPVS  .                              :3       Compressional to Shear Velocity Ratio
~Ascii Data Section
# ...
   4556.37360      61.61016     122.95416       1.99619 
   4556.52600      59.12035     122.02823       2.06504 
   4556.67840      58.09754     121.27495       2.08807 
   4556.83080      59.23721     121.79193       2.05606 
   4556.98320      59.02707     123.23755       2.08780 
   4557.13560      60.36115     123.75639       2.05199 
   4557.28800      62.38509     122.55062       1.96442 
   4557.44040      62.57439     121.75491       1.94582 
   4557.59280      63.00549     121.31645       1.92550 
   4557.74520      63.52213     121.31212       1.90986 
   4557.89760      64.13467     121.12666       1.88862 
   4558.05000      63.55776     119.94533       1.88729 
   4558.20240      62.28324     119.99242       1.92691 
   4558.35480      63.12056     121.04163       1.91973 
   4558.50720      65.64314     120.72569       1.83911 
   4558.65960      63.86911     119.48303       1.87204 
   4558.81200      61.32486     118.48223       1.93206 
   4558.96440      61.21575     118.29798       1.93250 
   4559.11680      61.65884     118.29159       1.91851 
   4559.26920      61.86860     118.10015       1.90889 
   4559.42160      61.29188     118.23029       1.92926 
   4559.57400      60.12309     117.99060       1.96249 
   4559.72640      59.99197     116.97801       1.95002 
   4559.87880      59.35083     116.50986       1.96426 
   4560.03120      58.94343     116.25645       1.97440 
   4560.18360      60.35157     116.72052       1.93515 
   4560.33600      58.12655     117.95240       2.02966 
   4560.48840      56.83481     118.95944       2.09327 
   4560.64080      57.44217     118.15900       2.05922 
   4560.79320      59.11626     115.18838       1.94851 
   4560.94560      60.56702     115.66006       1.91145 
   4561.09800      62.44788     117.91636       1.88923 
   4561.25040      60.69365     118.55985       1.95338 
   4561.40280      61.22837     116.96584       1.91124 
   4561.55520      62.36218     116.39059       1.86651 
   4561.70760      60.86276     115.05925       1.89058 
   4561.86000      60.07771     113.44807       1.88846 
   4562.01240      61.66918     114.44582       1.85615 
   4562.16480      62.55092     116.27136       1.85933 
   4562.31720      60.45151     115.39532       1.90913 
   4562.46960      58.97374     114.30328       1.93828 
   4562.62200      59.52741     115.41985       1.93934 
   4562.77440      61.29214     116.72177       1.90439 
   4562.92680      61.27633     116.02997       1.89360 
   4563.07920      61.85452     115.84096       1.87359 
   4563.23160      62.83537     116.48535       1.85430 
   4563.38400      61.25882     117.80032       1.92329 
   4563.53640      60.58712     118.61771       1.95777 
   4563.68880      61.49573     120.76342       1.96377 
   4563.84120      61.02460     122.80463       2.01392 
   4563.99360      59.63397     123.87347       2.07747 
   4564.14600      60.26998     124.02638       2.05788 
   4564.29840      60.61690     122.50382       2.02170 
   4564.45080      61.22414     118.21509       1.93084 
   4564.60320      61.63774     117.91252       1.91326 
   4564.75560      62.37531     118.60338       1.90158 
   4564.90800      61.11639     116.72845       1.90986 
   4565.06040      60.10487     115.19447       1.91675 
   4565.21280      60.43664     116.35489       1.92578 
   4565.36520      63.12234     116.34743       1.84458 
   4565.51760      64.63930     114.78281       1.77580 
   4565.67000      63.38257     115.46845       1.82240 
   4565.82240      61.91912     117.15131       1.89211 
   4565.97480      61.44079     117.50105       1.91242 
   4566.12720      61.80679     118.05931       1.91016 
   4566.27960      62.05376     118.13348       1.90373 
   4566.43200      60.52309     117.92741       1.95001 
   4566.58440      58.17138     118.19437       2.03190 
   4566.73680      58.36725     116.52056       1.99722 
   4566.88920      59.39762     113.77170       1.91542 
   4567.04160      59.22918     114.53825       1.93389 
   4567.19400      57.70811     114.36803       1.98233 
   4567.34640      55.98101     114.15108       2.03869 
   4567.49880      57.51720     118.83481       2.06678 
   4567.65120      58.29958     117.84211       2.02133 
   4567.80360      58.17014     115.00359       1.97814 
   4567.95600      59.87396     114.20134       1.90735 
   4568.10840      59.36708     115.52322       1.94683 
   4568.26080      58.72424     116.70902       1.98785 
   4568.41320      60.13432     117.40822       1.95244 
   4568.56560      59.98461     117.29325       1.95546 
   4568.71800      59.81509     117.01192       1.95634 
   4568.87040      60.93265     117.38860       1.92668 
   4569.02280      62.18047     118.05238       1.89865 
   4569.17520      62.08637     118.80916       1.91421 
   4569.32760      60.85131     119.62609       1.96587 
   4569.48000      60.60159     119.01595       1.96391 
   4569.63240      60.39968     118.52641       1.96236 
   4569.78480      60.39824     117.48820       1.94526 
   4569.93720      60.34931     116.62975       1.93262 
   4570.08960      59.34646     116.49963       1.96340 
   4570.24200      58.38086     116.83546       2.00125 
   4570.39440      58.34105     117.77897       2.01885 
   4570.54680      58.38254     117.30277       2.00945 
   4570.69920      59.17078     116.51585       1.96916 
   4570.85160      58.80738     117.17702       1.99306 
   4571.00400      57.76028     117.08159       2.02703 
   4571.15640      58.51499     116.19624       1.98621 
   4571.30880      60.06156     115.97836       1.93117 
   4571.46120      60.65299     116.51975       1.92109 
   4571.61360      60.63489     118.51024       1.95449 
   4571.76600      62.30590     117.53184       1.88939 
   4571.91840      65.69927     115.19552       1.75377 
   4572.07080      66.30363     115.14218       1.73684 
   4572.22320      64.36378     116.90681       1.81770 
   4572.37560      62.41161     117.82536       1.88788 
   4572.52800      62.04553     117.81884       1.89905 
   4572.68040      61.31617     117.82065       1.92153 
   4572.83280      60.32998     117.97289       1.95623 
   4572.98520      59.38012     116.93800       1.96986 
   4573.13760      60.62271     114.60275       1.89061 
   4573.29000      60.71124     114.61292       1.88823 
   4573.44240      60.80721     115.18713       1.89526 
   4573.59480      61.75108     114.63325       1.85673 
   4573.74720      60.12537     114.89250       1.91120 
   4573.89960      58.81804     115.74356       1.96805 
   4574.05200      58.24612     116.06995       1.99273 
   4574.20440      59.71402     114.64354       1.92176 
   4574.35680      63.01228     115.49570       1.83322 
   4574.50920      64.07593     116.08224       1.81165 
   4574.66160      62.23385     115.64613       1.85985 
   4574.81400      59.45052     116.08943       1.95302 
   4574.96640      58.80905     116.69684       1.98436 
   4575.11880      59.69618     117.11631       1.96211 
   4575.27120      60.09853     117.69515       1.95867 
   4575.42360      60.34593     118.08273       1.95781 
   4575.57600      62.48471     117.78295       1.88513 
   4575.72840      62.60143     117.37779       1.87518 
   4575.88080      60.62566     116.76774       1.92697 
   4576.03320      58.83408     115.98432       1.97139 
   4576.18560      59.60437     115.76015       1.94252 
   4576.33800      60.90685     115.74200       1.90036 
   4576.49040      60.77539     116.24805       1.91310 
   4576.64280      59.97029     116.78326       1.94736 
   4576.79520      60.02694     116.10753       1.93425 
   4576.94760      59.87951     116.08598       1.93868 
   4577.10000      60.48391     117.01357       1.93508 
   4577.25240      61.80951     117.03416       1.89347 
   4577.40480      61.15380     117.56255       1.92326 
   4577.55720      59.84790     117.42667       1.96220 
   4577.70960      60.46378     117.57260       1.94451 
