~Version Information
VERS  .          2.0                              :CWLS Log Ascii Standard - Version 2.0
WRAP  .          NO                               :One line per depth step
~Well Information Block
#MNEM.UNIT       Data Type                        Information
#---------       ---------                        -------------------------------
STRT  .M         3396.00000                       :START DEPTH
STOP  .M         5302.00000                       :STOP DEPTH
STEP  .M          0.15240                         :INCREMENT
NULL  .          -999.25                          :NULL DATA VALUE
COMP  .          StatoilHydro                     :COMPANY
WELL  .          15/9-F-10                        :WELL
FLD   .          Volve                            :FIELD
LOC   .                                           :LOCATION
PROV  .          Norway                           :PROVINCE
STAT  .          Norway                           :STATE
CNTY  .          Maersk Inspirer                  :COUNTY
CTRY  .          Norway                           :COUNTRY
DATE  .                                           :DATE
UWI   .          15/9-F-10                        :UNIQUE WELL UWI
LIC   .                                           :LICENSE NUMBER
API   .                                           :API NUMBER
SRVC  .                                           :SERVICE COMPANY
~Parameter Information Block
#MNEM.UNIT       Value                            Description
#---------       ---------                        -------------
LONG  .DEG       1.887480                         :Well Surface Location
LATI  .DEG       58.441612                        :Well Surface Location
XWELL .DEG       1.887480                         :X-coordinate of Well Head
YWELL .DEG       58.441612                        :Y-coordinate of Well Head
PDAT  .          Mean Sea Level                   :Permanent Datum               
EPD   .m         0.00                             :Elevation of Permanent Datum (PDAT) above Mean Sea Level
LMF   .          Drill Floor                      :Logging Measured From (Name of Working Datum)
APD   .m         54.90                            :Elevation of Working Datum (LMF) Above Permanent Datum
EGL   .m         -91.00                           :Elevation of Ground Level Above Mean Sea Level
EDF   .m         54.90                            :Elevation of Derrick Floor Above Mean Sea Level
~Curve Information Block
#MNEM.UNIT       API Code            Curve    Description
#--------        --------------      -----    -------------------
DEPT  .M                             :0       Index
DTCO  .US/F                          :1       Delta-T Compressional         
DTSM  .US/F                          :2       Delta-T Shear                 
VPVS  .                              :3       Compressional to Shear Velocity Ratio
~Ascii Data Section
# ...
   3675.34920      63.74218     121.89722       1.91234 
   3675.50160      63.07386     121.41812       1.92534 
   3675.65400      61.50397     126.73441       2.06220 
   3675.80640      61.60583     134.95427       2.19168 
   3675.95880      61.60216     133.96657       2.17685 
   3676.11120      57.17463     130.21753       2.27870 
   3676.26360      54.31249     126.46149       2.32846 
   3676.41600      55.65163     126.42841       2.27514 
   3676.56840      58.31426     125.86369       2.15836 
   3676.72080      58.12722     124.28989       2.13822 
   3676.87320      58.10802     121.94642       2.09867 
   3677.02560      59.01689     118.77379       2.01355 
   3677.17800      60.91788     116.10540       1.90644 
   3677.33040      61.28967     114.77797       1.87296 
   3677.48280      60.75596     113.60459       1.87024 
   3677.63520      60.52979     112.68478       1.86267 
   3677.78760      58.43264     111.90575       1.91513 
   3677.94000      57.86112     111.23065       1.92243 
   3678.09240      57.12588     109.87244       1.92329 
   3678.24480      56.99166     108.35313       1.90125 
   3678.39720      57.51129     108.00778       1.87810 
   3678.54960      58.25014     107.26292       1.84160 
   3678.70200      59.11559     106.66621       1.80443 
   3678.85440      59.48063     108.03922       1.81643 
   3679.00680      59.21987     110.47194       1.86548 
   3679.15920      59.24033     111.19441       1.87701 
   3679.31160      59.56240     114.35165       1.91995 
   3679.46400      59.58323     118.94944       1.99635 
   3679.61640      58.88736     120.17828       2.04183 
   3679.76880      57.88536     121.40713       2.09750 
   3679.92120      58.89518     122.64322       2.08240 
   3680.07360      58.79899     123.92206       2.10787 
   3680.22600      58.11493     124.17693       2.13676 
   3680.37840      58.63527     121.73636       2.07666 
   3680.53080      59.48606     121.64772       2.04484 
   3680.68320      59.95029     125.32438       2.09054 
   3680.83560      60.43848     124.84682       2.06571 
   3680.98800      60.08957     124.31854       2.06910 
   3681.14040      59.04565     122.98579       2.08285 
   3681.29280      58.90949     120.35857       2.04319 
   3681.44520      59.05625     118.26927       2.00265 
   3681.59760      58.81628     118.30490       2.01148 
   3681.75000      59.39642     119.84924       2.01814 
   3681.90240      60.70530     121.39320       1.99970 
   3682.05480      60.20514     122.83575       2.04071 
   3682.20720      58.61905     122.77706       2.09466 
   3682.35960      59.15028     120.54725       2.04102 
   3682.51200      61.47754     118.38533       1.92564 
   3682.66440      60.86630     117.38521       1.92861 
   3682.81680      60.66665     119.37080       1.96763 
   3682.96920      60.86416     121.58792       1.99773 
   3683.12160      60.59745     121.06750       1.99810 
   3683.27400      59.72351     120.29444       2.01417 
   3683.42640      59.73798     117.11282       1.96060 
   3683.57880      60.62728     114.15388       1.88313 
   3683.73120      61.51612     115.31417       1.87460 
   3683.88360      60.71301     118.42229       1.95126 
   3684.03600      61.59701     121.38599       1.97351 
   3684.18840      64.44308     120.11111       1.86384 
   3684.34080      63.12048     118.58953       1.87981 
   3684.49320      60.32209     117.89156       1.95480 
   3684.64560      59.20002     119.75180       2.02294 
   3684.79800      58.71769     121.54140       2.06998 
   3684.95040      58.96107     120.89407       2.05094 
   3685.10280      59.82353     119.91688       2.00453 
   3685.25520      59.31340     120.33047       2.02885 
   3685.40760      59.22392     120.89125       2.04140 
   3685.56000      59.72567     120.13033       2.01135 
   3685.71240      59.73492     120.34850       2.01464 
   3685.86480      59.93508     121.10889       2.02063 
   3686.01720      59.34031     118.22350       1.99229 
   3686.16960      57.87632     116.05585       2.00551 
   3686.32200      56.17980     114.85954       2.04476 
   3686.47440      54.68443     112.35795       2.05431 
   3686.62680      53.37714     108.24696       2.02800 
   3686.77920      53.11293     107.73832       2.02851 
   3686.93160      54.20535     106.51562       1.96631 
   3687.08400      55.35160     106.12806       1.91750 
   3687.23640      54.88138     109.08005       1.98762 
   3687.38880      55.05548     108.19952       1.96586 
   3687.54120      56.51533     107.30341       1.89882 
   3687.69360      57.00471     108.08100       1.89616 
   3687.84600      56.06853     108.35619       1.93268 
   3687.99840      56.14693     109.16385       1.94441 
   3688.15080      57.22758     111.83489       1.95405 
   3688.30320      58.32019     116.79842       2.00259 
   3688.45560      59.58465     120.46594       2.02175 
   3688.60800      60.31876     122.54063       2.03164 
   3688.76040      61.73692     122.71920       1.98813 
   3688.91280      62.15384     120.13982       1.93295 
   3689.06520      61.37122     120.18795       1.95864 
   3689.21760      60.19558     120.40179       2.00023 
   3689.37000      59.71865     117.87855       1.97416 
   3689.52240      60.56373     114.92953       1.89789 
   3689.67480      60.79724     113.54865       1.86774 
   3689.82720      59.97068     113.37514       1.89057 
   3689.97960      59.94724     115.11737       1.92018 
   3690.13200      60.23347     117.77328       1.95538 
   3690.28440      60.49554     117.98698       1.95085 
   3690.43680      61.81392     117.63131       1.90301 
   3690.58920      62.02288     117.20405       1.88969 
   3690.74160      61.71120     116.61328       1.88972 
   3690.89400      60.24885     115.77978       1.92224 
   3691.04640      58.67754     114.23009       1.94673 
   3691.19880      57.93806     113.09792       1.95247 
   3691.35120      57.23005     112.38323       1.96398 
   3691.50360      58.46160     110.98613       1.89887 
   3691.65600      58.72951     110.60384       1.88378 
   3691.80840      58.70361     111.88700       1.90653 
   3691.96080      61.32006     114.54372       1.86816 
   3692.11320      63.02066     116.19670       1.84389 
   3692.26560      63.43647     116.68071       1.83942 
   3692.41800      62.84019     116.60236       1.85553 
   3692.57040      63.50037     118.34890       1.86370 
   3692.72280      64.62602     119.02154       1.84195 
   3692.87520      65.11595     117.43546       1.80350 
   3693.02760      64.13697     118.68784       1.85129 
   3693.18000      62.42887     120.75115       1.93446 
   3693.33240      62.03751     122.70950       1.97796 
   3693.48480      62.92637     124.36815       1.97652 
   3693.63720      63.21463     123.80678       1.95845 
   3693.78960      62.02584     121.36948       1.95680 
   3693.94200      61.61717     120.44528       1.95475 
   3694.09440      62.06047     119.46577       1.92510 
   3694.24680      63.10893     122.19646       1.93596 
   3694.39920      64.95200     128.61542       1.98025 
   3694.55160      66.27711     132.03110       1.99234 
   3694.70400      65.26952     130.43672       1.99836 
   3694.85640      64.71884     126.32580       1.95183 
   3695.00880      64.40909     124.31245       1.93007 
   3695.16120      65.71965     124.43084       1.89400 
   3695.31360      66.21847     124.87083       1.88667 
   3695.46600      64.42550     125.64399       1.95022 
   3695.61840      63.72313     124.97237       1.96127 
   3695.77080      62.86329     124.66448       1.98314 
   3695.92320      62.75290     124.13194       1.97821 
   3696.07560      63.46073     124.30704       1.95880 
   3696.22800      63.92795     124.51980       1.94787 
   3696.38040      64.47537     123.38980       1.91383 
   3696.53280      65.42899     122.41439       1.87124 
   3696.68520      66.04115     122.35591       1.85283 
