~Version Information
VERS  .          2.0                              :CWLS Log Ascii Standard - Version 2.0
WRAP  .          NO                               :One line per depth step
~Well Information Block
#MNEM.UNIT       Data Type                        Information
#---------       ---------                        -------------------------------
STRT  .M         3396.00000                       :START DEPTH
STOP  .M         5302.00000                       :STOP DEPTH
STEP  .M          0.15240                         :INCREMENT
NULL  .          -999.25                          :NULL DATA VALUE
COMP  .          StatoilHydro                     :COMPANY
WELL  .          15/9-F-10                        :WELL
FLD   .          Volve                            :FIELD
LOC   .                                           :LOCATION
PROV  .          Norway                           :PROVINCE
STAT  .          Norway                           :STATE
CNTY  .          Maersk Inspirer                  :COUNTY
CTRY  .          Norway                           :COUNTRY
DATE  .                                           :DATE
UWI   .          15/9-F-10                        :UNIQUE WELL UWI
LIC   .                                           :LICENSE NUMBER
API   .                                           :API NUMBER
SRVC  .                                           :SERVICE COMPANY
~Parameter Information Block
#MNEM.UNIT       Value                            Description
#---------       ---------                        -------------
LONG  .DEG       1.887480                         :Well Surface Location
LATI  .DEG       58.441612                        :Well Surface Location
XWELL .DEG       1.887480                         :X-coordinate of Well Head
YWELL .DEG       58.441612                        :Y-coordinate of Well Head
PDAT  .          Mean Sea Level                   :Permanent Datum               
EPD   .m         0.00                             :Elevation of Permanent Datum (PDAT) above Mean Sea Level
LMF   .          Drill Floor                      :Logging Measured From (Name of Working Datum)
APD   .m         54.90                            :Elevation of Working Datum (LMF) Above Permanent Datum
EGL   .m         -91.00                           :Elevation of Ground Level Above Mean Sea Level
EDF   .m         54.90                            :Elevation of Derrick Floor Above Mean Sea Level
~Curve Information Block
#MNEM.UNIT       API Code            Curve    Description
#--------        --------------      -----    -------------------
DEPT  .M                             :0       Index
DTCO  .US/F                          :1       Delta-T Compressional         
DTSM  .US/F                          :2       Delta-T Shear                 
VPVS  .                              :3       Compressional to Shear Velocity Ratio
~Ascii Data Section
# ...
   4062.14040      58.31514     109.27498       1.87386 
   4062.29280      58.84310     110.09863       1.87122 
   4062.44520      60.05162     110.23062       1.83578 
   4062.59760      60.75768     110.47655       1.81831 
   4062.75000      59.97337     111.82172       1.86527 
   4062.90240      58.03140     112.64932       1.94153 
   4063.05480      57.39064     111.34742       1.94056 
   4063.20720      58.12352     110.60240       1.90288 
   4063.35960      58.03759     111.41817       1.91974 
   4063.51200      57.70932     111.06265       1.92457 
   4063.66440      57.78971     113.23848       1.95939 
   4063.81680      58.79412     115.63803       1.96701 
   4063.96920      59.82681     116.21176       1.94249 
   4064.12160      60.38028     115.59793       1.91464 
   4064.27400      60.32689     115.49236       1.91486 
   4064.42640      59.24899     116.31730       1.96314 
   4064.57880      59.77975     115.56541       1.93376 
   4064.73120      60.75592     116.70291       1.92124 
   4064.88360      59.38609     116.17640       1.95630 
   4065.03600      58.65543     116.81345       1.99190 
   4065.18840      58.07175     118.31305       2.03738 
   4065.34080      59.04789     117.28571       1.98716 
   4065.49320      60.43514     114.62737       1.89679 
   4065.64560      60.73864     112.02872       1.84446 
   4065.79800      60.91058     110.26087       1.81022 
   4065.95040      60.73070     108.34592       1.78390 
   4066.10280      60.25143     105.52090       1.75135 
   4066.25520      59.99422     105.27253       1.75484 
   4066.40760      58.56556     105.40293       1.80030 
   4066.56000      56.99415     106.00584       1.86004 
   4066.71240      57.36137     108.33552       1.88878 
   4066.86480      58.98207     112.79863       1.91180 
   4067.01720      60.76365     116.78343       1.92286 
   4067.16960      61.87015     115.08210       1.86010 
   4067.32200      61.71545     116.30128       1.88447 
   4067.47440      61.57613     115.61431       1.87752 
   4067.62680      60.97651     113.22421       1.85685 
   4067.77920      60.69936     112.25180       1.84936 
   4067.93160      61.38978     113.46450       1.84817 
   4068.08400      62.09689     115.74128       1.86390 
   4068.23640      62.08784     116.47172       1.87607 
   4068.38880      61.09555     117.23522       1.91907 
   4068.54120      60.53040     117.74388       1.94521 
   4068.69360      60.42394     118.19114       1.95614 
   4068.84600      59.36310     117.66158       1.98215 
   4068.99840      58.30846     114.72495       1.96744 
   4069.15080      58.21038     111.14704       1.90950 
   4069.30320      58.87563     110.07229       1.86966 
   4069.45560      59.32201     110.44763       1.86186 
   4069.60800      58.57465     109.74242       1.87357 
   4069.76040      58.33772     108.34116       1.85745 
   4069.91280      59.15746     109.23267       1.84654 
   4070.06520      58.83827     112.42913       1.91092 
   4070.21760      58.75807     115.53268       1.96623 
   4070.37000      59.62214     116.27808       1.95066 
   4070.52240      60.96888     116.94865       1.91815 
   4070.67480      61.04898     117.95429       1.93219 
   4070.82720      61.12587     117.47928       1.92228 
   4070.97960      61.73560     115.95111       1.87817 
   4071.13200      61.14285     114.02834       1.86491 
   4071.28440      60.73322     113.13608       1.86287 
   4071.43680      60.01908     114.73363       1.91209 
   4071.58920      59.48410     116.58613       1.95999 
   4071.74160      59.67674     117.64993       1.97164 
   4071.89400      59.02646     117.18173       1.98523 
   4072.04640      59.14774     116.49334       1.96949 
   4072.19880      59.95290     118.88741       1.98302 
   4072.35120      60.45596     121.68089       2.01304 
   4072.50360      59.68126     123.70616       2.07282 
   4072.65600      59.96036     124.01579       2.06857 
   4072.80840      61.24538     123.76871       2.02105 
   4072.96080      61.59573     122.77951       1.99330 
   4073.11320      60.59428     120.58720       1.99007 
   4073.26560      60.18722     117.68336       1.95551 
   4073.41800      60.56943     115.57584       1.90816 
   4073.57040      60.90984     116.94788       1.92002 
   4073.72280      61.15158     117.76653       1.92588 
   4073.87520      60.30010     116.22802       1.92742 
   4074.02760      59.33118     114.98994       1.93847 
   4074.18000      58.48400     115.38660       1.97295 
   4074.33240      58.78314     115.16683       1.95918 
   4074.48480      60.66076     117.41641       1.93642 
   4074.63720      61.96906     118.71295       1.91604 
   4074.78960      60.34657     118.14726       1.95793 
   4074.94200      60.02728     118.87027       1.98028 
   4075.09440      59.99604     117.92397       1.96542 
   4075.24680      59.32536     115.12759       1.94060 
   4075.39920      58.07272     113.53635       1.95570 
   4075.55160      56.74473     111.34094       1.96241 
   4075.70400      57.76341     109.71405       1.89958 
   4075.85640      57.99607     110.39745       1.90399 
   4076.00880      57.25293     111.81471       1.95300 
   4076.16120      57.20470     113.01286       1.97576 
   4076.31360      56.67091     115.69571       2.04163 
   4076.46600      57.15519     116.56786       2.04038 
   4076.61840      58.26475     114.42059       1.96380 
   4076.77080      58.97198     114.20100       1.93694 
   4076.92320      60.07308     113.75448       1.89358 
   4077.07560      60.30392     112.75471       1.86985 
   4077.22800      60.86380     112.63712       1.85064 
   4077.38040      60.39614     111.53594       1.84682 
   4077.53280      59.47521     110.93185       1.86523 
   4077.68520      57.39027     111.06741       1.93824 
   4077.83760      55.12101     111.45551       2.02223 
   4077.99000      56.13386     112.13756       1.99768 
   4078.14240      56.76678     112.12774       1.97542 
   4078.29480      58.60044     112.18594       1.91533 
   4078.44720      60.63146     115.31645       1.90204 
   4078.59960      59.98949     118.30569       1.97239 
   4078.75200      59.70638     119.97128       2.00943 
   4078.90440      59.32469     121.08954       2.04229 
   4079.05680      57.56579     123.19114       2.14018 
   4079.20920      58.64277     124.02586       2.11747 
   4079.36160      61.04686     122.40044       2.00502 
   4079.51400      61.44720     121.14002       1.97159 
   4079.66640      63.49668     121.83685       1.91986 
   4079.81880      66.06534     122.59626       1.85580 
   4079.97120      65.18739     121.80966       1.86997 
   4080.12360      63.02317     122.89774       1.94998 
   4080.27600      62.61179     125.79451       2.00963 
   4080.42840      63.12068     126.75182       2.01007 
   4080.58080      65.20895     126.10741       1.93395 
   4080.73320      63.77732     125.73104       1.97199 
   4080.88560      61.78727     126.66475       2.05060 
   4081.03800      61.29914     127.80793       2.08527 
   4081.19040      62.11766     128.50066       2.06873 
   4081.34280      61.99294     129.92162       2.09565 
   4081.49520      62.02968     131.94708       2.12732 
   4081.64760      61.06810     131.87117       2.15947 
   4081.80000      61.18652     132.43338       2.16457 
   4081.95240      61.83726     132.31813       2.13978 
   4082.10480      62.01347     132.19040       2.13166 
   4082.25720      61.33049     132.02335       2.15342 
   4082.40960      59.36855     129.61969       2.18322 
   4082.56200      59.82500     125.83453       2.10462 
   4082.71440      62.16885     122.86085       1.97722 
   4082.86680      63.32191     123.53855       1.95139 
   4083.01920      62.12712     126.09295       2.02984 
   4083.17160      61.78602     127.22560       2.05920 
   4083.32400      62.32568     129.00426       2.06982 
   4083.47640      63.11145     131.79550       2.08867 
