~Version Information
VERS  .          2.0                              :CWLS Log Ascii Standard - Version 2.0
WRAP  .          NO                               :One line per depth step
~Well Information Block
#MNEM.UNIT       Data Type                        Information
#---------       ---------                        -------------------------------
STRT  .M         3396.00000                       :START DEPTH
STOP  .M         5302.00000                       :STOP DEPTH
STEP  .M          0.15240                         :INCREMENT
NULL  .          -999.25                          :NULL DATA VALUE
COMP  .          StatoilHydro                     :COMPANY
WELL  .          15/9-F-10                        :WELL
FLD   .          Volve                            :FIELD
LOC   .                                           :LOCATION
PROV  .          Norway                           :PROVINCE
STAT  .          Norway                           :STATE
CNTY  .          Maersk Inspirer                  :COUNTY
CTRY  .          Norway                           :COUNTRY
DATE  .                                           :DATE
UWI   .          15/9-F-10                        :UNIQUE WELL UWI
LIC   .                                           :LICENSE NUMBER
API   .                                           :API NUMBER
SRVC  .                                           :SERVICE COMPANY
~Parameter Information Block
#MNEM.UNIT       Value                            Description
#---------       ---------                        -------------
LONG  .DEG       1.887480                         :Well Surface Location
LATI  .DEG       58.441612                        :Well Surface Location
XWELL .DEG       1.887480                         :X-coordinate of Well Head
YWELL .DEG       58.441612                        :Y-coordinate of Well Head
PDAT  .          Mean Sea Level                   :Permanent Datum               
EPD   .m         0.00                             :Elevation of Permanent Datum (PDAT) above Mean Sea Level
LMF   .          Drill Floor                      :Logging Measured From (Name of Working Datum)
APD   .m         54.90                            :Elevation of Working Datum (LMF) Above Permanent Datum
EGL   .m         -91.00                           :Elevation of Ground Level Above Mean Sea Level
EDF   .m         54.90                            :Elevation of Derrick Floor Above Mean Sea Level
~Curve Information Block
#MNEM.UNIT       API Code            Curve    Description
#--------        --------------      -----    -------------------
DEPT  .M                             :0       Index
DTCO  .US/F                          :1       Delta-T Compressional         
DTSM  .US/F                          :2       Delta-T Shear                 
VPVS  .                              :3       Compressional to Shear Velocity Ratio
~Ascii Data Section
# ...
   3589.39560      63.31216     120.21311       1.89927 
   3589.54800      63.47849     119.41199       1.88186 
   3589.70040      61.02604     117.81012       1.93063 
   3589.85280      59.55248     116.41274       1.95493 
   3590.00520      59.48930     115.56361       1.94318 
   3590.15760      60.60362     115.32999       1.90304 
   3590.31000      60.21424     114.81876       1.90683 
   3590.46240      59.82832     113.62598       1.89919 
   3590.61480      59.28763     112.65289       1.90014 
   3590.76720      59.08644     112.60000       1.90570 
   3590.91960      60.07614     112.83511       1.87861 
   3591.07200      61.88069     113.18562       1.82934 
   3591.22440      62.47546     113.83253       1.82223 
   3591.37680      61.45754     114.12186       1.85698 
   3591.52920      60.52502     114.02594       1.88414 
   3591.68160      59.87569     113.92712       1.90274 
   3591.83400      60.02757     113.78507       1.89555 
   3591.98640      59.53062     114.02428       1.91559 
   3592.13880      59.11829     114.09183       1.93000 
   3592.29120      59.45826     113.59402       1.91049 
   3592.44360      58.81946     112.60771       1.91449 
   3592.59600      58.21679     111.56479       1.91637 
   3592.74840      57.23073     111.29542       1.94556 
   3592.90080      56.60220     110.71883       1.95716 
   3593.05320      58.28294     109.49934       1.87882 
   3593.20560      58.39191     109.45246       1.87454 
   3593.35800      57.95260     109.08463       1.88231 
   3593.51040      57.94138     107.96978       1.86343 
   3593.66280      57.76420     107.47313       1.86055 
   3593.81520      58.39130     107.19064       1.83625 
   3593.96760      59.40872     107.77885       1.81432 
   3594.12000      58.56093     107.86548       1.84196 
   3594.27240      58.21441     106.52332       1.82994 
   3594.42480      58.07568     105.33775       1.81394 
   3594.57720      57.00867     105.01821       1.84223 
   3594.72960      56.35342     105.56066       1.87327 
   3594.88200      56.28981     106.02123       1.88357 
   3595.03440      56.49511     105.90335       1.87461 
   3595.18680      55.95287     105.57228       1.88681 
   3595.33920      55.55405     104.77654       1.88602 
   3595.49160      54.97141     104.25142       1.89658 
   3595.64400      54.51855     104.20912       1.91145 
   3595.79640      54.53086     104.27118       1.91217 
   3595.94880      55.27762     104.86574       1.89781 
   3596.10120      56.04053     105.46212       1.88249 
   3596.25360      54.73325     106.07667       1.93811 
   3596.40600      54.36111     105.96169       1.94922 
   3596.55840      55.03350     106.37858       1.93334 
   3596.71080      55.95146     107.48038       1.92108 
   3596.86320      55.76369     107.81963       1.93360 
   3597.01560      56.20335     108.13458       1.92401 
   3597.16800      56.00099     108.49504       1.93738 
   3597.32040      55.92172     108.52808       1.94071 
   3597.47280      55.96762     107.90592       1.92802 
   3597.62520      55.78949     106.88954       1.91596 
   3597.77760      54.52848     105.96317       1.94383 
   3597.93000      53.18298     105.46079       1.98298 
   3598.08240      53.71991     104.96948       1.95455 
   3598.23480      54.58534     104.31183       1.91099 
   3598.38720      53.88841     103.53777       1.92143 
   3598.53960      53.20951     102.73879       1.93083 
   3598.69200      51.74940     102.30250       1.97931 
   3598.84440      50.62559     101.99308       2.01659 
   3598.99680      52.91043     101.23521       1.91356 
   3599.14920      52.55170     100.62158       1.91574 
   3599.30160      50.79296     100.04816       1.96971 
   3599.45400      51.96323      99.54753       1.91799 
   3599.60640      53.71302     100.15281       1.86511 
   3599.75880      52.25526     102.00571       1.95261 
   3599.91120      52.61748     103.79543       1.97421 
   3600.06360      52.43161     102.04587       1.94950 
   3600.21600      49.61289     101.10001       2.03780 
   3600.36840      50.11506     101.41660       2.02373 
   3600.52080      50.68057     101.91798       2.01100 
   3600.67320      51.38710     102.36018       1.99217 
   3600.82560      52.25863     103.83063       1.98690 
   3600.97800      51.19922     104.50185       2.04201 
   3601.13040      50.20530     104.03767       2.07258 
   3601.28280      52.02603     104.28709       2.00556 
   3601.43520      52.72333     104.64877       1.98585 
   3601.58760      51.40646     103.53696       2.01433 
   3601.74000      52.43895     102.71732       1.95907 
   3601.89240      52.98282     102.35928       1.93196 
   3602.04480      52.64250     102.18070       1.94103 
   3602.19720      52.72157     102.54198       1.94497 
   3602.34960      52.79213     104.22165       1.97429 
   3602.50200      53.08685     106.75198       2.01101 
   3602.65440      53.94343     107.68754       1.99631 
   3602.80680      55.19657     106.22887       1.92681 
   3602.95920      55.68855     104.93761       1.88711 
   3603.11160      53.86269     106.39933       1.97566 
   3603.26400      54.14435     106.50700       1.96743 
   3603.41640      53.73721     107.61414       2.00264 
   3603.56880      54.47422     108.10586       1.98460 
   3603.72120      53.45316     107.82003       2.01925 
   3603.87360      52.79573     108.18066       2.05156 
   3604.02600      54.44036     108.63213       1.99620 
   3604.17840      53.90649     109.25190       2.02721 
   3604.33080      55.48980     108.98627       1.96438 
   3604.48320      56.14198     108.86448       1.93913 
   3604.63560      56.06576     108.63441       1.93772 
   3604.78800      56.62950     108.25108       1.91159 
   3604.94040      57.00359     107.95886       1.89393 
   3605.09280      57.67442     107.95943       1.87200 
   3605.24520      58.40801     108.05051       1.84992 
   3605.39760      58.63260     108.87794       1.85697 
   3605.55000      58.39194     109.49166       1.87513 
   3605.70240      58.35913     110.82876       1.89907 
   3605.85480      58.07165     111.87745       1.92665 
   3606.00720      57.85651     111.31614       1.92420 
   3606.15960      58.11008     110.49406       1.90155 
   3606.31200      57.39836     110.30783       1.92182 
   3606.46440      57.19963     111.09302       1.94218 
   3606.61680      57.37263     112.01846       1.95249 
   3606.76920      58.05690     111.25021       1.91658 
   3606.92160      58.64645     110.71104       1.88785 
   3607.07400      57.83644     109.94994       1.90103 
   3607.22640      57.57826     109.17173       1.89608 
   3607.37880      58.15120     110.07124       1.89284 
   3607.53120      58.28840     109.09812       1.87165 
   3607.68360      57.74954     107.11691       1.85507 
   3607.83600      56.70070     106.85311       1.88450 
   3607.98840      56.10394     105.24524       1.87590 
   3608.14080      55.67189     104.10149       1.86997 
   3608.29320      54.31249     102.71883       1.89152 
   3608.44560      53.32954     101.72868       1.90756 
   3608.59800      53.44744     101.99073       1.90824 
   3608.75040      53.71120     104.13323       1.93867 
   3608.90280      54.28794     107.15014       1.97366 
   3609.05520      55.42362     109.46859       1.97562 
   3609.20760      57.35286     110.59628       1.92858 
   3609.36000      58.76212     111.33279       1.89478 
   3609.51240      59.25822     110.34655       1.86204 
   3609.66480      58.88730     107.54385       1.82627 
   3609.81720      58.59463     106.38865       1.81577 
   3609.96960      58.91573     107.15119       1.81906 
   3610.12200      60.70821     108.45623       1.78661 
   3610.27440      61.91675     109.61052       1.77032 
   3610.42680      63.28032     111.98536       1.76964 
   3610.57920      63.65899     113.73944       1.78682 
   3610.73160      62.42699     114.11359       1.82829 
