~Version Information
VERS  .          2.0                              :CWLS Log Ascii Standard - Version 2.0
WRAP  .          NO                               :One line per depth step
~Well Information Block
#MNEM.UNIT       Data Type                        Information
#---------       ---------                        -------------------------------
STRT  .M         3396.00000                       :START DEPTH
STOP  .M         5302.00000                       :STOP DEPTH
STEP  .M          0.15240                         :INCREMENT
NULL  .          -999.25                          :NULL DATA VALUE
COMP  .          StatoilHydro                     :COMPANY
WELL  .          15/9-F-10                        :WELL
FLD   .          Volve                            :FIELD
LOC   .                                           :LOCATION
PROV  .          Norway                           :PROVINCE
STAT  .          Norway                           :STATE
CNTY  .          Maersk Inspirer                  :COUNTY
CTRY  .          Norway                           :COUNTRY
DATE  .                                           :DATE
UWI   .          15/9-F-10                        :UNIQUE WELL UWI
LIC   .                                           :LICENSE NUMBER
API   .                                           :API NUMBER
SRVC  .                                           :SERVICE COMPANY
~Parameter Information Block
#MNEM.UNIT       Value                            Description
#---------       ---------                        -------------
LONG  .DEG       1.887480                         :Well Surface Location
LATI  .DEG       58.441612                        :Well Surface Location
XWELL .DEG       1.887480                         :X-coordinate of Well Head
YWELL .DEG       58.441612                        :Y-coordinate of Well Head
PDAT  .          Mean Sea Level                   :Permanent Datum               
EPD   .m         0.00                             :Elevation of Permanent Datum (PDAT) above Mean Sea Level
LMF   .          Drill Floor                      :Logging Measured From (Name of Working Datum)
APD   .m         54.90                            :Elevation of Working Datum (LMF) Above Permanent Datum
EGL   .m         -91.00                           :Elevation of Ground Level Above Mean Sea Level
EDF   .m         54.90                            :Elevation of Derrick Floor Above Mean Sea Level
~Curve Information Block
#MNEM.UNIT       API Code            Curve    Description
#--------        --------------      -----    -------------------
DEPT  .M                             :0       Index
DTCO  .US/F                          :1       Delta-T Compressional         
DTSM  .US/F                          :2       Delta-T Shear                 
VPVS  .                              :3       Compressional to Shear Velocity Ratio
~Ascii Data Section
# ...
   4169.58240      64.47097     123.45904       1.91515 
   4169.73480      62.88007     124.57325       1.98173 
   4169.88720      60.60353     123.32569       2.03519 
   4170.03960      61.32792     123.62898       2.01773 
   4170.19200      62.74297     122.88238       1.95901 
   4170.34440      60.83191     122.80998       2.01915 
   4170.49680      60.75800     123.74961       2.03717 
   4170.64920      62.65755     123.40590       1.97016 
   4170.80160      64.32297     122.80018       1.90922 
   4170.95400      66.11505     123.73374       1.87209 
   4171.10640      67.81556     124.79001       1.84015 
   4171.25880      66.82396     121.97706       1.82489 
   4171.41120      63.81818     117.97481       1.85113 
   4171.56360      61.50013     116.65422       1.89722 
   4171.71600      61.00428     112.76227       1.84945 
   4171.86840      59.83968     113.93097       1.90404 
   4172.02080      60.30851     114.39828       1.89693 
   4172.17320      58.70887     114.86559       1.95821 
   4172.32560      57.87829     115.33289       1.99412 
   4172.47800      61.57481     115.80019       1.88262 
   4172.63040      63.18499     116.26751       1.84099 
   4172.78280      60.51336     116.82708       1.93158 
   4172.93520      58.34666     118.61207       2.03353 
   4173.08760      56.94944     119.03279       2.08997 
   4173.24000      56.04595     113.44076       2.02397 
   4173.39240      55.20261     109.45421       1.98350 
   4173.54480      54.89673     110.61053       2.01549 
   4173.69720      57.07375     111.53473       1.95471 
   4173.84960      59.35247     113.93658       1.91962 
   4174.00200      61.80721     114.63577       1.85608 
   4174.15440      60.74188     111.02332       1.83299 
   4174.30680      59.54296     113.36726       1.90821 
   4174.45920      63.51514     118.97997       1.87363 
   4174.61160      62.61649     123.87689       1.97837 
   4174.76400      62.91824     122.59402       1.94943 
   4174.91640      63.00532     122.00748       1.93838 
   4175.06880      60.23697     121.04532       2.00948 
   4175.22120      60.22194     121.41988       2.01622 
   4175.37360      57.91843     119.82654       2.07179 
   4175.52600      56.92076     118.54494       2.08704 
   4175.67840      58.38378     119.54257       2.05216 
   4175.83080      55.05929     120.28975       2.18473 
   4175.98320      56.94918     119.99962       2.11115 
   4176.13560      59.56939     117.49927       1.97239 
   4176.28800      58.68720     114.62622       1.95316 
   4176.44040      57.37701     113.55107       1.97954 
   4176.59280      55.97567     113.52300       2.02812 
   4176.74520      55.85003     111.28556       1.99312 
   4176.89760      57.50686     110.41645       1.92023 
   4177.05000      60.19717     112.96861       1.87768 
   4177.20240      61.29494     113.73562       1.85624 
   4177.35480      59.74560     112.53641       1.88351 
   4177.50720      60.49650     111.00951       1.83532 
   4177.65960      61.67657     112.69132       1.82728 
   4177.81200      60.16566     114.36617       1.90205 
   4177.96440      59.52498     117.89120       1.98070 
   4178.11680      60.70485     119.88747       1.97491 
   4178.26920      61.20238     120.07639       1.96225 
   4178.42160      62.20456     118.89259       1.91139 
   4178.57400      62.89874     119.08720       1.89333 
   4178.72640      62.15651     119.88172       1.92985 
   4178.87880      60.89731     121.10696       1.98881 
   4179.03120      62.09142     122.09389       1.96646 
   4179.18360      62.69616     122.92332       1.96065 
   4179.33600      62.55352     123.56509       1.97534 
   4179.48840      61.71511     124.65734       2.02104 
   4179.64080      59.76168     124.72961       2.08712 
   4179.79320      59.50982     123.07471       2.06818 
   4179.94560      59.35307     120.60001       2.03186 
   4180.09800      58.79598     119.15396       2.02658 
   4180.25040      58.14521     119.69282       2.05885 
   4180.40280      57.69505     119.47955       2.07114 
   4180.55520      59.17599     117.49654       1.98658 
   4180.70760      60.11936     115.87486       1.92753 
   4180.86000      58.91284     115.29884       1.95726 
   4181.01240      59.66545     117.00391       1.96181 
   4181.16480      61.49908     119.65748       1.94583 
   4181.31720      61.02614     120.14235       1.96869 
   4181.46960      61.09630     119.07900       1.94904 
   4181.62200      61.33025     120.55552       1.96567 
   4181.77440      61.08948     120.26349       1.96847 
   4181.92680      60.87532     116.92500       1.92076 
   4182.07920      61.18375     118.10002       1.93026 
   4182.23160      61.52803     120.30937       1.95540 
   4182.38400      61.21230     122.76603       2.00702 
   4182.53640      59.64328     126.14735       2.11505 
   4182.68880      58.56320     127.11750       2.17156 
   4182.84120      57.61634     125.65093       2.18166 
   4182.99360      58.24699     121.57098       2.08696 
   4183.14600      57.41011     117.50531       2.04671 
   4183.29840      57.08091     115.37778       2.02130 
   4183.45080      57.69470     114.59718       1.98668 
   4183.60320      58.83162     113.96547       1.93718 
   4183.75560      58.23228     112.65628       1.93499 
   4183.90800      56.86306     112.95804       1.98658 
   4184.06040      56.79451     113.74487       2.00283 
   4184.21280      57.40945     111.13402       1.93617 
   4184.36520      57.31495     109.08226       1.90370 
   4184.51760      56.06306     109.96863       1.96159 
   4184.67000      56.10275     112.33654       2.00220 
   4184.82240      57.33961     114.66580       2.00031 
   4184.97480      59.98834     114.05767       1.90349 
   4185.12720      62.96984     112.34193       1.78454 
   4185.27960      63.44898     112.02939       1.76606 
   4185.43200      62.69812     118.45135       1.88915 
   4185.58440      62.90727     126.28995       2.00755 
   4185.73680      63.46788     128.79224       2.02909 
   4185.88920      64.72215     132.79842       2.05195 
   4186.04160      66.53828     135.12729       2.03098 
   4186.19400      67.42515     136.59299       2.02590 
   4186.34640      66.89993     137.33235       2.05284 
   4186.49880      65.76242     137.33156       2.08873 
   4186.65120      65.35616     135.43558       2.07350 
   4186.80360      68.28581     133.80070       1.96049 
   4186.95600      70.34624     133.37592       1.89600 
   4187.10840      69.96387     132.72371       1.89713 
   4187.26080      69.17734     131.74464       1.90446 
   4187.41320      70.66112     131.98698       1.86873 
   4187.56560      72.90685     133.03931       1.82478 
   4187.71800      72.40321     132.37762       1.82838 
   4187.87040      70.50621     130.40086       1.84984 
   4188.02280      68.83459     129.88326       1.88694 
   4188.17520      68.63338     129.66263       1.88926 
   4188.32760      69.02341     128.12517       1.85629 
   4188.48000      68.81382     128.80077       1.87207 
   4188.63240      67.22896     132.50044       1.97186 
   4188.78480      65.75333     136.35291       2.07377 
   4188.93720      65.72527     138.13969       2.10181 
   4189.08960      65.14886     135.63841       2.08191 
   4189.24200      63.01237     131.68669       2.09013 
   4189.39440      61.88009     129.85336       2.09852 
   4189.54680      63.44679     129.02551       2.03501 
   4189.69920      65.36056     130.37666       1.99487 
   4189.85160      64.97161     132.70996       2.04259 
   4190.00400      64.65690     131.42239       2.03255 
   4190.15640      65.23873     130.36751       1.99862 
   4190.30880      66.51095     131.28853       1.97392 
   4190.46120      66.13445     129.60892       1.95977 
   4190.61360      65.98572     127.92033       1.93859 
   4190.76600      65.35485     126.35934       1.93349 
   4190.91840      64.21267     125.76203       1.95869 
