~Version Information
VERS  .          2.0                              :CWLS Log Ascii Standard - Version 2.0
WRAP  .          NO                               :One line per depth step
~Well Information Block
#MNEM.UNIT       Data Type                        Information
#---------       ---------                        -------------------------------
STRT  .M         3396.00000                       :START DEPTH
STOP  .M         5302.00000                       :STOP DEPTH
STEP  .M          0.15240                         :INCREMENT
NULL  .          -999.25                          :NULL DATA VALUE
COMP  .          StatoilHydro                     :COMPANY
WELL  .          15/9-F-10                        :WELL
FLD   .          Volve                            :FIELD
LOC   .                                           :LOCATION
PROV  .          Norway                           :PROVINCE
STAT  .          Norway                           :STATE
CNTY  .          Maersk Inspirer                  :COUNTY
CTRY  .          Norway                           :COUNTRY
DATE  .                                           :DATE
UWI   .          15/9-F-10                        :UNIQUE WELL UWI
LIC   .                                           :LICENSE NUMBER
API   .                                           :API NUMBER
SRVC  .                                           :SERVICE COMPANY
~Parameter Information Block
#MNEM.UNIT       Value                            Description
#---------       ---------                        -------------
LONG  .DEG       1.887480                         :Well Surface Location
LATI  .DEG       58.441612                        :Well Surface Location
XWELL .DEG       1.887480                         :X-coordinate of Well Head
YWELL .DEG       58.441612                        :Y-coordinate of Well Head
PDAT  .          Mean Sea Level                   :Permanent Datum               
EPD   .m         0.00                             :Elevation of Permanent Datum (PDAT) above Mean Sea Level
LMF   .          Drill Floor                      :Logging Measured From (Name of Working Datum)
APD   .m         54.90                            :Elevation of Working Datum (LMF) Above Permanent Datum
EGL   .m         -91.00                           :Elevation of Ground Level Above Mean Sea Level
EDF   .m         54.90                            :Elevation of Derrick Floor Above Mean Sea Level
~Curve Information Block
#MNEM.UNIT       API Code            Curve    Description
#--------        --------------      -----    -------------------
DEPT  .M                             :0       Index
DTCO  .US/F                          :1       Delta-T Compressional         
DTSM  .US/F                          :2       Delta-T Shear                 
VPVS  .                              :3       Compressional to Shear Velocity Ratio
~Ascii Data Section
# ...
   3976.18680      58.56689     112.85128       1.92691 
   3976.33920      59.64167     112.76318       1.89120 
   3976.49160      60.50639     112.57738       1.86069 
   3976.64400      59.25164     112.91317       1.90616 
   3976.79640      57.88166     112.79129       1.94867 
   3976.94880      58.70684     113.14201       1.92798 
   3977.10120      59.63898     113.46427       1.90287 
   3977.25360      58.65686     112.93382       1.92536 
   3977.40600      58.94362     113.25089       1.92136 
   3977.55840      58.60345     113.32668       1.93380 
   3977.71080      58.53307     114.86481       1.96239 
   3977.86320      59.15545     116.49153       1.96953 
   3978.01560      59.31729     116.06486       1.95703 
   3978.16800      58.10172     115.09088       1.98086 
   3978.32040      58.41018     114.65586       1.96300 
   3978.47280      59.23826     113.38775       1.91450 
   3978.62520      59.60354     112.85482       1.89375 
   3978.77760      58.22190     113.42631       1.94844 
   3978.93000      57.44558     114.12769       1.98672 
   3979.08240      58.51235     113.34998       1.93892 
   3979.23480      60.33764     112.13477       1.85847 
   3979.38720      60.33682     112.26096       1.86059 
   3979.53960      60.55369     112.17368       1.85246 
   3979.69200      60.48714     112.08883       1.85310 
   3979.84440      60.39077     112.64890       1.86537 
   3979.99680      59.90039     112.93625       1.88544 
   3980.14920      59.48078     113.30398       1.90491 
   3980.30160      59.25912     113.56283       1.91638 
   3980.45400      59.60376     113.52243       1.90472 
   3980.60640      60.07055     113.44181       1.88848 
   3980.75880      59.67208     113.46710       1.90158 
   3980.91120      59.04554     113.68761       1.92547 
   3981.06360      58.63788     113.70770       1.93915 
   3981.21600      58.90380     113.39181       1.92518 
   3981.36840      59.93319     113.39209       1.89210 
   3981.52080      60.55640     113.09776       1.86765 
   3981.67320      60.25383     112.23892       1.86279 
   3981.82560      59.57001     111.43404       1.87066 
   3981.97800      59.50492     111.35999       1.87147 
   3982.13040      60.58478     110.88609       1.83091 
   3982.28280      60.52077     109.60926       1.81224 
   3982.43520      58.76341     109.14998       1.85752 
   3982.58760      58.77240     109.59504       1.86505 
   3982.74000      58.43316     109.29120       1.87080 
   3982.89240      58.86703     108.84427       1.84930 
   3983.04480      57.00607     109.04623       1.91374 
   3983.19720      55.57766     108.63941       1.95477 
   3983.34960      56.28921     108.24357       1.92321 
   3983.50200      57.49543     108.25481       1.88300 
   3983.65440      58.61452     108.78706       1.85605 
   3983.80680      58.86522     109.06693       1.85290 
   3983.95920      57.84748     109.31342       1.89003 
   3984.11160      56.28728     109.46895       1.94519 
   3984.26400      55.63147     109.30713       1.96498 
   3984.41640      55.89459     109.54297       1.95996 
   3984.56880      55.13607     110.13793       1.99765 
   3984.72120      55.45785     110.65488       1.99571 
   3984.87360      57.20159     111.28086       1.94570 
   3985.02600      57.68489     111.31391       1.92985 
   3985.17840      56.88345     111.62242       1.96235 
   3985.33080      56.88004     111.59348       1.96203 
   3985.48320      58.04720     111.52227       1.92158 
   3985.63560      58.57987     111.39178       1.90170 
   3985.78800      58.14926     111.08415       1.91043 
   3985.94040      59.13709     110.77355       1.87340 
   3986.09280      59.63843     110.55208       1.85377 
   3986.24520      58.83641     110.73513       1.88221 
   3986.39760      58.51897     111.25235       1.90116 
   3986.55000      59.95111     110.59376       1.84619 
   3986.70240      60.45865     109.27668       1.80882 
   3986.85480      58.13579     108.42741       1.86507 
   3987.00720      57.48606     108.72201       1.89181 
   3987.15960      56.93552     109.01822       1.91511 
   3987.31200      57.93205     108.73861       1.87701 
   3987.46440      58.04017     108.70629       1.87295 
   3987.61680      57.72754     108.66791       1.88248 
   3987.76920      57.10955     108.17609       1.89419 
   3987.92160      58.35331     108.44747       1.85989 
   3988.07400      60.17278     109.56534       1.82108 
   3988.22640      59.97881     110.96782       1.85020 
   3988.37880      59.94469     111.92879       1.86778 
   3988.53120      58.46996     113.00158       1.93278 
   3988.68360      57.92781     113.60921       1.96122 
   3988.83600      58.04467     112.79002       1.94327 
   3988.98840      58.58762     112.45044       1.91929 
   3989.14080      58.32809     114.08144       1.95625 
   3989.29320      57.53220     114.16608       1.98444 
   3989.44560      58.51159     113.71941       1.94398 
   3989.59800      59.19336     112.89159       1.90722 
   3989.75040      59.16410     113.42232       1.91713 
   3989.90280      59.90826     113.96509       1.90236 
   3990.05520      60.23757     113.89704       1.89080 
   3990.20760      60.13996     114.28833       1.90041 
   3990.36000      59.89666     113.95403       1.90247 
   3990.51240      59.67364     112.07544       1.87815 
   3990.66480      59.60247     112.35713       1.88511 
   3990.81720      59.61304     111.78588       1.87517 
   3990.96960      59.34197     110.61479       1.86403 
   3991.12200      59.51581     110.47194       1.85628 
   3991.27440      59.25012     110.33014       1.86266 
   3991.42680      57.83468     110.35741       1.90817 
   3991.57920      57.53059     110.24929       1.91636 
   3991.73160      57.62115     111.20586       1.92986 
   3991.88400      58.58436     113.55032       1.93840 
   3992.03640      58.72234     115.45892       1.96713 
   3992.18880      57.98346     118.70325       2.04714 
   3992.34120      58.93389     120.70001       2.04809 
   3992.49360      59.30222     120.31580       2.02886 
   3992.64600      59.19889     118.87176       2.00799 
   3992.79840      59.08755     118.27737       2.00173 
   3992.95080      59.07904     118.59337       2.00738 
   3993.10320      58.73464     117.59360       2.00208 
   3993.25560      58.00942     116.73884       2.01286 
   3993.40800      57.13989     117.47794       2.05597 
   3993.56040      57.41746     116.10256       2.02229 
   3993.71280      56.90237     114.78976       2.01834 
   3993.86520      55.28881     114.21434       2.06578 
   3994.01760      55.74035     112.87047       2.02522 
   3994.17000      56.54841     111.96709       1.98005 
   3994.32240      56.98192     111.46146       1.95617 
   3994.47480      57.88956     111.67794       1.92927 
   3994.62720      59.34347     112.27829       1.89243 
   3994.77960      60.16341     111.68438       1.85637 
   3994.93200      59.88137     110.81199       1.85055 
   3995.08440      59.21427     109.81405       1.85497 
   3995.23680      57.60982     109.20554       1.89567 
   3995.38920      57.04704     108.92677       1.90942 
   3995.54160      58.17220     109.53253       1.88387 
   3995.69400      59.86216     111.26476       1.85888 
   3995.84640      58.59865     111.92302       1.91035 
   3995.99880      58.29168     111.86343       1.91952 
   3996.15120      59.29013     111.55923       1.88158 
   3996.30360      58.77799     111.00645       1.88860 
   3996.45600      58.77565     111.28843       1.89349 
   3996.60840      59.17377     111.79822       1.88933 
   3996.76080      59.01448     112.18040       1.90090 
   3996.91320      58.82749     112.26934       1.90846 
   3997.06560      58.74125     111.94308       1.90571 
   3997.21800      59.49843     111.38676       1.87251 
   3997.37040      60.34536     111.15834       1.84207 
   3997.52280      59.28544     112.15221       1.89251 
