~Version Information
VERS  .          2.0                              :CWLS Log Ascii Standard - Version 2.0
WRAP  .          NO                               :One line per depth step
~Well Information Block
#MNEM.UNIT       Data Type                        Information
#---------       ---------                        -------------------------------
STRT  .M         3396.00000                       :START DEPTH
STOP  .M         5302.00000                       :STOP DEPTH
STEP  .M          0.15240                         :INCREMENT
NULL  .          -999.25                          :NULL DATA VALUE
COMP  .          StatoilHydro                     :COMPANY
WELL  .          15/9-F-10                        :WELL
FLD   .          Volve                            :FIELD
LOC   .                                           :LOCATION
PROV  .          Norway                           :PROVINCE
STAT  .          Norway                           :STATE
CNTY  .          Maersk Inspirer                  :COUNTY
CTRY  .          Norway                           :COUNTRY
DATE  .                                           :DATE
UWI   .          15/9-F-10                        :UNIQUE WELL UWI
LIC   .                                           :LICENSE NUMBER
API   .                                           :API NUMBER
SRVC  .                                           :SERVICE COMPANY
~Parameter Information Block
#MNEM.UNIT       Value                            Description
#---------       ---------                        -------------
LONG  .DEG       1.887480                         :Well Surface Location
LATI  .DEG       58.441612                        :Well Surface Location
XWELL .DEG       1.887480                         :X-coordinate of Well Head
YWELL .DEG       58.441612                        :Y-coordinate of Well Head
PDAT  .          Mean Sea Level                   :Permanent Datum               
EPD   .m         0.00                             :Elevation of Permanent Datum (PDAT) above Mean Sea Level
LMF   .          Drill Floor                      :Logging Measured From (Name of Working Datum)
APD   .m         54.90                            :Elevation of Working Datum (LMF) Above Permanent Datum
EGL   .m         -91.00                           :Elevation of Ground Level Above Mean Sea Level
EDF   .m         54.90                            :Elevation of Derrick Floor Above Mean Sea Level
~Curve Information Block
#MNEM.UNIT       API Code            Curve    Description
#--------        --------------      -----    -------------------
DEPT  .M                             :0       Index
DTCO  .US/F                          :1       Delta-T Compressional         
DTSM  .US/F                          :2       Delta-T Shear                 
VPVS  .                              :3       Compressional to Shear Velocity Ratio
~Ascii Data Section
# ...
   3481.95360      68.50285     126.65556       1.85018 
   3482.10600      70.81353     126.42768       1.78536 
   3482.25840      70.97660     127.92888       1.80241 
   3482.41080      70.52583     129.81543       1.84076 
   3482.56320      68.59632     128.07088       1.86742 
   3482.71560      66.29294     125.29545       1.89002 
   3482.86800      64.76007     123.32705       1.90471 
   3483.02040      63.96851     121.19839       1.89523 
   3483.17280      65.35692     119.80439       1.83313 
   3483.32520      64.81028     120.53841       1.86087 
   3483.47760      62.45785     119.83511       1.91859 
   3483.63000      61.41948     116.13954       1.89092 
   3483.78240      60.61008     113.72718       1.87682 
   3483.93480      60.61089     113.36654       1.87175 
   3484.08720      62.51738     114.08656       1.82496 
   3484.23960      62.28925     116.27404       1.86665 
   3484.39200      62.15418     118.12914       1.90065 
   3484.54440      61.79750     117.75494       1.90551 
   3484.69680      62.01287     115.96403       1.87006 
   3484.84920      62.54535     114.18853       1.82583 
   3485.00160      63.41600     113.28670       1.78651 
   3485.15400      63.50383     114.16321       1.79814 
   3485.30640      63.19284     116.08322       1.83709 
   3485.45880      63.72148     117.11561       1.83808 
   3485.61120      62.76501     117.52248       1.87251 
   3485.76360      63.27532     118.05064       1.86630 
   3485.91600      64.78705     118.77937       1.83339 
   3486.06840      65.59255     119.83540       1.82742 
   3486.22080      67.44189     120.84628       1.79188 
   3486.37320      68.25741     122.32572       1.79211 
   3486.52560      68.22871     123.63042       1.81209 
   3486.67800      66.87094     123.66045       1.84959 
   3486.83040      65.10818     121.72062       1.86947 
   3486.98280      64.78934     119.60197       1.84607 
   3487.13520      65.02850     117.77826       1.81116 
   3487.28760      64.89364     116.31691       1.79243 
   3487.44000      64.84959     117.07545       1.80533 
   3487.59240      64.92505     119.04153       1.83352 
   3487.74480      65.05752     121.64956       1.86983 
   3487.89720      65.62996     123.92852       1.88831 
   3488.04960      66.35730     124.33067       1.87370 
   3488.20200      66.95860     124.03333       1.85242 
   3488.35440      67.63975     125.12639       1.84988 
   3488.50680      68.18089     126.62367       1.85716 
   3488.65920      68.79984     128.45534       1.86707 
   3488.81160      69.37621     129.95285       1.87319 
   3488.96400      70.71117     132.26570       1.87046 
   3489.11640      72.84657     136.86621       1.87875 
   3489.26880      74.67306     141.47003       1.89444 
   3489.42120      75.97620     143.56001       1.88981 
   3489.57360      76.72568     142.21362       1.85351 
   3489.72600      75.66605     139.93504       1.84941 
   3489.87840      74.39597     137.99779       1.85492 
   3490.03080      73.22462     136.85928       1.86924 
   3490.18320      71.26724     134.47760       1.88690 
   3490.33560      69.42808     130.80753       1.88409 
   3490.48800      68.19156     128.23737       1.88051 
   3490.64040      67.44726     125.67243       1.86321 
   3490.79280      66.49785     123.01540       1.84991 
   3490.94520      65.46944     121.35497       1.85366 
   3491.09760      64.69732     121.51950       1.87837 
   3491.25000      64.11382     122.72535       1.91423 
   3491.40240      63.59714     123.12851       1.93610 
   3491.55480      63.38305     123.42787       1.94733 
   3491.70720      63.28849     122.80151       1.94033 
   3491.85960      63.88602     121.30526       1.89940 
   3492.01200      65.52373     120.96272       1.84612 
   3492.16440      66.52045     122.03161       1.83457 
   3492.31680      66.71073     123.59650       1.85309 
   3492.46920      65.73389     125.07291       1.90272 
   3492.62160      64.97909     125.74934       1.93563 
   3492.77400      63.95875     127.30384       1.99043 
   3492.92640      64.91157     127.08844       1.95915 
   3493.07880      66.75189     125.42808       1.87902 
   3493.23120      68.03802     125.48885       1.84514 
   3493.38360      70.48985     129.19142       1.83244 
   3493.53600      71.16165     134.54637       1.89074 
   3493.68840      70.81997     135.34781       1.91116 
   3493.84080      70.23364     135.22820       1.92548 
   3493.99320      69.01854     135.03763       1.95680 
   3494.14560      67.63746     133.25833       1.97011 
   3494.29800      67.40792     130.56610       1.93701 
   3494.45040      67.55799     128.83965       1.90707 
   3494.60280      67.36504     127.30057       1.88972 
   3494.75520      67.44510     127.52469       1.89079 
   3494.90760      67.78718     130.12521       1.91950 
   3495.06000      67.98205     133.62021       1.96568 
   3495.21240      66.82482     132.76460       1.98654 
   3495.36480      65.65331     129.11761       1.96666 
   3495.51720      65.34372     128.44667       1.96569 
   3495.66960      64.47964     127.50999       1.97782 
   3495.82200      63.29314     128.15520       2.02485 
   3495.97440      62.67535     130.20378       2.07767 
   3496.12680      62.56847     132.42926       2.11657 
   3496.27920      64.05798     134.13354       2.09429 
   3496.43160      65.09689     133.99832       2.05844 
   3496.58400      64.91560     133.11063       2.05051 
   3496.73640      64.31406     130.70711       2.03216 
   3496.88880      63.29736     126.19243       1.99354 
   3497.04120      62.84948     123.11856       1.95893 
   3497.19360      63.02141     122.18259       1.93880 
   3497.34600      64.05959     122.56626       1.91350 
   3497.49840      65.16228     125.00368       1.91828 
   3497.65080      65.66566     130.05411       1.98036 
   3497.80320      66.11994     133.85808       2.02449 
   3497.95560      65.94555     133.88142       2.03018 
   3498.10800      65.73097     131.83186       2.00557 
   3498.26040      65.12766     127.89275       1.96357 
   3498.41280      64.23400     123.19512       1.91777 
   3498.56520      63.57734     118.92678       1.87053 
   3498.71760      63.35893     115.03758       1.81563 
   3498.87000      63.41815     113.41101       1.78828 
   3499.02240      63.21788     116.39661       1.84157 
   3499.17480      62.59451     120.03201       1.91761 
   3499.32720      62.19612     121.34314       1.95107 
   3499.47960      62.05907     120.48585       1.94179 
   3499.63200      63.08323     119.19214       1.88951 
   3499.78440      63.37574     119.56093       1.88656 
   3499.93680      63.24068     121.11611       1.91516 
   3500.08920      62.88827     120.49979       1.91611 
   3500.24160      62.69355     120.35020       1.91966 
   3500.39400      62.43944     121.01001       1.93831 
   3500.54640      61.53291     120.77207       1.96272 
   3500.69880      60.95147     119.39317       1.95894 
   3500.85120      60.10056     118.87413       1.97791 
   3501.00360      60.44614     119.55637       1.97798 
   3501.15600      61.06000     118.89331       1.94722 
   3501.30840      61.46419     117.98422       1.91958 
   3501.46080      61.26086     117.43359       1.91702 
   3501.61320      60.66910     117.07630       1.92975 
   3501.76560      61.36002     116.95981       1.90656 
   3501.91800      62.31332     117.21899       1.88118 
   3502.07040      61.83001     119.11628       1.92666 
   3502.22280      61.66187     120.22816       1.94988 
   3502.37520      61.39243     118.93410       1.93741 
   3502.52760      60.34062     116.94309       1.93805 
   3502.68000      60.59548     115.43389       1.90507 
   3502.83240      61.07982     114.87814       1.88080 
   3502.98480      61.22540     115.14277       1.88064 
   3503.13720      61.42311     116.43351       1.89555 
   3503.28960      62.53934     118.37612       1.89308 
