~Version Information
VERS  .          2.0                              :CWLS Log Ascii Standard - Version 2.0
WRAP  .          NO                               :One line per depth step
~Well Information Block
#MNEM.UNIT       Data Type                        Information
#---------       ---------                        -------------------------------
STRT  .M         3396.00000                       :START DEPTH
STOP  .M         5302.00000                       :STOP DEPTH
STEP  .M          0.15240                         :INCREMENT
NULL  .          -999.25                          :NULL DATA VALUE
COMP  .          StatoilHydro                     :COMPANY
WELL  .          15/9-F-10                        :WELL
FLD   .          Volve                            :FIELD
LOC   .                                           :LOCATION
PROV  .          Norway                           :PROVINCE
STAT  .          Norway                           :STATE
CNTY  .          Maersk Inspirer                  :COUNTY
CTRY  .          Norway                           :COUNTRY
DATE  .                                           :DATE
UWI   .          15/9-F-10                        :UNIQUE WELL UWI
LIC   .                                           :LICENSE NUMBER
API   .                                           :API NUMBER
SRVC  .                                           :SERVICE COMPANY
~Parameter Information Block
#MNEM.UNIT       Value                            Description
#---------       ---------                        -------------
LONG  .DEG       1.887480                         :Well Surface Location
LATI  .DEG       58.441612                        :Well Surface Location
XWELL .DEG       1.887480                         :X-coordinate of Well Head
YWELL .DEG       58.441612                        :Y-coordinate of Well Head
PDAT  .          Mean Sea Level                   :Permanent Datum               
EPD   .m         0.00                             :Elevation of Permanent Datum (PDAT) above Mean Sea Level
LMF   .          Drill Floor                      :Logging Measured From (Name of Working Datum)
APD   .m         54.90                            :Elevation of Working Datum (LMF) Above Permanent Datum
EGL   .m         -91.00                           :Elevation of Ground Level Above Mean Sea Level
EDF   .m         54.90                            :Elevation of Derrick Floor Above Mean Sea Level
~Curve Information Block
#MNEM.UNIT       API Code            Curve    Description
#--------        --------------      -----    -------------------
DEPT  .M                             :0       Index
DTCO  .US/F                          :1       Delta-T Compressional         
DTSM  .US/F                          :2       Delta-T Shear                 
VPVS  .                              :3       Compressional to Shear Velocity Ratio
~Ascii Data Section
# ...
   4448.93160      60.13240     117.99076       1.96272 
   4449.08400      59.22020     119.45841       2.01715 
   4449.23640      60.15588     119.53216       1.98773 
   4449.38880      61.80593     118.58408       1.91868 
   4449.54120      62.69236     120.27342       1.91848 
   4449.69360      62.37529     120.31469       1.92889 
   4449.84600      62.58965     120.55654       1.92624 
   4449.99840      62.30632     120.38779       1.93275 
   4450.15080      61.14415     120.63010       1.97289 
   4450.30320      59.88527     120.48330       2.01374 
   4450.45560      57.63198     119.45538       2.07280 
   4450.60800      57.96609     118.55663       2.04528 
   4450.76040      58.02824     117.12527       2.01844 
   4450.91280      58.27562     115.98197       1.99022 
   4451.06520      59.04000     117.19260       1.98507 
   4451.21760      60.64814     118.57459       1.95550 
   4451.37000      62.12122     119.67622       1.92650 
   4451.52240      61.63323     120.02145       1.94777 
   4451.67480      60.76441     120.82976       1.98849 
   4451.82720      61.75067     121.52861       1.96845 
   4451.97960      63.13010     121.92572       1.93135 
   4452.13200      64.14519     120.83161       1.88440 
   4452.28440      64.77735     117.48391       1.81366 
   4452.43680      63.66838     117.71443       1.84934 
   4452.58920      62.93055     120.23300       1.91056 
   4452.74160      62.31842     120.81274       1.93910 
   4452.89400      60.82161     120.18880       1.97608 
   4453.04640      60.44061     119.54430       1.97788 
   4453.19880      60.64746     119.15174       1.96474 
   4453.35120      61.68164     117.17072       1.90033 
   4453.50360      62.40574     115.80495       1.85587 
   4453.65600      60.80536     116.41719       1.91533 
   4453.80840      59.41865     118.39496       1.99262 
   4453.96080      59.50496     118.75560       1.99595 
   4454.11320      59.32024     117.94157       1.98891 
   4454.26560      58.39428     118.87662       2.03582 
   4454.41800      58.83220     116.29559       1.97693 
   4454.57040      59.48182     113.63167       1.91047 
   4454.72280      59.93056     113.39089       1.89204 
   4454.87520      60.00824     115.79055       1.92951 
   4455.02760      60.69371     118.33568       1.95012 
   4455.18000      61.93656     117.77957       1.90165 
   4455.33240      62.25357     119.67526       1.92258 
   4455.48480      62.00424     122.19797       1.97078 
   4455.63720      63.00170     123.57330       1.96169 
   4455.78960      63.57698     124.51075       1.95872 
   4455.94200      62.18864     124.59689       2.00367 
   4456.09440      59.47795     122.99104       2.07039 
   4456.24680      56.99567     121.32396       2.12901 
   4456.39920      59.09324     119.63412       2.02667 
   4456.55160      60.96498     116.67126       1.91373 
   4456.70400      60.83010     115.65137       1.90122 
   4456.85640      60.67713     114.70437       1.89038 
   4457.00880      61.68894     113.84260       1.84652 
   4457.16120      63.54064     114.68018       1.80489 
   4457.31360      63.42722     115.51608       1.82125 
   4457.46600      63.62661     115.94014       1.82221 
   4457.61840      63.07856     115.91136       1.83763 
   4457.77080      61.97010    -999.25000    -999.25000 
   4457.92320      59.86225    -999.25000    -999.25000 
   4458.07560      57.70176    -999.25000    -999.25000 
   4458.22800      57.87404    -999.25000    -999.25000 
   4458.38040      58.56474     122.83952       2.09820 
   4458.53280      59.81964     122.72860       2.05165 
   4458.68520      59.78997     123.03204       2.05774 
   4458.83760      60.30582     122.56538       2.03266 
   4458.99000      60.63924     122.30590       2.01715 
   4459.14240      60.00913     124.35955       2.07231 
   4459.29480      59.40980     126.19791       2.12441 
   4459.44720      58.31529     124.54949       2.13579 
   4459.59960      59.19434     123.80347       2.09221 
   4459.75200      61.87045     123.79358       2.00217 
   4459.90440      63.07560     123.62863       1.96051 
   4460.05680      61.92009     123.23096       1.99020 
   4460.20920      62.84214     122.78849       1.95428 
   4460.36160      64.10837     121.80950       1.90017 
   4460.51400      64.40505     119.96743       1.86268 
   4460.66640      64.34995     119.89907       1.86319 
   4460.81880      64.69249     120.34232       1.86029 
   4460.97120      63.53475     117.91991       1.85728 
   4461.12360      60.88526     117.39442       1.92825 
   4461.27600      60.06741     118.21821       1.96812 
   4461.42840      59.57079     121.44387       2.03902 
   4461.58080      59.73719     123.86199       2.07382 
   4461.73320      61.55678     124.33340       2.02011 
   4461.88560      60.90477     122.56792       2.01381 
   4462.03800      57.67839     121.90374       2.11467 
   4462.19040      56.44407     120.93574       2.14309 
   4462.34280      58.22846     118.85498       2.04237 
   4462.49520      58.42216     117.55405       2.01386 
   4462.64760      56.20921     118.96020       2.11651 
   4462.80000      55.99170     119.94268       2.14218 
   4462.95240      56.52134     118.93546       2.10447 
   4463.10480      57.53545     119.49492       2.07677 
   4463.25720      58.39587     121.52188       2.08102 
   4463.40960      59.41150     120.83176       2.03452 
   4463.56200      61.69218     121.71736       1.97328 
   4463.71440      62.55992     123.14898       1.96872 
   4463.86680      62.37328     120.52977       1.93338 
   4464.01920      63.20416     116.56947       1.84438 
   4464.17160      62.92815     119.08127       1.89238 
   4464.32400      62.74156     119.97486       1.91219 
   4464.47640      62.63547     117.86923       1.88183 
   4464.62880      62.25209     117.56040       1.88859 
   4464.78120      61.49299     116.86348       1.90038 
   4464.93360      61.48770     115.36467       1.87626 
   4465.08600      62.04702     114.48550       1.84519 
   4465.23840      62.38514     113.84926       1.82484 
   4465.39080      61.99381     116.63358       1.88191 
   4465.54320      60.13145     117.50383       1.95461 
   4465.69560      58.52446     118.13959       2.01892 
   4465.84800      58.95184     118.32616       2.00866 
   4466.00040      61.24964     118.47640       1.93435 
   4466.15280      61.63640     118.56178       1.92357 
   4466.30520      61.09531     118.41440       1.93847 
   4466.45760      59.84731     118.77634       1.98478 
   4466.61000      59.18944     119.11495       2.01242 
   4466.76240      58.58446     118.10354       2.01600 
   4466.91480      58.80813     117.34422       1.99587 
   4467.06720      60.23097     116.46996       1.93385 
   4467.21960      61.05893     117.75771       1.92860 
   4467.37200      60.33359     118.59998       1.96615 
   4467.52440      59.17473     119.10069       2.01272 
   4467.67680      58.92366     118.17193       2.00546 
   4467.82920      59.04898     115.22851       1.95155 
   4467.98160      60.84927     115.54936       1.89962 
   4468.13400      62.61107     117.65611       1.87927 
   4468.28640      62.39752     116.21146       1.86289 
   4468.43880      62.86204     114.10550       1.81522 
   4468.59120      61.59520     113.14780       1.83720 
   4468.74360      59.94945     113.20775       1.88889 
   4468.89600      59.17580     114.41888       1.93352 
   4469.04840      59.38966     115.63206       1.94712 
   4469.20080      58.20346     115.62332       1.98689 
   4469.35320      58.15002     116.40934       2.00239 
   4469.50560      59.25094     116.82737       1.97177 
   4469.65800      58.83354     116.52943       1.98066 
   4469.81040      59.26194     116.91659       1.97297 
   4469.96280      60.33115     118.25513       1.96012 
   4470.11520      60.93033     119.19262       1.95621 
   4470.26760      61.75587     120.07957       1.94456 
