~Version Information
VERS  .          2.0                              :CWLS Log Ascii Standard - Version 2.0
WRAP  .          NO                               :One line per depth step
~Well Information Block
#MNEM.UNIT       Data Type                        Information
#---------       ---------                        -------------------------------
STRT  .M         3396.00000                       :START DEPTH
STOP  .M         5302.00000                       :STOP DEPTH
STEP  .M          0.15240                         :INCREMENT
NULL  .          -999.25                          :NULL DATA VALUE
COMP  .          StatoilHydro                     :COMPANY
WELL  .          15/9-F-10                        :WELL
FLD   .          Volve                            :FIELD
LOC   .                                           :LOCATION
PROV  .          Norway                           :PROVINCE
STAT  .          Norway                           :STATE
CNTY  .          Maersk Inspirer                  :COUNTY
CTRY  .          Norway                           :COUNTRY
DATE  .                                           :DATE
UWI   .          15/9-F-10                        :UNIQUE WELL UWI
LIC   .                                           :LICENSE NUMBER
API   .                                           :API NUMBER
SRVC  .                                           :SERVICE COMPANY
~Parameter Information Block
#MNEM.UNIT       Value                            Description
#---------       ---------                        -------------
LONG  .DEG       1.887480                         :Well Surface Location
LATI  .DEG       58.441612                        :Well Surface Location
XWELL .DEG       1.887480                         :X-coordinate of Well Head
YWELL .DEG       58.441612                        :Y-coordinate of Well Head
PDAT  .          Mean Sea Level                   :Permanent Datum               
EPD   .m         0.00                             :Elevation of Permanent Datum (PDAT) above Mean Sea Level
LMF   .          Drill Floor                      :Logging Measured From (Name of Working Datum)
APD   .m         54.90                            :Elevation of Working Datum (LMF) Above Permanent Datum
EGL   .m         -91.00                           :Elevation of Ground Level Above Mean Sea Level
EDF   .m         54.90                            :Elevation of Derrick Floor Above Mean Sea Level
~Curve Information Block
#MNEM.UNIT       API Code            Curve    Description
#--------        --------------      -----    -------------------
DEPT  .M                             :0       Index
DTCO  .US/F                          :1       Delta-T Compressional         
DTSM  .US/F                          :2       Delta-T Shear                 
VPVS  .                              :3       Compressional to Shear Velocity Ratio
~Ascii Data Section
# ...
   3782.79120      56.42825     114.30804       2.02571 
   3782.94360      57.65368     115.15890       1.99846 
   3783.09600      59.67579     115.62075       1.93752 
   3783.24840      59.96637     115.95995       1.93377 
   3783.40080      59.29665     115.70904       1.95147 
   3783.55320      58.27798     115.24094       1.97754 
   3783.70560      57.74840     114.99422       1.99130 
   3783.85800      57.14603     114.90909       2.01128 
   3784.01040      56.78019     114.44888       2.01640 
   3784.16280      56.92099     112.53963       1.97761 
   3784.31520      55.12266     109.43241       1.98529 
   3784.46760      55.60357     108.13103       1.94483 
   3784.62000      55.70617     107.70833       1.93367 
   3784.77240      55.05184     106.53725       1.93529 
   3784.92480      55.24247     106.28715       1.92404 
   3785.07720      55.40867     108.03534       1.94978 
   3785.22960      56.85523     109.36089       1.92428 
   3785.38200      59.19447     109.48415       1.85015 
   3785.53440      59.86435     108.82349       1.81805 
   3785.68680      58.74656     110.93188       1.88874 
   3785.83920      58.57064     115.30353       1.96851 
   3785.99160      58.57729     117.88908       2.01305 
   3786.14400      57.28058     118.42012       2.06743 
   3786.29640      57.52298     117.90766       2.05030 
   3786.44880      58.55701     117.28522       2.00292 
   3786.60120      58.65715     117.69770       2.00654 
   3786.75360      59.22254     117.76937       1.98878 
   3786.90600      60.04804     117.53738       1.95741 
   3787.05840      61.26562     117.61339       1.92049 
   3787.21080      62.73764     117.02312       1.86527 
   3787.36320      62.16697     116.04387       1.86679 
   3787.51560      60.97243     115.58630       1.89584 
   3787.66800      60.00457     115.48698       1.92472 
   3787.82040      59.94893     115.55350       1.92770 
   3787.97280      60.40728     116.04613       1.92119 
   3788.12520      59.80634     116.00564       1.93967 
   3788.27760      59.34692     115.00346       1.93788 
   3788.43000      59.15854     114.65461       1.93819 
   3788.58240      59.99268     114.51975       1.90899 
   3788.73480      60.95679     114.66596       1.88123 
   3788.88720      61.92020     114.98716       1.85706 
   3789.03960      62.20376     115.45162       1.85604 
   3789.19200      61.80780     116.53358       1.88551 
   3789.34440      61.73891     116.81972       1.89229 
   3789.49680      60.91226     115.90853       1.90416 
   3789.64920      58.49361     114.25096       1.95321 
   3789.80160      58.97662     114.58234       1.94289 
   3789.95400      60.13510     116.53895       1.93795 
   3790.10640      59.91092     117.07866       1.95448 
   3790.25880      58.57868     117.00774       1.99762 
   3790.41120      58.56927     116.48358       1.98941 
   3790.56360      59.13493     114.95207       1.94401 
   3790.71600      58.31439     115.00922       1.97226 
   3790.86840      58.18240     115.07107       1.97777 
   3791.02080      57.92793     113.60355       1.96118 
   3791.17320      56.54733     113.71095       2.01192 
   3791.32560      55.78378     114.17657       2.04734 
   3791.47800      56.92408     114.46258       2.01081 
   3791.63040      56.62974     115.44810       2.03868 
   3791.78280      57.67784     117.12154       2.03196 
   3791.93520      59.77459     116.03702       1.94140 
   3792.08760      59.70106     114.86382       1.92423 
   3792.24000      58.53038     115.05125       1.96578 
   3792.39240      58.01717     115.76186       1.99526 
   3792.54480      58.01130     117.56653       2.02667 
   3792.69720      58.41224     118.13712       2.02290 
   3792.84960      59.80572     118.69333       1.98467 
   3793.00200      61.04591     119.49876       1.95800 
   3793.15440      62.38242     120.27807       1.92808 
   3793.30680      61.31070     120.54785       1.96702 
   3793.45920      59.61393     120.95845       2.02906 
   3793.61160      60.16083     121.05215       2.01276 
   3793.76400      61.40785     119.57279       1.94718 
   3793.91640      60.98209     117.52101       1.92723 
   3794.06880      60.33359     116.48690       1.93071 
   3794.22120      60.09201     114.38132       1.90338 
   3794.37360      59.19474     112.04678       1.89292 
   3794.52600      57.92328     110.18637       1.90230 
   3794.67840      57.64100     108.50506       1.88266 
   3794.83080      59.42970     108.52267       1.82669 
   3794.98320      60.94276     111.75471       1.83423 
   3795.13560      59.70506     114.97090       1.92605 
   3795.28800      60.43826     115.88130       1.91964 
   3795.44040      62.18468     116.11352       1.86798 
   3795.59280      61.55924     117.75809       1.91319 
   3795.74520      63.00995     117.58759       1.86641 
   3795.89760      63.10883     117.96484       1.86986 
   3796.05000      61.38305     118.41733       1.92927 
   3796.20240      60.81395     118.12453       1.94240 
   3796.35480      60.76715     117.95422       1.94111 
   3796.50720      60.60231     118.61257       1.95722 
   3796.65960      60.99496     118.77770       1.94747 
   3796.81200      61.54611     118.13873       1.91952 
   3796.96440      60.99187     118.12948       1.93716 
   3797.11680      60.53895     118.34068       1.95503 
   3797.26920      61.08323     118.05170       1.93269 
   3797.42160      60.22478     117.40289       1.94948 
   3797.57400      59.28676     116.80522       1.97026 
   3797.72640      58.72042     116.72929       1.98788 
   3797.87880      58.79839     116.95351       1.98907 
   3798.03120      59.48634     116.65555       1.96138 
   3798.18360      60.84510     115.88145       1.90478 
   3798.33600      62.32280     116.03117       1.86201 
   3798.48840      63.17590     117.09084       1.85347 
   3798.64080      63.43644     118.39680       1.86652 
   3798.79320      64.42067     118.76534       1.84361 
   3798.94560      64.51833     118.23009       1.83250 
   3799.09800      64.37099     117.83240       1.83052 
   3799.25040      64.18932     117.65543       1.83297 
   3799.40280      63.01553     117.69319       1.86827 
   3799.55520      61.04090     118.36404       1.93955 
   3799.70760      60.31649     118.92670       1.97180 
   3799.86000      60.81070     118.93604       1.95584 
   3800.01240      60.72179     120.00167       1.97629 
   3800.16480      61.00082     119.50713       1.95959 
   3800.31720      62.05167     115.95867       1.86894 
   3800.46960      62.03736     114.65052       1.84826 
   3800.62200      60.78696     113.49070       1.86703 
   3800.77440      60.46430     111.83438       1.84961 
   3800.92680      59.87022     109.87299       1.83551 
   3801.07920      59.55126     110.52653       1.85619 
   3801.23160      60.38952     111.57059       1.84758 
   3801.38400      58.80318     110.75267       1.88415 
   3801.53640      57.12993     110.02898       1.92594 
   3801.68880      57.29620     110.34090       1.92581 
   3801.84120      58.01740     110.57461       1.90607 
   3801.99360      58.70383     111.47571       1.89899 
   3802.14600      58.72543     112.80076       1.92083 
   3802.29840      59.42745     113.22697       1.90542 
   3802.45080      59.83349     113.69947       1.90035 
   3802.60320      59.30531     114.55522       1.93165 
   3802.75560      59.89891     115.31715       1.92569 
   3802.90800      61.25977     115.36141       1.88316 
   3803.06040      61.31042     114.96191       1.87507 
   3803.21280      60.40754     113.55807       1.88002 
   3803.36520      59.08287     111.97356       1.89520 
   3803.51760      58.21152     110.70370       1.90181 
   3803.67000      57.17099     110.20895       1.92793 
   3803.82240      56.10923     110.31062       1.96610 
   3803.97480      56.28852     109.94285       1.95379 
   3804.12720      57.07657     109.47943       1.91822 
