~Version Information
VERS  .          2.0                              :CWLS Log Ascii Standard - Version 2.0
WRAP  .          NO                               :One line per depth step
~Well Information Block
#MNEM.UNIT       Data Type                        Information
#---------       ---------                        -------------------------------
STRT  .M         3396.00000                       :START DEPTH
STOP  .M         5302.00000                       :STOP DEPTH
STEP  .M          0.15240                         :INCREMENT
NULL  .          -999.25                          :NULL DATA VALUE
COMP  .          StatoilHydro                     :COMPANY
WELL  .          15/9-F-10                        :WELL
FLD   .          Volve                            :FIELD
LOC   .                                           :LOCATION
PROV  .          Norway                           :PROVINCE
STAT  .          Norway                           :STATE
CNTY  .          Maersk Inspirer                  :COUNTY
CTRY  .          Norway                           :COUNTRY
DATE  .                                           :DATE
UWI   .          15/9-F-10                        :UNIQUE WELL UWI
LIC   .                                           :LICENSE NUMBER
API   .                                           :API NUMBER
SRVC  .                                           :SERVICE COMPANY
~Parameter Information Block
#MNEM.UNIT       Value                            Description
#---------       ---------                        -------------
LONG  .DEG       1.887480                         :Well Surface Location
LATI  .DEG       58.441612                        :Well Surface Location
XWELL .DEG       1.887480                         :X-coordinate of Well Head
YWELL .DEG       58.441612                        :Y-coordinate of Well Head
PDAT  .          Mean Sea Level                   :Permanent Datum               
EPD   .m         0.00                             :Elevation of Permanent Datum (PDAT) above Mean Sea Level
LMF   .          Drill Floor                      :Logging Measured From (Name of Working Datum)
APD   .m         54.90                            :Elevation of Working Datum (LMF) Above Permanent Datum
EGL   .m         -91.00                           :Elevation of Ground Level Above Mean Sea Level
EDF   .m         54.90                            :Elevation of Derrick Floor Above Mean Sea Level
~Curve Information Block
#MNEM.UNIT       API Code            Curve    Description
#--------        --------------      -----    -------------------
DEPT  .M                             :0       Index
DTCO  .US/F                          :1       Delta-T Compressional         
DTSM  .US/F                          :2       Delta-T Shear                 
VPVS  .                              :3       Compressional to Shear Velocity Ratio
~Ascii Data Section
# ...
   3868.74480      58.61251     110.35782       1.88285 
   3868.89720      58.28682     110.21442       1.89110 
   3869.04960      57.85392     110.52161       1.91041 
   3869.20200      58.30914     110.71567       1.89876 
   3869.35440      58.33768     110.35336       1.89164 
   3869.50680      58.97376     110.53811       1.87449 
   3869.65920      59.30198     110.58140       1.86479 
   3869.81160      59.19158     112.24809       1.89626 
   3869.96400      60.08147     116.08493       1.93195 
   3870.11640      61.15619     118.99678       1.94588 
   3870.26880      63.25755     120.22453       1.90166 
   3870.42120      65.00047     120.90208       1.86009 
   3870.57360      63.62457     119.49356       1.87815 
   3870.72600      62.98071     120.87412       1.91946 
   3870.87840      61.86549     120.99746       1.95583 
   3871.03080      60.78049     118.76758       1.95400 
   3871.18320      60.18835     117.45641       1.95148 
   3871.33560      60.60345     117.67117       1.94180 
   3871.48800      61.35692     116.60955       1.90060 
   3871.64040      60.89751     116.30149       1.91055 
   3871.79280      60.42995     117.39269       1.94318 
   3871.94520      61.34891     117.41609       1.91404 
   3872.09760      59.88135     117.32433       1.95985 
   3872.25000      58.64418     117.50671       2.00372 
   3872.40240      58.71779     117.67014       2.00399 
   3872.55480      58.95568     117.34480       1.99047 
   3872.70720      59.61166     117.15043       1.96524 
   3872.85960      59.63164     118.02988       1.97956 
   3873.01200      58.88181     118.93880       2.01992 
   3873.16440      59.36550     121.66805       2.04941 
   3873.31680      60.68576     123.30154       2.03251 
   3873.46920      62.85822     123.69226       1.96809 
   3873.62160      63.91864     124.40672       1.94634 
   3873.77400      63.32146     124.32723       1.96353 
   3873.92640      62.51783     124.77557       1.99592 
   3874.07880      61.48177     123.88914       2.01512 
   3874.23120      60.84645     122.55228       2.01413 
   3874.38360      61.71334     120.92201       1.96019 
   3874.53600      63.91367     119.11750       1.86454 
   3874.68840      65.56699     118.12624       1.80163 
   3874.84080      64.50620     118.45557       1.83786 
   3874.99320      61.29006     118.57368       1.93532 
   3875.14560      59.46425     118.49506       1.99281 
   3875.29800      59.67029     118.95349       1.99387 
   3875.45040      60.94771     119.28128       1.95713 
   3875.60280      61.36634     119.49615       1.94726 
   3875.75520      61.25168     119.72717       1.95476 
   3875.90760      60.80801     119.88906       1.97160 
   3876.06000      59.91819     119.80035       2.00017 
   3876.21240      58.43867     119.19778       2.03974 
   3876.36480      59.61499     119.33757       2.00248 
   3876.51720      61.27645     119.59702       1.95179 
   3876.66960      61.64545     119.96166       1.94599 
   3876.82200      61.08440     120.26935       1.96920 
   3876.97440      60.10592     120.40740       2.00326 
   3877.12680      60.85831     120.00235       1.97261 
   3877.27920      61.65065     119.41522       1.93727 
   3877.43160      60.03623     118.53994       1.97461 
   3877.58400      59.79178     117.23019       1.96112 
   3877.73640      59.70884     116.37941       1.95017 
   3877.88880      57.48092     116.60135       2.02879 
   3878.04120      57.63604     116.55973       2.02334 
   3878.19360      60.41496     116.50282       1.92950 
   3878.34600      61.88860     116.64554       1.88491 
   3878.49840      61.09600     116.39331       1.90509 
   3878.65080      61.48010     116.04642       1.88776 
   3878.80320      62.54806     116.03588       1.85517 
   3878.95560      63.13915     117.12708       1.85506 
   3879.10800      62.38105     117.47537       1.88364 
   3879.26040      61.07366     117.28176       1.92033 
   3879.41280      60.42492     117.25999       1.94089 
   3879.56520      59.51215     117.66096       1.97709 
   3879.71760      60.39360     117.81821       1.95160 
   3879.87000      62.21957     117.43302       1.88752 
   3880.02240      62.38056     117.02826       1.87615 
   3880.17480      60.60907     117.44699       1.93916 
   3880.32720      58.60559     118.64584       2.02453 
   3880.47960      58.85695     117.79662       2.00201 
   3880.63200      60.51469     115.44733       1.90836 
   3880.78440      61.27543     114.84776       1.87447 
   3880.93680      60.10537     115.13251       1.91571 
   3881.08920      59.88721     115.01470       1.92082 
   3881.24160      60.60971     114.55763       1.89010 
   3881.39400      59.98206     114.70726       1.91255 
   3881.54640      59.15279     114.84985       1.94159 
   3881.69880      59.30506     114.78407       1.93558 
   3881.85120      60.00432     115.24770       1.92066 
   3882.00360      59.89265     114.73142       1.91558 
   3882.15600      59.08877     112.79422       1.90892 
   3882.30840      58.28069     111.89755       1.92002 
   3882.46080      58.46357     112.45615       1.92364 
   3882.61320      59.78011     114.10532       1.90877 
   3882.76560      60.41676     115.90012       1.91838 
   3882.91800      60.12903     116.54230       1.93820 
   3883.07040      59.94394     115.89799       1.93343 
   3883.22280      60.04306     115.43613       1.92257 
   3883.37520      59.98701     114.79375       1.91361 
   3883.52760      59.27445     114.30174       1.92846 
   3883.68000      59.25020     116.48895       1.96602 
   3883.83240      59.41690     117.88632       1.98416 
   3883.98480      58.22056     117.33138       2.01550 
   3884.13720      57.35118     115.71895       2.01783 
   3884.28960      58.48639     114.69745       1.96175 
   3884.44200      59.85790     113.63354       1.89844 
   3884.59440      59.80882     112.38149       1.87903 
   3884.74680      59.20359     112.03342       1.89238 
   3884.89920      59.25631     114.47588       1.93170 
   3885.05160      60.42559     117.45929       1.94430 
   3885.20400      61.35655     117.04504       1.90763 
   3885.35640      60.34395     116.38274       1.92901 
   3885.50880      59.36640     115.83075       1.95115 
   3885.66120      60.06688     115.39326       1.92127 
   3885.81360      60.93863     115.03005       1.88767 
   3885.96600      60.60779     114.44727       1.88854 
   3886.11840      59.08006     113.81661       1.92673 
   3886.27080      58.22217     113.03037       1.94140 
   3886.42320      57.21951     112.03099       1.95906 
   3886.57560      54.69103     110.93899       2.02873 
   3886.72800      55.31136     110.43415       1.99907 
   3886.88040      57.75605     110.52058       1.91358 
   3887.03280      57.92852     109.55608       1.89148 
   3887.18520      59.15903     108.58469       1.83575 
   3887.33760      59.66477     110.27029       1.84872 
   3887.49000      58.91669     112.68231       1.91257 
   3887.64240      59.74368     112.64798       1.88601 
   3887.79480      60.20325     112.54201       1.86983 
   3887.94720      59.09077     114.03111       1.92980 
   3888.09960      57.19384     115.26025       2.01841 
   3888.25200      54.71388     114.74155       2.09737 
   3888.40440      58.21639     113.13793       1.95205 
   3888.55680      62.64987     112.39169       1.79408 
   3888.70920      61.30238     113.11684       1.84587 
   3888.86160      59.89355     113.64570       1.89746 
   3889.01400      58.87835     112.83338       1.91677 
   3889.16640      57.88693     111.91246       1.93337 
   3889.31880      57.97445     110.36698       1.90369 
   3889.47120      58.32883     109.31499       1.87450 
   3889.62360      58.93760     109.40526       1.85650 
   3889.77600      57.26595     109.35963       1.91040 
   3889.92840      56.67768     109.52848       1.93306 
   3890.08080      57.42884     109.52908       1.90746 
