~Version Information
VERS  .          2.0                              :CWLS Log Ascii Standard - Version 2.0
WRAP  .          NO                               :One line per depth step
~Well Information Block
#MNEM.UNIT       Data Type                        Information
#---------       ---------                        -------------------------------
STRT  .M         3396.00000                       :START DEPTH
STOP  .M         5302.00000                       :STOP DEPTH
STEP  .M          0.15240                         :INCREMENT
NULL  .          -999.25                          :NULL DATA VALUE
COMP  .          StatoilHydro                     :COMPANY
WELL  .          15/9-F-10                        :WELL
FLD   .          Volve                            :FIELD
LOC   .                                           :LOCATION
PROV  .          Norway                           :PROVINCE
STAT  .          Norway                           :STATE
CNTY  .          Maersk Inspirer                  :COUNTY
CTRY  .          Norway                           :COUNTRY
DATE  .                                           :DATE
UWI   .          15/9-F-10                        :UNIQUE WELL UWI
LIC   .                                           :LICENSE NUMBER
API   .                                           :API NUMBER
SRVC  .                                           :SERVICE COMPANY
~Parameter Information Block
#MNEM.UNIT       Value                            Description
#---------       ---------                        -------------
LONG  .DEG       1.887480                         :Well Surface Location
LATI  .DEG       58.441612                        :Well Surface Location
XWELL .DEG       1.887480                         :X-coordinate of Well Head
YWELL .DEG       58.441612                        :Y-coordinate of Well Head
PDAT  .          Mean Sea Level                   :Permanent Datum               
EPD   .m         0.00                             :Elevation of Permanent Datum (PDAT) above Mean Sea Level
LMF   .          Drill Floor                      :Logging Measured From (Name of Working Datum)
APD   .m         54.90                            :Elevation of Working Datum (LMF) Above Permanent Datum
EGL   .m         -91.00                           :Elevation of Ground Level Above Mean Sea Level
EDF   .m         54.90                            :Elevation of Derrick Floor Above Mean Sea Level
~Curve Information Block
#MNEM.UNIT       API Code            Curve    Description
#--------        --------------      -----    -------------------
DEPT  .M                             :0       Index
DTCO  .US/F                          :1       Delta-T Compressional         
DTSM  .US/F                          :2       Delta-T Shear                 
VPVS  .                              :3       Compressional to Shear Velocity Ratio
~Ascii Data Section
# ...
   4749.76920      69.97274     130.23575       1.86112 
   4749.92160      70.08554     132.70471       1.89343 
   4750.07400      69.73150     132.32968       1.89771 
   4750.22640      70.37161     132.59309       1.88482 
   4750.37880      71.15555     130.46330       1.83360 
   4750.53120      70.07874     131.66652       1.87913 
   4750.68360      69.27646     132.55206       1.91339 
   4750.83600      69.92280     131.15112       1.87603 
   4750.98840      70.99847     129.75133       1.82750 
   4751.14080      71.69949     131.22018       1.83016 
   4751.29320      72.23455     131.95288       1.82673 
   4751.44560      71.34314     132.56308       1.85880 
   4751.59800      70.97346     133.04529       1.87552 
   4751.75040      72.05409     132.06500       1.83309 
   4751.90280      70.98071     130.02974       1.83211 
   4752.05520      71.49703     128.70682       1.80015 
   4752.20760      70.90060     127.32217       1.79579 
   4752.36000      70.40324     126.94387       1.80315 
   4752.51240      69.94601     126.48813       1.80838 
   4752.66480      70.53407     125.52819       1.77990 
   4752.81720      71.09639     124.70097       1.75400 
   4752.96960      71.00671     125.26577       1.76414 
   4753.12200      71.23915     125.49286       1.76156 
   4753.27440      70.60931     124.95091       1.76972 
   4753.42680      69.29071     125.17239       1.80675 
   4753.57920      67.43693     125.43198       1.86046 
   4753.73160      67.03441     126.12816       1.88196 
   4753.88400      67.98412     126.25274       1.85717 
   4754.03640      68.07475     127.27554       1.86967 
   4754.18880      70.08385     128.77542       1.83799 
   4754.34120      70.19357     126.80273       1.80693 
   4754.49360      68.33820     125.80003       1.84084 
   4754.64600      69.16529     126.36935       1.82749 
   4754.79840      69.57368     127.36420       1.83148 
   4754.95080      68.01237     127.88605       1.88028 
   4755.10320      68.64970     125.51189       1.82874 
   4755.25560      70.08633     126.33070       1.80249 
   4755.40800      70.12453     127.81821       1.82274 
   4755.56040      69.78561     128.85030       1.84648 
   4755.71280      69.24440     129.76180       1.87397 
   4755.86520      69.23253     127.40526       1.84037 
   4756.01760      69.32077     124.09359       1.79015 
   4756.17000      68.27693     123.75790       1.81288 
   4756.32240      66.00003     124.07031       1.88091 
   4756.47480      64.41225     125.34483       1.94598 
   4756.62720      65.32893     126.77418       1.94051 
   4756.77960      67.72633     129.53812       1.91341 
   4756.93200      69.33794     128.98518       1.86023 
   4757.08440      68.96486     128.02623       1.85642 
   4757.23680      68.39340     126.60690       1.85113 
   4757.38920      68.48772     125.04774       1.82590 
   4757.54160      69.95625     125.24969       1.79088 
   4757.69400      70.62372     126.34811       1.78977 
   4757.84640      69.01364     127.01072       1.84037 
   4757.99880      69.34667     127.31271       1.83591 
   4758.15120      70.00069     127.65857       1.82370 
   4758.30360      69.90302     127.60215       1.82553 
   4758.45600      69.19197     127.57644       1.84376 
   4758.60840      71.15819     130.72047       1.83758 
   4758.76080      73.05042     132.54581       1.81448 
   4758.91320      71.99055     131.25221       1.82321 
   4759.06560      70.56197     129.46512       1.83491 
   4759.21800      69.61098     127.90166       1.83747 
   4759.37040      70.50184     128.49994       1.82265 
   4759.52280      70.98229     128.38632       1.80879 
   4759.67520      70.49477     128.30420       1.82077 
   4759.82760      68.83652     128.58409       1.86795 
   4759.98000      68.70692     128.17587       1.86554 
   4760.13240      69.00602     129.15900       1.87174 
   4760.28480      69.57796     129.97545       1.86804 
   4760.43720      70.36214     130.18907       1.85057 
   4760.58960      71.16871     128.95396       1.81195 
   4760.74200      71.05132     130.75766       1.84032 
   4760.89440      69.71828     133.82625       1.92063 
   4761.04680      67.25729     134.14673       1.99465 
   4761.19920      67.36971     135.32925       2.00894 
   4761.35160      68.24073     135.01810       1.97854 
   4761.50400      69.60782     135.31198       1.94457 
   4761.65640      70.69961     137.57697       1.94691 
   4761.80880      67.15240     135.68208       2.02122 
   4761.96120      65.78394     131.45508       1.99968 
   4762.11360      67.59657     128.29890       1.89805 
   4762.26600      67.73830     126.19917       1.86303 
   4762.41840      67.38641     126.07488       1.87112 
   4762.57080      68.14400     128.75424       1.89014 
   4762.72320      69.88464     128.98488       1.84563 
   4762.87560      69.57351     128.25609       1.84341 
   4763.02800      69.72477     129.04765       1.85078 
   4763.18040      69.42028     127.03986       1.83001 
   4763.33280      69.86364     126.94302       1.81702 
   4763.48520      70.42412     128.00932       1.81770 
   4763.63760      69.95681     129.31500       1.84867 
   4763.79000      69.95300     133.15919       1.90346 
   4763.94240      70.99844     136.24829       1.91903 
   4764.09480      71.37074     138.03381       1.93412 
   4764.24720      70.50789     138.85867       1.96953 
   4764.39960      69.33086     137.20787       1.97895 
   4764.55200      68.97823     135.16483       1.95956 
   4764.70440      69.15774     135.21567       1.95520 
   4764.85680      69.25478     135.74257       1.96006 
   4765.00920      70.38017     136.80197       1.94386 
   4765.16160      71.07227     136.04326       1.91418 
   4765.31400      70.67898     135.68002       1.91992 
   4765.46640      68.89970     134.08440       1.94610 
   4765.61880      68.57326     132.32031       1.92990 
   4765.77120      69.93443     132.52591       1.89504 
   4765.92360      70.17516     134.03790       1.91018 
   4766.07600      70.31293     135.66660       1.92972 
   4766.22840      70.43640     133.96213       1.90199 
   4766.38080      69.06687     131.83987       1.90886 
   4766.53320      69.47158     132.35802       1.90520 
   4766.68560      71.35795     136.22411       1.90899 
   4766.83800      72.68372     137.72150       1.89490 
   4766.99040      73.02983     136.65753       1.87126 
   4767.14280      73.25154     137.31604       1.87462 
   4767.29520      73.18067     137.57777       1.88014 
   4767.44760      72.31098     136.75751       1.89123 
   4767.60000      72.39948     134.61836       1.85942 
   4767.75240      72.87561     133.95464       1.83815 
   4767.90480      72.95229     133.10271       1.82449 
   4768.05720      71.85612     131.14482       1.82527 
   4768.20960      70.32650     131.52655       1.87047 
   4768.36200      70.54485     134.58632       1.90797 
   4768.51440      72.81676     135.62045       1.86313 
   4768.66680      73.51942     135.21597       1.83967 
   4768.81920      72.21738     137.44872       1.90327 
   4768.97160      71.60075     139.11122       1.94298 
   4769.12400      70.09146     138.58308       1.97743 
   4769.27640      68.47980     139.20409       2.03316 
   4769.42880      67.75800     138.96213       2.05106 
   4769.58120      69.18792     138.87984       2.00753 
   4769.73360      70.23582     138.62582       1.97373 
   4769.88600      70.80341     138.08649       1.95042 
   4770.03840      71.49731     139.13153       1.94599 
   4770.19080      72.03467     141.67949       1.96692 
   4770.34320      72.69870     140.71872       1.93550 
   4770.49560      71.94448     136.81949       1.90173 
   4770.64800      71.43450     134.96436       1.88931 
   4770.80040      71.93577     133.42892       1.85513 
   4770.95280      72.80835     134.28561       1.84449 
   4771.10520      71.97911     136.05984       1.89039 
