~Version Information
VERS  .          2.0                              :CWLS Log Ascii Standard - Version 2.0
WRAP  .          NO                               :One line per depth step
~Well Information Block
#MNEM.UNIT       Data Type                        Information
#---------       ---------                        -------------------------------
STRT  .M         3396.00000                       :START DEPTH
STOP  .M         5302.00000                       :STOP DEPTH
STEP  .M          0.15240                         :INCREMENT
NULL  .          -999.25                          :NULL DATA VALUE
COMP  .          StatoilHydro                     :COMPANY
WELL  .          15/9-F-10                        :WELL
FLD   .          Volve                            :FIELD
LOC   .                                           :LOCATION
PROV  .          Norway                           :PROVINCE
STAT  .          Norway                           :STATE
CNTY  .          Maersk Inspirer                  :COUNTY
CTRY  .          Norway                           :COUNTRY
DATE  .                                           :DATE
UWI   .          15/9-F-10                        :UNIQUE WELL UWI
LIC   .                                           :LICENSE NUMBER
API   .                                           :API NUMBER
SRVC  .                                           :SERVICE COMPANY
~Parameter Information Block
#MNEM.UNIT       Value                            Description
#---------       ---------                        -------------
LONG  .DEG       1.887480                         :Well Surface Location
LATI  .DEG       58.441612                        :Well Surface Location
XWELL .DEG       1.887480                         :X-coordinate of Well Head
YWELL .DEG       58.441612                        :Y-coordinate of Well Head
PDAT  .          Mean Sea Level                   :Permanent Datum               
EPD   .m         0.00                             :Elevation of Permanent Datum (PDAT) above Mean Sea Level
LMF   .          Drill Floor                      :Logging Measured From (Name of Working Datum)
APD   .m         54.90                            :Elevation of Working Datum (LMF) Above Permanent Datum
EGL   .m         -91.00                           :Elevation of Ground Level Above Mean Sea Level
EDF   .m         54.90                            :Elevation of Derrick Floor Above Mean Sea Level
~Curve Information Block
#MNEM.UNIT       API Code            Curve    Description
#--------        --------------      -----    -------------------
DEPT  .M                             :0       Index
DTCO  .US/F                          :1       Delta-T Compressional         
DTSM  .US/F                          :2       Delta-T Shear                 
VPVS  .                              :3       Compressional to Shear Velocity Ratio
~Ascii Data Section
# ...
   4835.72280      70.10310     135.04384       1.92636 
   4835.87520      70.58977     136.23555       1.92995 
   4836.02760      70.34207     137.84776       1.96010 
   4836.18000      69.91527     139.51637       1.99565 
   4836.33240      71.28039     140.08266       1.96535 
   4836.48480      72.17161     137.98030       1.91206 
   4836.63720      73.45486     135.28876       1.84214 
   4836.78960      73.92380     135.47849       1.83308 
   4836.94200      71.45319     136.22826       1.90752 
   4837.09440      70.35873     136.64502       1.94257 
   4837.24680      72.06686     137.57382       1.90897 
   4837.39920      71.14677     138.94785       1.95423 
   4837.55160      68.48425     139.68256       2.03983 
   4837.70400      67.68229     138.15222       2.04132 
   4837.85640      67.00708     136.27637       2.03442 
   4838.00880      64.17920     135.13152       2.10635 
   4838.16120      64.26048     135.58907       2.11202 
   4838.31360      67.72861     136.05083       2.00921 
   4838.46600      69.20351     136.37274       1.97061 
   4838.61840      69.76307     135.37910       1.94078 
   4838.77080      71.04562     135.24826       1.90358 
   4838.92320      72.54721     139.06696       1.91689 
   4839.07560      71.79057     140.73381       1.96153 
   4839.22800      69.37811     139.53250       2.01109 
   4839.38040      68.84177     136.66011       1.98513 
   4839.53280      69.02905     136.02765       1.97069 
   4839.68520      69.87057     135.74673       1.94288 
   4839.83760      69.70181     134.68976       1.93240 
   4839.99000      67.94044     132.03589       1.94355 
   4840.14240      68.01562     131.39589       1.93259 
   4840.29480      68.97946     131.53464       1.90723 
   4840.44720      67.31324     129.77203       1.92789 
   4840.59960      68.99226     130.97334       1.89923 
   4840.75200      70.55845     132.10963       1.87259 
   4840.90440      69.35394     132.19073       1.90606 
   4841.05680      69.51628     132.11932       1.90072 
   4841.20920      69.94612     132.11932       1.88897 
   4841.36160      69.45280     132.11932       1.90231 
   4841.51400      69.83712     132.93347       1.90345 
   4841.66640      70.93277    -999.25000    -999.25000 
   4841.81880      71.78221    -999.25000    -999.25000 
   4841.97120      71.11551    -999.25000    -999.25000 
   4842.12360      71.70695    -999.25000    -999.25000 
   4842.27600      71.61217    -999.25000    -999.25000 
   4842.42840      72.04590    -999.25000    -999.25000 
   4842.58080      72.10894    -999.25000    -999.25000 
   4842.73320      69.38037    -999.25000    -999.25000 
   4842.88560      67.42029    -999.25000    -999.25000 
   4843.03800      64.00688    -999.25000    -999.25000 
   4843.19040      64.14661    -999.25000    -999.25000 
   4843.34280      69.15399    -999.25000    -999.25000 
   4843.49520      68.81248    -999.25000    -999.25000 
   4843.64760      68.32074    -999.25000    -999.25000 
   4843.80000      70.34798    -999.25000    -999.25000 
   4843.95240      71.18824    -999.25000    -999.25000 
   4844.10480      69.76667    -999.25000    -999.25000 
   4844.25720      67.97912    -999.25000    -999.25000 
   4844.40960      67.31561    -999.25000    -999.25000 
   4844.56200      69.47794    -999.25000    -999.25000 
   4844.71440      70.34582    -999.25000    -999.25000 
   4844.86680      69.42148    -999.25000    -999.25000 
   4845.01920      68.47969    -999.25000    -999.25000 
   4845.17160      68.42899    -999.25000    -999.25000 
   4845.32400      68.93519    -999.25000    -999.25000 
   4845.47640      69.62666    -999.25000    -999.25000 
   4845.62880      69.86588    -999.25000    -999.25000 
   4845.78120      69.64693    -999.25000    -999.25000 
   4845.93360      70.43793    -999.25000    -999.25000 
   4846.08600      69.74315    -999.25000    -999.25000 
   4846.23840      66.77158    -999.25000    -999.25000 
   4846.39080      61.61063    -999.25000    -999.25000 
   4846.54320      60.84056    -999.25000    -999.25000 
   4846.69560      65.11844    -999.25000    -999.25000 
   4846.84800      65.69255    -999.25000    -999.25000 
   4847.00040      65.97302    -999.25000    -999.25000 
   4847.15280      65.34050    -999.25000    -999.25000 
   4847.30520      65.23678    -999.25000    -999.25000 
   4847.45760      66.29243    -999.25000    -999.25000 
   4847.61000      67.66436    -999.25000    -999.25000 
   4847.76240      70.07323    -999.25000    -999.25000 
   4847.91480      68.67789    -999.25000    -999.25000 
   4848.06720      66.58369    -999.25000    -999.25000 
   4848.21960      67.31673    -999.25000    -999.25000 
   4848.37200      70.35775    -999.25000    -999.25000 
   4848.52440      68.09619    -999.25000    -999.25000 
   4848.67680      66.45240    -999.25000    -999.25000 
   4848.82920      67.60938    -999.25000    -999.25000 
   4848.98160      64.20522    -999.25000    -999.25000 
   4849.13400      66.06583    -999.25000    -999.25000 
   4849.28640      68.90080    -999.25000    -999.25000 
   4849.43880      70.47425    -999.25000    -999.25000 
   4849.59120      70.51938    -999.25000    -999.25000 
   4849.74360      70.46572    -999.25000    -999.25000 
   4849.89600      69.60802    -999.25000    -999.25000 
   4850.04840      67.51880    -999.25000    -999.25000 
   4850.20080      65.46309    -999.25000    -999.25000 
   4850.35320      64.56976    -999.25000    -999.25000 
   4850.50560      64.43656    -999.25000    -999.25000 
   4850.65800      65.03485    -999.25000    -999.25000 
   4850.81040      65.13235    -999.25000    -999.25000 
   4850.96280      64.32072    -999.25000    -999.25000 
   4851.11520      63.38940    -999.25000    -999.25000 
   4851.26760      65.38040    -999.25000    -999.25000 
   4851.42000      68.65218    -999.25000    -999.25000 
   4851.57240      69.54514    -999.25000    -999.25000 
   4851.72480      68.60525    -999.25000    -999.25000 
   4851.87720      67.52716    -999.25000    -999.25000 
   4852.02960      67.51904    -999.25000    -999.25000 
   4852.18200      68.33866    -999.25000    -999.25000 
   4852.33440      69.07109    -999.25000    -999.25000 
   4852.48680      66.88498    -999.25000    -999.25000 
   4852.63920      63.41720    -999.25000    -999.25000 
   4852.79160      65.60278    -999.25000    -999.25000 
   4852.94400      70.03943    -999.25000    -999.25000 
   4853.09640      71.10633    -999.25000    -999.25000 
   4853.24880      70.20802    -999.25000    -999.25000 
   4853.40120      69.86381    -999.25000    -999.25000 
   4853.55360      68.12748    -999.25000    -999.25000 
   4853.70600      62.79083    -999.25000    -999.25000 
   4853.85840      60.38283    -999.25000    -999.25000 
   4854.01080      64.38509    -999.25000    -999.25000 
   4854.16320      65.34494    -999.25000    -999.25000 
   4854.31560      66.98153    -999.25000    -999.25000 
   4854.46800      68.94326    -999.25000    -999.25000 
   4854.62040      69.90294    -999.25000    -999.25000 
   4854.77280      69.07257    -999.25000    -999.25000 
   4854.92520      69.20193    -999.25000    -999.25000 
   4855.07760      70.20412    -999.25000    -999.25000 
   4855.23000      70.70606    -999.25000    -999.25000 
   4855.38240      69.19874    -999.25000    -999.25000 
   4855.53480      68.18843    -999.25000    -999.25000 
   4855.68720      66.05142    -999.25000    -999.25000 
   4855.83960      65.63710    -999.25000    -999.25000 
   4855.99200      67.27561    -999.25000    -999.25000 
   4856.14440      69.91679    -999.25000    -999.25000 
   4856.29680      71.19960    -999.25000    -999.25000 
   4856.44920      71.86868    -999.25000    -999.25000 
   4856.60160      72.20063    -999.25000    -999.25000 
   4856.75400      72.87247    -999.25000    -999.25000 
   4856.90640      73.49409    -999.25000    -999.25000 
   4857.05880      72.45445    -999.25000    -999.25000 
