~Version Information
VERS  .          2.0                              :CWLS Log Ascii Standard - Version 2.0
WRAP  .          NO                               :One line per depth step
~Well Information Block
#MNEM.UNIT       Data Type                        Information
#---------       ---------                        -------------------------------
STRT  .M         3396.00000                       :START DEPTH
STOP  .M         5302.00000                       :STOP DEPTH
STEP  .M          0.15240                         :INCREMENT
NULL  .          -999.25                          :NULL DATA VALUE
COMP  .          StatoilHydro                     :COMPANY
WELL  .          15/9-F-10                        :WELL
FLD   .          Volve                            :FIELD
LOC   .                                           :LOCATION
PROV  .          Norway                           :PROVINCE
STAT  .          Norway                           :STATE
CNTY  .          Maersk Inspirer                  :COUNTY
CTRY  .          Norway                           :COUNTRY
DATE  .                                           :DATE
UWI   .          15/9-F-10                        :UNIQUE WELL UWI
LIC   .                                           :LICENSE NUMBER
API   .                                           :API NUMBER
SRVC  .                                           :SERVICE COMPANY
~Parameter Information Block
#MNEM.UNIT       Value                            Description
#---------       ---------                        -------------
LONG  .DEG       1.887480                         :Well Surface Location
LATI  .DEG       58.441612                        :Well Surface Location
XWELL .DEG       1.887480                         :X-coordinate of Well Head
YWELL .DEG       58.441612                        :Y-coordinate of Well Head
PDAT  .          Mean Sea Level                   :Permanent Datum               
EPD   .m         0.00                             :Elevation of Permanent Datum (PDAT) above Mean Sea Level
LMF   .          Drill Floor                      :Logging Measured From (Name of Working Datum)
APD   .m         54.90                            :Elevation of Working Datum (LMF) Above Permanent Datum
EGL   .m         -91.00                           :Elevation of Ground Level Above Mean Sea Level
EDF   .m         54.90                            :Elevation of Derrick Floor Above Mean Sea Level
~Curve Information Block
#MNEM.UNIT       API Code            Curve    Description
#--------        --------------      -----    -------------------
DEPT  .M                             :0       Index
DTCO  .US/F                          :1       Delta-T Compressional         
DTSM  .US/F                          :2       Delta-T Shear                 
VPVS  .                              :3       Compressional to Shear Velocity Ratio
~Ascii Data Section
# ...
   4642.32720      58.94388     125.90719       2.13605 
   4642.47960      59.09536     125.24349       2.11938 
   4642.63200      59.59553     124.49046       2.08902 
   4642.78440      59.77317     120.56866       2.01697 
   4642.93680      59.68159     116.34366       1.94941 
   4643.08920      59.84406     116.24833       1.94252 
   4643.24160      60.03805     115.47746       1.92348 
   4643.39400      60.48907     115.07485       1.90240 
   4643.54640      60.87402     116.45774       1.91305 
   4643.69880      60.93371     118.21149       1.94011 
   4643.85120      60.79703     118.76911       1.95361 
   4644.00360      61.89248     118.18892       1.91002 
   4644.15600      62.90586     115.06039       1.82919 
   4644.30840      62.47718     111.64283       1.78708 
   4644.46080      60.82326     110.94836       1.82449 
   4644.61320      60.09838     111.87267       1.86149 
   4644.76560      60.56863     113.01144       1.86584 
   4644.91800      60.09600     113.33179       1.88600 
   4645.07040      60.04371     113.56437       1.89164 
   4645.22280      60.97971     114.84555       1.88342 
   4645.37520      60.79036     116.90366       1.92300 
   4645.52760      61.44166     118.73443       1.93263 
   4645.68000      62.16846     118.91864       1.91284 
   4645.83240      61.85413     120.51364       1.94867 
   4645.98480      61.33938     121.79928       1.98571 
   4646.13720      61.29134     121.57108       1.98362 
   4646.28960      60.77244     121.98949       2.00731 
   4646.44200      60.92960     120.66371       1.98053 
   4646.59440      60.83846     117.96684       1.93899 
   4646.74680      60.81424     116.19587       1.91114 
   4646.89920      62.06668     115.81708       1.86602 
   4647.05160      62.53953     114.87338       1.83700 
   4647.20400      62.34469     113.24294       1.81661 
   4647.35640      60.84630     111.59466       1.83405 
   4647.50880      59.95456     110.77821       1.84790 
   4647.66120      59.35102     110.33208       1.85906 
   4647.81360      58.59285     111.25466       1.90081 
   4647.96600      56.35199     114.16487       2.02603 
   4648.11840      55.92496     117.41576       2.09965 
   4648.27080      57.56397     117.68694       2.04903 
   4648.42320      60.39733     116.93552       1.93631 
   4648.57560      58.59659     116.20560       1.98376 
   4648.72800      58.21117     114.25627       1.96468 
   4648.88040      59.34328     111.81316       1.88439 
   4649.03280      58.03687     109.20522       1.88170 
   4649.18520      58.32257     108.72953       1.86425 
   4649.33760      58.36743     111.61861       1.91246 
   4649.49000      58.64626     115.46012       1.96868 
   4649.64240      60.46334     117.89295       1.95056 
   4649.79480      62.22473     119.67529       1.92322 
   4649.94720      61.64821     121.04745       1.96380 
   4650.09960      59.59017     119.07841       1.99856 
   4650.25200      58.38202     116.40177       1.99385 
   4650.40440      58.15801     112.99850       1.94284 
   4650.55680      57.48064     111.33129       1.93688 
   4650.70920      56.88541     112.75146       1.98241 
   4650.86160      55.84434     113.95818       2.04079 
   4651.01400      55.50132     114.68782       2.06640 
   4651.16640      56.04343     114.24230       2.03868 
   4651.31880      56.82373     113.01215       1.98888 
   4651.47120      58.33206     112.91357       1.93684 
   4651.62360      59.81811     112.71812       1.88440 
   4651.77600      59.77261     113.43556       1.89783 
   4651.92840      59.83551     113.17124       1.89142 
   4652.08080      58.39865     113.24603       1.94027 
   4652.23320      57.46123     113.45208       1.97496 
   4652.38560      58.83819     113.57866       1.93037 
   4652.53800      59.07196     114.98403       1.94652 
   4652.69040      58.70235     117.94426       2.00947 
   4652.84280      59.26522     117.96500       1.99244 
   4652.99520      62.07413     116.18926       1.87219 
   4653.14760      63.63125     118.02000       1.85476 
   4653.30000      64.24853     118.41137       1.84344 
   4653.45240      64.48581     117.65112       1.82491 
   4653.60480      63.74621     118.20023       1.85431 
   4653.75720      64.59447     120.93381       1.87237 
   4653.90960      63.53938     122.04272       1.92086 
   4654.06200      61.70044     120.50677       1.95354 
   4654.21440      61.56894     120.17082       1.95289 
   4654.36680      63.88204     120.36832       1.88435 
   4654.51920      63.42159     119.30177       1.88161 
   4654.67160      63.00975     118.88255       1.88758 
   4654.82400      65.32937     120.77932       1.84872 
   4654.97640      65.90043     122.13271       1.85328 
   4655.12880      64.57820     121.48553       1.88236 
   4655.28120      62.37348     121.27656       1.94437 
   4655.43360      62.77999     121.20605       1.93097 
   4655.58600      63.20999     121.65756       1.92509 
   4655.73840      62.23141     121.83079       1.95772 
   4655.89080      62.31667     121.74956       1.95372 
   4656.04320      61.46416     119.25668       1.94017 
   4656.19560      61.17315     116.69247       1.90761 
   4656.34800      60.58752     115.68973       1.90986 
   4656.50040      59.64843     114.55115       1.92060 
   4656.65280      59.65751     114.36580       1.91743 
   4656.80520      59.31095     115.90240       1.95428 
   4656.95760      60.89100     116.10216       1.90739 
   4657.11000      61.71683     116.08924       1.88131 
   4657.26240      59.53632     116.38197       1.95620 
   4657.41480      57.30204     116.88644       2.03995 
   4657.56720      58.07898     119.01851       2.04976 
   4657.71960      62.81301     122.58693       1.95655 
   4657.87200      66.69526     123.16138       1.84666 
   4658.02440      63.26794     119.37585       1.88928 
   4658.17680      59.40718     115.31647       1.94116 
   4658.32920      59.76629     114.90022       1.92249 
   4658.48160      60.20001     116.80593       1.94022 
   4658.63400      59.82127     119.03576       1.99021 
   4658.78640      58.94183     118.98466       2.01870 
   4658.93880      57.86470     119.41406       2.06575 
   4659.09120      55.64716     119.13493       2.14089 
   4659.24360      56.51176     117.14676       2.07412 
   4659.39600      58.96999     115.82787       1.96517 
   4659.54840      60.34496     116.46251       1.93011 
   4659.70080      59.58968     117.21947       1.96712 
   4659.85320      59.14058     116.39538       1.96811 
   4660.00560      59.09997     117.15861       1.98244 
   4660.15800      59.36879     117.96063       1.98718 
   4660.31040      60.24136     117.38777       1.94863 
   4660.46280      60.56696     116.86323       1.92954 
   4660.61520      61.63533     117.01093       1.89875 
   4660.76760      62.53841     117.26534       1.87512 
   4660.92000      62.73600     116.48347       1.85708 
   4661.07240      63.94108     116.05264       1.81500 
   4661.22480      63.38289     119.07458       1.88050 
   4661.37720      61.51375     122.32687       1.98860 
   4661.52960      61.42505     120.98935       1.96977 
   4661.68200      61.73116     120.12354       1.94591 
   4661.83440      62.37621     122.07445       1.95696 
   4661.98680      63.69493     124.42543       1.95364 
   4662.13920      63.67252     124.16707       1.95052 
   4662.29160      61.70676     124.73720       2.02215 
   4662.44400      60.36221     125.66624       2.08188 
   4662.59640      61.26147     124.05277       2.02670 
   4662.74880      62.48477     120.00260       1.92041 
   4662.90120      60.65877     117.11274       1.93129 
   4663.05360      59.36220     114.86886       1.93534 
   4663.20600      59.86765     112.95993       1.88683 
   4663.35840      59.71059     114.14034       1.91162 
   4663.51080      58.94970     116.01659       1.96850 
   4663.66320      57.59700     116.62796       2.02502 
